[
  {
    "id": "584204204e65fad6a7709255",
    "name": "Punta Colorados",
    "lat": 23.579,
    "lon": -109.513,
    "subregion": "Cabo",
    "timezone": "America/Mazatlan",
    "cameras": 0,
    "abilityLevels": [
      "INTERMEDIATE",
      "ADVANCED",
      "PRO"
    ],
    "boardTypes": [
      "SHORTBOARD",
      "FUNBOARD",
      "LONGBOARD",
      "FISH"
    ]
  },
  {
    "id": "584204204e65fad6a7709253",
    "name": "Punta Arenas",
    "lat": 23.546,
    "lon": -109.469,
    "subregion": "Cabo",
    "timezone": "America/Mazatlan",
    "cameras": 0,
    "abilityLevels": [
      "INTERMEDIATE",
      "ADVANCED",
      "PRO"
    ],
    "boardTypes": [
      "SHORTBOARD",
      "FUNBOARD",
      "LONGBOARD"
    ]
  },
  {
    "id": "584204204e65fad6a7709254",
    "name": "El Rincon",
    "lat": 23.484,
    "lon": -109.452,
    "subregion": "Cabo",
    "timezone": "America/Mazatlan",
    "cameras": 0,
    "abilityLevels": [
      "BEGINNER",
      "INTERMEDIATE",
      "ADVANCED",
      "PRO"
    ],
    "boardTypes": [
      "SHORTBOARD",
      "FUNBOARD",
      "LONGBOARD",
      "FISH"
    ]
  },
  {
    "id": "584204204e65fad6a7709251",
    "name": "Cabo Pulmo",
    "lat": 23.417,
    "lon": -109.422,
    "subregion": "Cabo",
    "timezone": "America/Mazatlan",
    "cameras": 0,
    "abilityLevels": [
      "BEGINNER",
      "INTERMEDIATE",
      "ADVANCED",
      "PRO"
    ],
    "boardTypes": [
      "SHORTBOARD",
      "FUNBOARD",
      "LONGBOARD",
      "FISH"
    ]
  },
  {
    "id": "584204204e65fad6a7709250",
    "name": "Los Frailes",
    "lat": 23.379,
    "lon": -109.42,
    "subregion": "Cabo",
    "timezone": "America/Mazatlan",
    "cameras": 0,
    "abilityLevels": [
      "BEGINNER",
      "INTERMEDIATE",
      "ADVANCED",
      "PRO"
    ],
    "boardTypes": [
      "SHORTBOARD",
      "FUNBOARD",
      "LONGBOARD",
      "FISH"
    ]
  },
  {
    "id": "584204204e65fad6a770924e",
    "name": "Frailes South",
    "lat": 23.342,
    "lon": -109.423,
    "subregion": "Cabo",
    "timezone": "America/Mazatlan",
    "cameras": 0,
    "abilityLevels": [
      "BEGINNER",
      "INTERMEDIATE",
      "ADVANCED",
      "PRO"
    ],
    "boardTypes": [
      "SHORTBOARD",
      "FUNBOARD",
      "LONGBOARD",
      "FISH"
    ]
  },
  {
    "id": "584204204e65fad6a770924f",
    "name": "Boca Del Solado",
    "lat": 23.254,
    "lon": -109.436,
    "subregion": "Cabo",
    "timezone": "America/Mazatlan",
    "cameras": 0,
    "abilityLevels": [
      "BEGINNER",
      "INTERMEDIATE",
      "ADVANCED",
      "PRO"
    ],
    "boardTypes": [
      "SHORTBOARD",
      "FUNBOARD",
      "LONGBOARD",
      "FISH"
    ]
  },
  {
    "id": "5842041f4e65fad6a7708bdc",
    "name": "Nine Palms",
    "lat": 23.174,
    "lon": -109.476,
    "subregion": "Cabo",
    "timezone": "America/Mazatlan",
    "cameras": 0,
    "abilityLevels": [
      "BEGINNER",
      "INTERMEDIATE",
      "ADVANCED"
    ],
    "boardTypes": [
      "SHORTBOARD",
      "FUNBOARD",
      "LONGBOARD",
      "FISH"
    ]
  },
  {
    "id": "5842041f4e65fad6a7708bdb",
    "name": "Shipwreck",
    "lat": 23.12,
    "lon": -109.527,
    "subregion": "Cabo",
    "timezone": "America/Mazatlan",
    "cameras": 0,
    "abilityLevels": [
      "INTERMEDIATE",
      "ADVANCED"
    ],
    "boardTypes": [
      "SHORTBOARD",
      "FISH",
      "LONGBOARD",
      "BODYBOARD"
    ]
  },
  {
    "id": "5842041f4e65fad6a7708bd9",
    "name": "The Estuary",
    "lat": 23.04871261564847,
    "lon": -109.6800082320905,
    "subregion": "Cabo",
    "timezone": "America/Mazatlan",
    "cameras": 0,
    "abilityLevels": [
      "BEGINNER",
      "INTERMEDIATE",
      "ADVANCED"
    ],
    "boardTypes": [
      "SHORTBOARD",
      "BODYBOARD",
      "SKIMMING"
    ]
  },
  {
    "id": "5842041f4e65fad6a7708bda",
    "name": "Zippers",
    "lat": 23.029,
    "lon": -109.714,
    "subregion": "Cabo",
    "timezone": "America/Mazatlan",
    "cameras": 1,
    "abilityLevels": [
      "ADVANCED",
      "INTERMEDIATE"
    ],
    "boardTypes": [
      "SHORTBOARD",
      "FISH"
    ]
  },
  {
    "id": "5842041f4e65fad6a7708bd7",
    "name": "The Rock",
    "lat": 23.02506324659338,
    "lon": -109.71456,
    "subregion": "Cabo",
    "timezone": "America/Mazatlan",
    "cameras": 1,
    "abilityLevels": [
      "INTERMEDIATE",
      "ADVANCED"
    ],
    "boardTypes": [
      "SHORTBOARD",
      "FISH"
    ]
  },
  {
    "id": "5842041f4e65fad6a7708bd4",
    "name": "Old Man's",
    "lat": 23.02358192684975,
    "lon": -109.7147,
    "subregion": "Cabo",
    "timezone": "America/Mazatlan",
    "cameras": 1,
    "abilityLevels": [
      "BEGINNER",
      "INTERMEDIATE",
      "ADVANCED"
    ],
    "boardTypes": [
      "SHORTBOARD",
      "FUNBOARD",
      "LONGBOARD",
      "FISH",
      "BODYBOARD"
    ]
  },
  {
    "id": "584204204e65fad6a770924c",
    "name": "Punta Pamilla",
    "lat": 23.008,
    "lon": -109.712,
    "subregion": "Cabo",
    "timezone": "America/Mazatlan",
    "cameras": 0,
    "abilityLevels": [
      "PRO"
    ],
    "boardTypes": [
      "SHORTBOARD",
      "GUN"
    ]
  },
  {
    "id": "584204204e65fad6a770924a",
    "name": "Bahia Chileno",
    "lat": 22.945,
    "lon": -109.804,
    "subregion": "Cabo",
    "timezone": "America/Mazatlan",
    "cameras": 0,
    "abilityLevels": [
      "INTERMEDIATE",
      "ADVANCED",
      "PRO"
    ],
    "boardTypes": [
      "SHORTBOARD",
      "FUNBOARD",
      "LONGBOARD",
      "FISH"
    ]
  },
  {
    "id": "5842041f4e65fad6a7708bd8",
    "name": "Monuments",
    "lat": 22.896,
    "lon": -109.869,
    "subregion": "Cabo",
    "timezone": "America/Mazatlan",
    "cameras": 1,
    "abilityLevels": [
      "INTERMEDIATE",
      "ADVANCED"
    ],
    "boardTypes": [
      "SHORTBOARD",
      "FISH",
      "BODYBOARD"
    ]
  },
  {
    "id": "584204204e65fad6a770924b",
    "name": "Backwash",
    "lat": 22.892,
    "lon": -109.895,
    "subregion": "Cabo",
    "timezone": "America/Mazatlan",
    "cameras": 0,
    "abilityLevels": [
      "BEGINNER",
      "INTERMEDIATE",
      "ADVANCED",
      "PRO"
    ],
    "boardTypes": [
      "SHORTBOARD",
      "FUNBOARD",
      "LONGBOARD",
      "FISH",
      "BODYBOARD",
      "SKIMMING",
      "BODYSURFING"
    ]
  },
  {
    "id": "584204204e65fad6a77091b6",
    "name": "Tiburon",
    "lat": 23.802,
    "lon": -106.885,
    "subregion": "Mazatlan Area",
    "timezone": "America/Mazatlan",
    "cameras": 0,
    "abilityLevels": [
      "BEGINNER",
      "INTERMEDIATE",
      "ADVANCED"
    ],
    "boardTypes": [
      "SHORTBOARD",
      "FUNBOARD",
      "LONGBOARD",
      "FISH",
      "KITEBOARD"
    ]
  },
  {
    "id": "584204204e65fad6a77091ad",
    "name": "Milagro",
    "lat": 23.796,
    "lon": -106.884,
    "subregion": "Mazatlan Area",
    "timezone": "America/Mazatlan",
    "cameras": 0,
    "abilityLevels": [
      "INTERMEDIATE",
      "ADVANCED"
    ],
    "boardTypes": [
      "SHORTBOARD",
      "FUNBOARD",
      "LONGBOARD",
      "FISH"
    ]
  },
  {
    "id": "584204204e65fad6a77091b0",
    "name": "Patoles",
    "lat": 23.742,
    "lon": -106.847,
    "subregion": "Mazatlan Area",
    "timezone": "America/Mazatlan",
    "cameras": 0,
    "abilityLevels": [
      "INTERMEDIATE",
      "ADVANCED"
    ],
    "boardTypes": [
      "SHORTBOARD",
      "FISH",
      "FUNBOARD",
      "LONGBOARD"
    ]
  },
  {
    "id": "584204204e65fad6a77091b1",
    "name": "Dimas Rivermouth",
    "lat": 23.701,
    "lon": -106.812,
    "subregion": "Mazatlan Area",
    "timezone": "America/Mazatlan",
    "cameras": 0,
    "abilityLevels": [
      "BEGINNER",
      "INTERMEDIATE",
      "ADVANCED"
    ],
    "boardTypes": [
      "SHORTBOARD",
      "FUNBOARD",
      "LONGBOARD",
      "FISH",
      "BODYBOARD"
    ]
  },
  {
    "id": "584204204e65fad6a77091b3",
    "name": "Las Labradas",
    "lat": 23.613,
    "lon": -106.767,
    "subregion": "Mazatlan Area",
    "timezone": "America/Mazatlan",
    "cameras": 0,
    "abilityLevels": [
      "BEGINNER",
      "INTERMEDIATE",
      "ADVANCED"
    ],
    "boardTypes": [
      "SHORTBOARD",
      "FUNBOARD",
      "LONGBOARD",
      "FISH"
    ]
  },
  {
    "id": "584204204e65fad6a77091b4",
    "name": "Marmols",
    "lat": 23.492,
    "lon": -106.629,
    "subregion": "Mazatlan Area",
    "timezone": "America/Mazatlan",
    "cameras": 0,
    "abilityLevels": [
      "BEGINNER",
      "INTERMEDIATE",
      "ADVANCED"
    ],
    "boardTypes": [
      "SHORTBOARD",
      "FUNBOARD",
      "LONGBOARD",
      "FISH"
    ]
  },
  {
    "id": "584204204e65fad6a77091d2",
    "name": "Rucos",
    "lat": 23.441,
    "lon": -106.583,
    "subregion": "Mazatlan Area",
    "timezone": "America/Mazatlan",
    "cameras": 0,
    "abilityLevels": [
      "BEGINNER",
      "INTERMEDIATE",
      "ADVANCED"
    ],
    "boardTypes": [
      "SHORTBOARD",
      "FISH",
      "FUNBOARD",
      "LONGBOARD"
    ]
  },
  {
    "id": "584204204e65fad6a77091d4",
    "name": "Playa Bruja",
    "lat": 23.303,
    "lon": -106.492,
    "subregion": "Mazatlan Area",
    "timezone": "America/Mazatlan",
    "cameras": 0,
    "abilityLevels": [
      "BEGINNER",
      "INTERMEDIATE",
      "ADVANCED"
    ],
    "boardTypes": [
      "SHORTBOARD",
      "FUNBOARD",
      "LONGBOARD",
      "FISH",
      "BODYBOARD"
    ]
  },
  {
    "id": "584204204e65fad6a77091d7",
    "name": "Las Flores",
    "lat": 23.241,
    "lon": -106.454,
    "subregion": "Mazatlan Area",
    "timezone": "America/Mazatlan",
    "cameras": 0,
    "abilityLevels": [
      "BEGINNER",
      "INTERMEDIATE",
      "ADVANCED",
      "PRO"
    ],
    "boardTypes": [
      "SHORTBOARD",
      "FUNBOARD",
      "LONGBOARD",
      "FISH"
    ]
  },
  {
    "id": "584204204e65fad6a77091d8",
    "name": "El Camaron",
    "lat": 23.238,
    "lon": -106.448,
    "subregion": "Mazatlan Area",
    "timezone": "America/Mazatlan",
    "cameras": 0,
    "abilityLevels": [
      "INTERMEDIATE",
      "ADVANCED"
    ],
    "boardTypes": [
      "SHORTBOARD",
      "FISH",
      "BODYBOARD"
    ]
  },
  {
    "id": "584204204e65fad6a77091e6",
    "name": "Valentinos",
    "lat": 23.237,
    "lon": -106.445,
    "subregion": "Mazatlan Area",
    "timezone": "America/Mazatlan",
    "cameras": 0,
    "abilityLevels": [
      "BEGINNER",
      "INTERMEDIATE",
      "ADVANCED"
    ],
    "boardTypes": [
      "SHORTBOARD",
      "FISH"
    ]
  },
  {
    "id": "584204204e65fad6a77091e7",
    "name": "Los Pinos",
    "lat": 23.209,
    "lon": -106.429,
    "subregion": "Mazatlan Area",
    "timezone": "America/Mazatlan",
    "cameras": 0,
    "abilityLevels": [
      "INTERMEDIATE",
      "ADVANCED"
    ],
    "boardTypes": [
      "SHORTBOARD"
    ]
  },
  {
    "id": "584204204e65fad6a77091e4",
    "name": "Stone Island",
    "lat": 23.183,
    "lon": -106.4,
    "subregion": "Mazatlan Area",
    "timezone": "America/Mazatlan",
    "cameras": 0,
    "abilityLevels": [
      "BEGINNER",
      "INTERMEDIATE",
      "ADVANCED"
    ],
    "boardTypes": [
      "SHORTBOARD",
      "FISH",
      "FUNBOARD",
      "LONGBOARD"
    ]
  },
  {
    "id": "584204204e65fad6a77091ea",
    "name": "Barron",
    "lat": 23.089,
    "lon": -106.295,
    "subregion": "Mazatlan Area",
    "timezone": "America/Mazatlan",
    "cameras": 0,
    "abilityLevels": [
      "BEGINNER",
      "INTERMEDIATE",
      "ADVANCED"
    ],
    "boardTypes": [
      "SHORTBOARD",
      "FUNBOARD",
      "LONGBOARD",
      "FISH"
    ]
  },
  {
    "id": "640a43f44eb375764d95728b",
    "name": "Playa Novillero",
    "lat": 22.377712,
    "lon": -105.68586,
    "subregion": "Riviera Nayarit Area",
    "timezone": "America/Mexico_City",
    "cameras": 0,
    "abilityLevels": [],
    "boardTypes": []
  },
  {
    "id": "584204204e65fad6a77091e8",
    "name": "San Blas",
    "lat": 21.526,
    "lon": -105.284,
    "subregion": "Riviera Nayarit Area",
    "timezone": "America/Mazatlan",
    "cameras": 0,
    "abilityLevels": [
      "BEGINNER",
      "INTERMEDIATE",
      "ADVANCED"
    ],
    "boardTypes": [
      "SHORTBOARD",
      "FISH",
      "FUNBOARD",
      "LONGBOARD"
    ]
  },
  {
    "id": "584204204e65fad6a77091ec",
    "name": "Stoners Point",
    "lat": 21.512,
    "lon": -105.262,
    "subregion": "Riviera Nayarit Area",
    "timezone": "America/Mazatlan",
    "cameras": 0,
    "abilityLevels": [
      "INTERMEDIATE",
      "ADVANCED"
    ],
    "boardTypes": [
      "SHORTBOARD",
      "FISH"
    ]
  },
  {
    "id": "584204204e65fad6a77091e9",
    "name": "Las Islitas",
    "lat": 21.516,
    "lon": -105.246,
    "subregion": "Riviera Nayarit Area",
    "timezone": "America/Mazatlan",
    "cameras": 0,
    "abilityLevels": [
      "INTERMEDIATE",
      "ADVANCED"
    ],
    "boardTypes": [
      "SHORTBOARD",
      "LONGBOARD",
      "FISH"
    ]
  },
  {
    "id": "584204204e65fad6a77091eb",
    "name": "Aticama",
    "lat": 21.484,
    "lon": -105.202,
    "subregion": "Riviera Nayarit Area",
    "timezone": "America/Mazatlan",
    "cameras": 0,
    "abilityLevels": [
      "BEGINNER",
      "INTERMEDIATE",
      "ADVANCED"
    ],
    "boardTypes": [
      "SHORTBOARD",
      "FUNBOARD",
      "LONGBOARD",
      "FISH"
    ]
  },
  {
    "id": "584204204e65fad6a77091ed",
    "name": "Santa Cruz",
    "lat": 21.437,
    "lon": -105.203,
    "subregion": "Riviera Nayarit Area",
    "timezone": "America/Mazatlan",
    "cameras": 0,
    "abilityLevels": [
      "BEGINNER",
      "INTERMEDIATE",
      "ADVANCED"
    ],
    "boardTypes": [
      "SHORTBOARD",
      "FUNBOARD",
      "LONGBOARD",
      "FISH"
    ]
  },
  {
    "id": "584204204e65fad6a77091ef",
    "name": "Punta Custodio",
    "lat": 21.346,
    "lon": -105.247,
    "subregion": "Riviera Nayarit Area",
    "timezone": "America/Mazatlan",
    "cameras": 0,
    "abilityLevels": [
      "BEGINNER",
      "INTERMEDIATE"
    ],
    "boardTypes": [
      "SHORTBOARD",
      "FUNBOARD",
      "LONGBOARD",
      "FISH"
    ]
  },
  {
    "id": "584204204e65fad6a77091f0",
    "name": "Chacala",
    "lat": 21.188,
    "lon": -105.23,
    "subregion": "Riviera Nayarit Area",
    "timezone": "America/Mazatlan",
    "cameras": 0,
    "abilityLevels": [
      "BEGINNER",
      "INTERMEDIATE",
      "ADVANCED"
    ],
    "boardTypes": [
      "SHORTBOARD",
      "FUNBOARD",
      "LONGBOARD",
      "FISH"
    ]
  },
  {
    "id": "5842041f4e65fad6a7708c46",
    "name": "Costa Azul",
    "lat": 20.934,
    "lon": -105.401,
    "subregion": "Riviera Nayarit Area",
    "timezone": "America/Bahia_Banderas",
    "cameras": 0,
    "abilityLevels": [
      "INTERMEDIATE",
      "ADVANCED"
    ],
    "boardTypes": [
      "SHORTBOARD"
    ]
  },
  {
    "id": "584204204e65fad6a77091ee",
    "name": "San Pancho",
    "lat": 20.9,
    "lon": -105.418,
    "subregion": "Riviera Nayarit Area",
    "timezone": "America/Bahia_Banderas",
    "cameras": 0,
    "abilityLevels": [
      "BEGINNER",
      "INTERMEDIATE",
      "ADVANCED"
    ],
    "boardTypes": [
      "SHORTBOARD",
      "FUNBOARD",
      "LONGBOARD",
      "FISH"
    ]
  },
  {
    "id": "640a43f14eb3751245957173",
    "name": "Ostiones",
    "lat": 20.8822,
    "lon": -105.43,
    "subregion": "Riviera Nayarit Area",
    "timezone": "America/Bahia_Banderas",
    "cameras": 0,
    "abilityLevels": [],
    "boardTypes": []
  },
  {
    "id": "584204204e65fad6a77091fa",
    "name": "Sayulita",
    "lat": 20.872,
    "lon": -105.441,
    "subregion": "Riviera Nayarit Area",
    "timezone": "America/Bahia_Banderas",
    "cameras": 1,
    "abilityLevels": [
      "BEGINNER",
      "INTERMEDIATE",
      "ADVANCED"
    ],
    "boardTypes": [
      "SHORTBOARD",
      "FISH",
      "FUNBOARD",
      "LONGBOARD",
      "BODYBOARD",
      "BODYSURFING"
    ]
  },
  {
    "id": "62df04768bfd3f6ad4a214b0",
    "name": "Palmitas",
    "lat": 20.76578,
    "lon": -105.49733,
    "subregion": "Riviera Nayarit Area",
    "timezone": "America/Bahia_Banderas",
    "cameras": 0,
    "abilityLevels": [],
    "boardTypes": []
  },
  {
    "id": "584204204e65fad6a7709abf",
    "name": "El Anclote",
    "lat": 20.769,
    "lon": -105.521,
    "subregion": "Riviera Nayarit Area",
    "timezone": "America/Bahia_Banderas",
    "cameras": 1,
    "abilityLevels": [],
    "boardTypes": []
  },
  {
    "id": "584204204e65fad6a77091f2",
    "name": "La Lancha",
    "lat": 20.762,
    "lon": -105.494,
    "subregion": "Riviera Nayarit Area",
    "timezone": "America/Bahia_Banderas",
    "cameras": 0,
    "abilityLevels": [
      "BEGINNER",
      "INTERMEDIATE",
      "ADVANCED"
    ],
    "boardTypes": [
      "SHORTBOARD",
      "FISH",
      "FUNBOARD",
      "LONGBOARD",
      "BODYBOARD"
    ]
  },
  {
    "id": "584204204e65fad6a77091f1",
    "name": "Banderas",
    "lat": 20.749,
    "lon": -105.46,
    "subregion": "Riviera Nayarit Area",
    "timezone": "America/Bahia_Banderas",
    "cameras": 0,
    "abilityLevels": [
      "INTERMEDIATE",
      "ADVANCED"
    ],
    "boardTypes": [
      "SHORTBOARD",
      "FUNBOARD",
      "LONGBOARD",
      "FISH"
    ]
  },
  {
    "id": "584204204e65fad6a77099db",
    "name": "El Faro",
    "lat": 20.756,
    "lon": -105.531,
    "subregion": "Riviera Nayarit Area",
    "timezone": "America/Bahia_Banderas",
    "cameras": 0,
    "abilityLevels": [],
    "boardTypes": []
  },
  {
    "id": "584204204e65fad6a7709ac2",
    "name": "Bahia TW",
    "lat": 20.76,
    "lon": -105.538,
    "subregion": "Riviera Nayarit Area",
    "timezone": "America/Bahia_Banderas",
    "cameras": 0,
    "abilityLevels": [],
    "boardTypes": []
  },
  {
    "id": "640a43ef4519054f8a9dc4c2",
    "name": "Hammerhead",
    "lat": 21.3155,
    "lon": -106.226,
    "subregion": "Riviera Nayarit Area",
    "timezone": "America/Mexico_City",
    "cameras": 0,
    "abilityLevels": [],
    "boardTypes": []
  },
  {
    "id": "584204204e65fad6a77091f3",
    "name": "Punta Burros",
    "lat": 20.7505,
    "lon": -105.454,
    "subregion": "Riviera Nayarit Area",
    "timezone": "America/Bahia_Banderas",
    "cameras": 0,
    "abilityLevels": [
      "BEGINNER",
      "INTERMEDIATE",
      "ADVANCED"
    ],
    "boardTypes": [
      "SHORTBOARD",
      "FUNBOARD",
      "LONGBOARD",
      "FISH",
      "BODYBOARD"
    ]
  },
  {
    "id": "584204204e65fad6a7709ac3",
    "name": "Veneros",
    "lat": 20.747,
    "lon": -105.436,
    "subregion": "Riviera Nayarit Area",
    "timezone": "America/Bahia_Banderas",
    "cameras": 0,
    "abilityLevels": [],
    "boardTypes": []
  },
  {
    "id": "640a43f2b6d76989f0524beb",
    "name": "Quimixto",
    "lat": 20.505694,
    "lon": -105.36347,
    "subregion": "Riviera Nayarit Area",
    "timezone": "America/Mexico_City",
    "cameras": 0,
    "abilityLevels": [],
    "boardTypes": []
  },
  {
    "id": "584204204e65fad6a77091f6",
    "name": "Playa Tenacatita",
    "lat": 19.289,
    "lon": -104.855,
    "subregion": "Manzanillo Area",
    "timezone": "America/Mexico_City",
    "cameras": 0,
    "abilityLevels": [],
    "boardTypes": []
  },
  {
    "id": "584204204e65fad6a77091f4",
    "name": "Boca de Iguanas",
    "lat": 19.305,
    "lon": -104.819,
    "subregion": "Manzanillo Area",
    "timezone": "America/Mexico_City",
    "cameras": 0,
    "abilityLevels": [
      "BEGINNER",
      "INTERMEDIATE"
    ],
    "boardTypes": [
      "SHORTBOARD",
      "FUNBOARD",
      "LONGBOARD",
      "FISH"
    ]
  },
  {
    "id": "584204204e65fad6a77091f8",
    "name": "Barra de Navidad",
    "lat": 19.19975,
    "lon": -104.68577,
    "subregion": "Manzanillo Area",
    "timezone": "America/Mexico_City",
    "cameras": 0,
    "abilityLevels": [
      "INTERMEDIATE",
      "ADVANCED"
    ],
    "boardTypes": [
      "SHORTBOARD",
      "FUNBOARD",
      "LONGBOARD",
      "FISH",
      "BODYBOARD",
      "GUN"
    ]
  },
  {
    "id": "584204204e65fad6a77091f5",
    "name": "Manzanillo",
    "lat": 19.118,
    "lon": -104.368,
    "subregion": "Manzanillo Area",
    "timezone": "America/Mexico_City",
    "cameras": 0,
    "abilityLevels": [
      "INTERMEDIATE",
      "ADVANCED"
    ],
    "boardTypes": [
      "SHORTBOARD",
      "BODYBOARD",
      "GUN"
    ]
  },
  {
    "id": "584204204e65fad6a7709208",
    "name": "Cuyutlan",
    "lat": 18.915,
    "lon": -104.073,
    "subregion": "Manzanillo Area",
    "timezone": "America/Mexico_City",
    "cameras": 0,
    "abilityLevels": [
      "INTERMEDIATE",
      "ADVANCED"
    ],
    "boardTypes": [
      "SHORTBOARD",
      "FISH",
      "BODYBOARD",
      "BODYSURFING",
      "GUN"
    ]
  },
  {
    "id": "584204204e65fad6a770920a",
    "name": "El Paraiso",
    "lat": 18.873,
    "lon": -103.99,
    "subregion": "Manzanillo Area",
    "timezone": "America/Mexico_City",
    "cameras": 0,
    "abilityLevels": [
      "INTERMEDIATE",
      "ADVANCED"
    ],
    "boardTypes": [
      "SHORTBOARD",
      "BODYBOARD",
      "BODYSURFING",
      "GUN"
    ]
  },
  {
    "id": "584204204e65fad6a770920d",
    "name": "Pascuales",
    "lat": 18.853,
    "lon": -103.962,
    "subregion": "Manzanillo Area",
    "timezone": "America/Mexico_City",
    "cameras": 0,
    "abilityLevels": [
      "INTERMEDIATE",
      "ADVANCED"
    ],
    "boardTypes": [
      "SHORTBOARD",
      "BODYBOARD",
      "BODYSURFING",
      "GUN",
      "TOW"
    ]
  },
  {
    "id": "584204204e65fad6a7709210",
    "name": "Boca de Apisa",
    "lat": 18.683,
    "lon": -103.736,
    "subregion": "Manzanillo Area",
    "timezone": "America/Mexico_City",
    "cameras": 0,
    "abilityLevels": [
      "BEGINNER",
      "INTERMEDIATE",
      "ADVANCED"
    ],
    "boardTypes": [
      "SHORTBOARD",
      "BODYBOARD"
    ]
  },
  {
    "id": "584204204e65fad6a7709217",
    "name": "Las Brisas",
    "lat": 18.556,
    "lon": -103.642,
    "subregion": "Manzanillo Area",
    "timezone": "America/Mexico_City",
    "cameras": 0,
    "abilityLevels": [
      "BEGINNER",
      "INTERMEDIATE",
      "ADVANCED"
    ],
    "boardTypes": [
      "SHORTBOARD",
      "FISH",
      "BODYBOARD"
    ]
  },
  {
    "id": "640a43f64519055f519dc6c7",
    "name": "La Ticla",
    "lat": 18.50806,
    "lon": -103.58618,
    "subregion": "Manzanillo Area",
    "timezone": "America/Mexico_City",
    "cameras": 0,
    "abilityLevels": [],
    "boardTypes": []
  },
  {
    "id": "584204204e65fad6a770921a",
    "name": "La Ticla",
    "lat": 18.453,
    "lon": -103.56,
    "subregion": "Manzanillo Area",
    "timezone": "America/Mexico_City",
    "cameras": 0,
    "abilityLevels": [
      "BEGINNER",
      "INTERMEDIATE",
      "ADVANCED"
    ],
    "boardTypes": [
      "SHORTBOARD",
      "LONGBOARD",
      "FISH",
      "BODYBOARD"
    ]
  },
  {
    "id": "584204204e65fad6a7709219",
    "name": "Huahua",
    "lat": 18.175,
    "lon": -103.011,
    "subregion": "Lazaro Cardenas Area",
    "timezone": "America/Mexico_City",
    "cameras": 0,
    "abilityLevels": [
      "INTERMEDIATE",
      "ADVANCED"
    ],
    "boardTypes": [
      "SHORTBOARD",
      "FUNBOARD",
      "LONGBOARD",
      "FISH"
    ]
  },
  {
    "id": "584204204e65fad6a770921c",
    "name": "Rio Nexpa",
    "lat": 18.082,
    "lon": -102.792,
    "subregion": "Lazaro Cardenas Area",
    "timezone": "America/Mexico_City",
    "cameras": 0,
    "abilityLevels": [
      "INTERMEDIATE",
      "ADVANCED"
    ],
    "boardTypes": [
      "SHORTBOARD",
      "LONGBOARD",
      "FISH",
      "GUN"
    ]
  },
  {
    "id": "584204204e65fad6a770921b",
    "name": "Playa Azul",
    "lat": 17.977,
    "lon": -102.349,
    "subregion": "Lazaro Cardenas Area",
    "timezone": "America/Mexico_City",
    "cameras": 0,
    "abilityLevels": [
      "INTERMEDIATE",
      "ADVANCED"
    ],
    "boardTypes": [
      "SHORTBOARD",
      "FISH"
    ]
  },
  {
    "id": "640a43fc99dd4467c1044936",
    "name": "El Faro (Guerrero)",
    "lat": 17.9215,
    "lon": -102.167,
    "subregion": "Lazaro Cardenas Area",
    "timezone": "America/Mexico_City",
    "cameras": 0,
    "abilityLevels": [],
    "boardTypes": []
  },
  {
    "id": "640a43f84eb375d89895737f",
    "name": "Petacalco",
    "lat": 17.9803,
    "lon": -102.101,
    "subregion": "Lazaro Cardenas Area",
    "timezone": "America/Mexico_City",
    "cameras": 0,
    "abilityLevels": [],
    "boardTypes": []
  },
  {
    "id": "584204204e65fad6a770921d",
    "name": "The Ranch",
    "lat": 17.914,
    "lon": -101.871,
    "subregion": "Lazaro Cardenas Area",
    "timezone": "America/Mexico_City",
    "cameras": 0,
    "abilityLevels": [
      "INTERMEDIATE",
      "ADVANCED"
    ],
    "boardTypes": [
      "SHORTBOARD",
      "FUNBOARD",
      "LONGBOARD",
      "FISH",
      "BODYBOARD"
    ]
  },
  {
    "id": "584204204e65fad6a770921e",
    "name": "La Saladita",
    "lat": 17.836,
    "lon": -101.774,
    "subregion": "Lazaro Cardenas Area",
    "timezone": "America/Mexico_City",
    "cameras": 0,
    "abilityLevels": [
      "BEGINNER",
      "INTERMEDIATE",
      "ADVANCED"
    ],
    "boardTypes": [
      "SHORTBOARD",
      "FUNBOARD",
      "LONGBOARD",
      "FISH"
    ]
  },
  {
    "id": "584204204e65fad6a770921f",
    "name": "Troncones",
    "lat": 17.794,
    "lon": -101.749,
    "subregion": "Lazaro Cardenas Area",
    "timezone": "America/Mexico_City",
    "cameras": 0,
    "abilityLevels": [
      "BEGINNER",
      "INTERMEDIATE",
      "ADVANCED"
    ],
    "boardTypes": [
      "SHORTBOARD",
      "FUNBOARD",
      "LONGBOARD",
      "FISH",
      "GUN"
    ]
  },
  {
    "id": "584204204e65fad6a7709225",
    "name": "Playa Linda",
    "lat": 17.695,
    "lon": -101.649,
    "subregion": "Lazaro Cardenas Area",
    "timezone": "America/Mexico_City",
    "cameras": 0,
    "abilityLevels": [
      "BEGINNER",
      "INTERMEDIATE"
    ],
    "boardTypes": [
      "SHORTBOARD",
      "FUNBOARD",
      "LONGBOARD",
      "FISH"
    ]
  },
  {
    "id": "584204204e65fad6a7709224",
    "name": "Ixtapa",
    "lat": 17.659,
    "lon": -101.609,
    "subregion": "Lazaro Cardenas Area",
    "timezone": "America/Mexico_City",
    "cameras": 0,
    "abilityLevels": [
      "BEGINNER",
      "INTERMEDIATE"
    ],
    "boardTypes": [
      "SHORTBOARD",
      "FUNBOARD",
      "LONGBOARD",
      "FISH",
      "BODYBOARD",
      "SKIMMING",
      "BODYSURFING",
      "KITEBOARD"
    ]
  },
  {
    "id": "584204204e65fad6a7709226",
    "name": "Las Gatas",
    "lat": 17.622,
    "lon": -101.554,
    "subregion": "Lazaro Cardenas Area",
    "timezone": "America/Mexico_City",
    "cameras": 0,
    "abilityLevels": [
      "INTERMEDIATE",
      "ADVANCED"
    ],
    "boardTypes": [
      "SHORTBOARD",
      "FISH"
    ]
  },
  {
    "id": "584204204e65fad6a7709228",
    "name": "Barra de Potosi",
    "lat": 17.539,
    "lon": -101.45,
    "subregion": "Lazaro Cardenas Area",
    "timezone": "America/Mexico_City",
    "cameras": 0,
    "abilityLevels": [
      "INTERMEDIATE",
      "ADVANCED"
    ],
    "boardTypes": [
      "SHORTBOARD",
      "FISH"
    ]
  },
  {
    "id": "584204204e65fad6a7709227",
    "name": "La Barrita",
    "lat": 17.411,
    "lon": -101.185,
    "subregion": "Lazaro Cardenas Area",
    "timezone": "America/Mexico_City",
    "cameras": 0,
    "abilityLevels": [
      "INTERMEDIATE",
      "ADVANCED"
    ],
    "boardTypes": [
      "SHORTBOARD",
      "FISH",
      "BODYBOARD"
    ]
  },
  {
    "id": "584204204e65fad6a770922a",
    "name": "Puerto Vincante Guerro",
    "lat": 17.269,
    "lon": -101.053,
    "subregion": "Lazaro Cardenas Area",
    "timezone": "America/Mexico_City",
    "cameras": 0,
    "abilityLevels": [
      "BEGINNER",
      "INTERMEDIATE",
      "ADVANCED"
    ],
    "boardTypes": [
      "SHORTBOARD",
      "FUNBOARD",
      "FISH"
    ]
  },
  {
    "id": "640a43f9b6d769a6d9524db6",
    "name": "Playa Boca Chica",
    "lat": 17.1309,
    "lon": -100.65,
    "subregion": "Lazaro Cardenas Area",
    "timezone": "America/Mexico_City",
    "cameras": 0,
    "abilityLevels": [],
    "boardTypes": []
  },
  {
    "id": "640a43fb606c451beab1b89d",
    "name": "Acapulco",
    "lat": 16.82,
    "lon": -99.9,
    "subregion": "Lazaro Cardenas Area",
    "timezone": "America/Mexico_City",
    "cameras": 0,
    "abilityLevels": [],
    "boardTypes": []
  },
  {
    "id": "584204204e65fad6a7709231",
    "name": "Papanoa",
    "lat": 17.172,
    "lon": -100.766,
    "subregion": "Acapulco Area",
    "timezone": "America/Mexico_City",
    "cameras": 0,
    "abilityLevels": [
      "BEGINNER",
      "INTERMEDIATE",
      "ADVANCED"
    ],
    "boardTypes": [
      "SHORTBOARD",
      "FUNBOARD",
      "LONGBOARD",
      "FISH",
      "BODYBOARD"
    ]
  },
  {
    "id": "584204204e65fad6a7709232",
    "name": "Playa Michigan",
    "lat": 17.136,
    "lon": -100.675,
    "subregion": "Acapulco Area",
    "timezone": "America/Mexico_City",
    "cameras": 0,
    "abilityLevels": [
      "BEGINNER",
      "INTERMEDIATE",
      "ADVANCED"
    ],
    "boardTypes": [
      "SHORTBOARD",
      "FUNBOARD",
      "LONGBOARD",
      "FISH",
      "BODYBOARD"
    ]
  },
  {
    "id": "584204204e65fad6a7709233",
    "name": "Playa Paraiso",
    "lat": 17.077,
    "lon": -100.481,
    "subregion": "Acapulco Area",
    "timezone": "America/Mexico_City",
    "cameras": 0,
    "abilityLevels": [
      "BEGINNER",
      "INTERMEDIATE",
      "ADVANCED"
    ],
    "boardTypes": [
      "SHORTBOARD",
      "FUNBOARD",
      "LONGBOARD",
      "FISH",
      "BODYBOARD"
    ]
  },
  {
    "id": "584204204e65fad6a7709234",
    "name": "Revolcadero",
    "lat": 16.789,
    "lon": -99.826,
    "subregion": "Acapulco Area",
    "timezone": "America/Mexico_City",
    "cameras": 0,
    "abilityLevels": [
      "BEGINNER",
      "INTERMEDIATE",
      "ADVANCED"
    ],
    "boardTypes": [
      "SHORTBOARD",
      "FUNBOARD",
      "LONGBOARD",
      "FISH",
      "BODYBOARD"
    ]
  },
  {
    "id": "584204204e65fad6a7709235",
    "name": "Barra Vieja",
    "lat": 16.686,
    "lon": -99.627,
    "subregion": "Acapulco Area",
    "timezone": "America/Mexico_City",
    "cameras": 0,
    "abilityLevels": [
      "BEGINNER",
      "INTERMEDIATE",
      "ADVANCED"
    ],
    "boardTypes": [
      "SHORTBOARD",
      "FUNBOARD",
      "LONGBOARD",
      "FISH",
      "BODYBOARD"
    ]
  },
  {
    "id": "584204204e65fad6a7709236",
    "name": "Chacahua",
    "lat": 15.967,
    "lon": -97.674,
    "subregion": "Puerto Escondido Area",
    "timezone": "America/Mexico_City",
    "cameras": 0,
    "abilityLevels": [
      "INTERMEDIATE",
      "ADVANCED"
    ],
    "boardTypes": [
      "SHORTBOARD",
      "FISH",
      "FUNBOARD",
      "LONGBOARD",
      "BODYBOARD"
    ]
  },
  {
    "id": "584204204e65fad6a7709237",
    "name": "Cerro Hermosa",
    "lat": 15.967,
    "lon": -97.536,
    "subregion": "Puerto Escondido Area",
    "timezone": "America/Mexico_City",
    "cameras": 0,
    "abilityLevels": [
      "INTERMEDIATE",
      "ADVANCED"
    ],
    "boardTypes": [
      "SHORTBOARD",
      "BODYBOARD",
      "BODYSURFING"
    ]
  },
  {
    "id": "584204204e65fad6a7709238",
    "name": "Carrizalillo",
    "lat": 15.859,
    "lon": -97.0796,
    "subregion": "Puerto Escondido Area",
    "timezone": "America/Mexico_City",
    "cameras": 0,
    "abilityLevels": [
      "BEGINNER",
      "INTERMEDIATE"
    ],
    "boardTypes": [
      "SHORTBOARD",
      "FISH",
      "FUNBOARD",
      "LONGBOARD"
    ]
  },
  {
    "id": "5842041f4e65fad6a7708b43",
    "name": "Puerto Escondido",
    "lat": 15.846,
    "lon": -97.06,
    "subregion": "Puerto Escondido Area",
    "timezone": "America/Mexico_City",
    "cameras": 2,
    "abilityLevels": [
      "ADVANCED",
      "INTERMEDIATE"
    ],
    "boardTypes": [
      "SHORTBOARD",
      "BODYBOARD",
      "BODYSURFING",
      "GUN"
    ]
  },
  {
    "id": "584204204e65fad6a770923c",
    "name": "La Punta",
    "lat": 15.831,
    "lon": -97.048,
    "subregion": "Puerto Escondido Area",
    "timezone": "America/Mexico_City",
    "cameras": 1,
    "abilityLevels": [
      "INTERMEDIATE",
      "ADVANCED"
    ],
    "boardTypes": [
      "SHORTBOARD",
      "FISH",
      "BODYBOARD",
      "LONGBOARD"
    ]
  },
  {
    "id": "584204204e65fad6a770923b",
    "name": "Barra de Colotepec",
    "lat": 15.806,
    "lon": -97.019,
    "subregion": "Puerto Escondido Area",
    "timezone": "America/Mexico_City",
    "cameras": 0,
    "abilityLevels": [
      "BEGINNER",
      "INTERMEDIATE",
      "ADVANCED"
    ],
    "boardTypes": [
      "SHORTBOARD",
      "BODYBOARD",
      "BODYSURFING",
      "GUN"
    ]
  },
  {
    "id": "584204204e65fad6a770923d",
    "name": "San Agustinillo",
    "lat": 15.663,
    "lon": -96.55,
    "subregion": "Puerto Escondido Area",
    "timezone": "America/Mexico_City",
    "cameras": 0,
    "abilityLevels": [
      "BEGINNER",
      "INTERMEDIATE"
    ],
    "boardTypes": [
      "SHORTBOARD",
      "BODYBOARD",
      "BODYSURFING"
    ]
  },
  {
    "id": "584204204e65fad6a770923e",
    "name": "Zipolite",
    "lat": 15.657,
    "lon": -96.53,
    "subregion": "Puerto Escondido Area",
    "timezone": "America/Mexico_City",
    "cameras": 0,
    "abilityLevels": [
      "BEGINNER",
      "INTERMEDIATE",
      "ADVANCED"
    ],
    "boardTypes": [
      "SHORTBOARD",
      "BODYBOARD",
      "BODYSURFING"
    ]
  },
  {
    "id": "584204204e65fad6a770923f",
    "name": "Rio de Coyula",
    "lat": 15.685,
    "lon": -96.304,
    "subregion": "Huatulco Area",
    "timezone": "America/Mexico_City",
    "cameras": 0,
    "abilityLevels": [
      "BEGINNER",
      "INTERMEDIATE",
      "ADVANCED"
    ],
    "boardTypes": [
      "SHORTBOARD"
    ]
  },
  {
    "id": "584204204e65fad6a7709240",
    "name": "San Agustin",
    "lat": 15.684,
    "lon": -96.246,
    "subregion": "Huatulco Area",
    "timezone": "America/Mexico_City",
    "cameras": 0,
    "abilityLevels": [
      "BEGINNER",
      "INTERMEDIATE",
      "ADVANCED"
    ],
    "boardTypes": [
      "SHORTBOARD"
    ]
  },
  {
    "id": "584204204e65fad6a7709241",
    "name": "Playa La Bocana",
    "lat": 15.786,
    "lon": -96.054,
    "subregion": "Huatulco Area",
    "timezone": "America/Mexico_City",
    "cameras": 0,
    "abilityLevels": [
      "BEGINNER",
      "INTERMEDIATE",
      "ADVANCED"
    ],
    "boardTypes": [
      "SHORTBOARD",
      "FISH"
    ]
  },
  {
    "id": "584204204e65fad6a7709242",
    "name": "Playa El Mojon",
    "lat": 15.806,
    "lon": -96.006,
    "subregion": "Huatulco Area",
    "timezone": "America/Mexico_City",
    "cameras": 0,
    "abilityLevels": [
      "ADVANCED",
      "PRO"
    ],
    "boardTypes": [
      "SHORTBOARD",
      "FISH"
    ]
  },
  {
    "id": "584204204e65fad6a7709244",
    "name": "Barra de la Cruz",
    "lat": 15.821,
    "lon": -95.964,
    "subregion": "Huatulco Area",
    "timezone": "America/Mexico_City",
    "cameras": 0,
    "abilityLevels": [
      "INTERMEDIATE",
      "ADVANCED"
    ],
    "boardTypes": [
      "SHORTBOARD",
      "FISH",
      "BODYBOARD"
    ]
  },
  {
    "id": "584204204e65fad6a7709402",
    "name": "La Jolla",
    "lat": 15.876,
    "lon": -95.776,
    "subregion": "Huatulco Area",
    "timezone": "America/Mexico_City",
    "cameras": 0,
    "abilityLevels": [
      "INTERMEDIATE",
      "ADVANCED",
      "PRO"
    ],
    "boardTypes": [
      "SHORTBOARD"
    ]
  },
  {
    "id": "584204204e65fad6a7709243",
    "name": "Punta Chipehua",
    "lat": 16.03655,
    "lon": -95.37461,
    "subregion": "Huatulco Area",
    "timezone": "America/Mexico_City",
    "cameras": 0,
    "abilityLevels": [
      "ADVANCED",
      "PRO"
    ],
    "boardTypes": [
      "SHORTBOARD",
      "FISH"
    ]
  },
  {
    "id": "628d03773a8e980f6f978d0d",
    "name": "Chivo",
    "lat": 16.1078,
    "lon": -95.2745,
    "subregion": "Huatulco Area",
    "timezone": "America/Mexico_City",
    "cameras": 0,
    "abilityLevels": [
      "INTERMEDIATE",
      "ADVANCED"
    ],
    "boardTypes": [
      "SHORTBOARD",
      "FISH",
      "FUNBOARD",
      "LONGBOARD"
    ]
  },
  {
    "id": "60baa263ff579bfa5b89da12",
    "name": "Punta Conejo",
    "lat": 16.1355,
    "lon": -95.2465,
    "subregion": "Huatulco Area",
    "timezone": "America/Mexico_City",
    "cameras": 0,
    "abilityLevels": [
      "INTERMEDIATE",
      "ADVANCED"
    ],
    "boardTypes": [
      "SHORTBOARD",
      "FISH",
      "FUNBOARD",
      "LONGBOARD"
    ]
  },
  {
    "id": "584204204e65fad6a7709245",
    "name": "Salina Cruz",
    "lat": 16.137,
    "lon": -95.246,
    "subregion": "Huatulco Area",
    "timezone": "America/Mexico_City",
    "cameras": 0,
    "abilityLevels": [
      "INTERMEDIATE",
      "ADVANCED"
    ],
    "boardTypes": [
      "SHORTBOARD"
    ]
  },
  {
    "id": "640a43fe99dd444fa90449af",
    "name": "La Ventosa",
    "lat": 16.1865,
    "lon": -95.1482,
    "subregion": "Huatulco Area",
    "timezone": "America/Mexico_City",
    "cameras": 0,
    "abilityLevels": [],
    "boardTypes": []
  },
  {
    "id": "584204204e65fad6a7709246",
    "name": "Puerto Madero",
    "lat": 14.719,
    "lon": -92.428,
    "subregion": "Huatulco Area",
    "timezone": "America/Mexico_City",
    "cameras": 0,
    "abilityLevels": [
      "BEGINNER",
      "INTERMEDIATE",
      "ADVANCED"
    ],
    "boardTypes": [
      "SHORTBOARD",
      "FUNBOARD",
      "LONGBOARD",
      "FISH",
      "BODYBOARD",
      "KITEBOARD"
    ]
  },
  {
    "id": "584204204e65fad6a7709a5c",
    "name": "Ocos",
    "lat": 14.503,
    "lon": -92.195,
    "subregion": "Guatemala Pacific",
    "timezone": "America/Guatemala",
    "cameras": 0,
    "abilityLevels": [],
    "boardTypes": []
  },
  {
    "id": "584204204e65fad6a7709a5b",
    "name": "Tilapa",
    "lat": 14.494,
    "lon": -92.181,
    "subregion": "Guatemala Pacific",
    "timezone": "America/Guatemala",
    "cameras": 0,
    "abilityLevels": [],
    "boardTypes": []
  },
  {
    "id": "584204204e65fad6a7709a5a",
    "name": "Champerico",
    "lat": 14.292,
    "lon": -91.918,
    "subregion": "Guatemala Pacific",
    "timezone": "America/Guatemala",
    "cameras": 0,
    "abilityLevels": [],
    "boardTypes": []
  },
  {
    "id": "584204204e65fad6a7709a59",
    "name": "Tulate",
    "lat": 14.154,
    "lon": -91.723,
    "subregion": "Guatemala Pacific",
    "timezone": "America/Guatemala",
    "cameras": 0,
    "abilityLevels": [],
    "boardTypes": []
  },
  {
    "id": "584204204e65fad6a7709a56",
    "name": "Tecojate",
    "lat": 13.95,
    "lon": -91.309,
    "subregion": "Guatemala Pacific",
    "timezone": "America/Guatemala",
    "cameras": 0,
    "abilityLevels": [],
    "boardTypes": []
  },
  {
    "id": "584204204e65fad6a7709a57",
    "name": "Sipacate",
    "lat": 13.92,
    "lon": -91.146,
    "subregion": "Guatemala Pacific",
    "timezone": "America/Guatemala",
    "cameras": 0,
    "abilityLevels": [],
    "boardTypes": []
  },
  {
    "id": "584204204e65fad6a7709a58",
    "name": "El Paredon",
    "lat": 13.913,
    "lon": -91.078,
    "subregion": "Guatemala Pacific",
    "timezone": "America/Guatemala",
    "cameras": 0,
    "abilityLevels": [],
    "boardTypes": []
  },
  {
    "id": "584204204e65fad6a7709a55",
    "name": "La Barrita",
    "lat": 13.911,
    "lon": -90.956,
    "subregion": "Guatemala Pacific",
    "timezone": "America/Guatemala",
    "cameras": 0,
    "abilityLevels": [],
    "boardTypes": []
  },
  {
    "id": "584204204e65fad6a7709a54",
    "name": "Chulamar",
    "lat": 13.913,
    "lon": -90.873,
    "subregion": "Guatemala Pacific",
    "timezone": "America/Guatemala",
    "cameras": 0,
    "abilityLevels": [],
    "boardTypes": []
  },
  {
    "id": "584204204e65fad6a7709a53",
    "name": "Puerto San Jose",
    "lat": 13.914,
    "lon": -90.822,
    "subregion": "Guatemala Pacific",
    "timezone": "America/Guatemala",
    "cameras": 0,
    "abilityLevels": [],
    "boardTypes": []
  },
  {
    "id": "640a35ff606c4540edae234f",
    "name": "La Barra - Likin",
    "lat": 13.9224,
    "lon": -90.772,
    "subregion": "Guatemala Pacific",
    "timezone": "America/Guatemala",
    "cameras": 0,
    "abilityLevels": [],
    "boardTypes": []
  },
  {
    "id": "584204204e65fad6a7709a52",
    "name": "Iztapa",
    "lat": 13.925,
    "lon": -90.721,
    "subregion": "Guatemala Pacific",
    "timezone": "America/Guatemala",
    "cameras": 0,
    "abilityLevels": [],
    "boardTypes": []
  },
  {
    "id": "584204204e65fad6a7709a51",
    "name": "Monterrico",
    "lat": 13.887,
    "lon": -90.483,
    "subregion": "Guatemala Pacific",
    "timezone": "America/Guatemala",
    "cameras": 0,
    "abilityLevels": [],
    "boardTypes": []
  },
  {
    "id": "584204204e65fad6a7709a50",
    "name": "Hawaii",
    "lat": 13.863,
    "lon": -90.412,
    "subregion": "Guatemala Pacific",
    "timezone": "America/Guatemala",
    "cameras": 0,
    "abilityLevels": [],
    "boardTypes": []
  },
  {
    "id": "584204204e65fad6a7709a4f",
    "name": "Las Lisas",
    "lat": 13.792,
    "lon": -90.248,
    "subregion": "Guatemala Pacific",
    "timezone": "America/Guatemala",
    "cameras": 0,
    "abilityLevels": [],
    "boardTypes": []
  },
  {
    "id": "584204204e65fad6a7709a4e",
    "name": "Barra de la Gabina",
    "lat": 13.778,
    "lon": -90.213,
    "subregion": "Guatemala Pacific",
    "timezone": "America/Guatemala",
    "cameras": 0,
    "abilityLevels": [],
    "boardTypes": []
  },
  {
    "id": "584204214e65fad6a7709baa",
    "name": "Negrei",
    "lat": 13.571,
    "lon": -89.836,
    "subregion": "El Salvador",
    "timezone": "America/El_Salvador",
    "cameras": 0,
    "abilityLevels": [
      "BEGINNER",
      "INTERMEDIATE"
    ],
    "boardTypes": [
      "SHORTBOARD"
    ]
  },
  {
    "id": "584204214e65fad6a7709ba7",
    "name": "Cristo de Salinitas",
    "lat": 13.551,
    "lon": -89.83,
    "subregion": "El Salvador",
    "timezone": "America/El_Salvador",
    "cameras": 0,
    "abilityLevels": [
      "BEGINNER",
      "INTERMEDIATE"
    ],
    "boardTypes": []
  },
  {
    "id": "640a35a7606c45bdb5ae0cac",
    "name": "Los Cobanos",
    "lat": 13.522,
    "lon": -89.8072,
    "subregion": "El Salvador",
    "timezone": "America/El_Salvador",
    "cameras": 0,
    "abilityLevels": [],
    "boardTypes": []
  },
  {
    "id": "584204214e65fad6a7709ba3",
    "name": "Mizata",
    "lat": 13.509,
    "lon": -89.597,
    "subregion": "El Salvador",
    "timezone": "America/El_Salvador",
    "cameras": 1,
    "abilityLevels": [
      "BEGINNER",
      "INTERMEDIATE",
      "ADVANCED"
    ],
    "boardTypes": [
      "SHORTBOARD",
      "FUNBOARD",
      "LONGBOARD",
      "FISH",
      "BODYBOARD"
    ]
  },
  {
    "id": "584204214e65fad6a7709ba5",
    "name": "K-59",
    "lat": 13.498,
    "lon": -89.473,
    "subregion": "El Salvador",
    "timezone": "America/El_Salvador",
    "cameras": 1,
    "abilityLevels": [],
    "boardTypes": []
  },
  {
    "id": "5b0d8b67141337001a93d553",
    "name": "El Zonte",
    "lat": 13.493318846328453,
    "lon": -89.43945,
    "subregion": "El Salvador",
    "timezone": "America/El_Salvador",
    "cameras": 2,
    "abilityLevels": [
      "BEGINNER",
      "INTERMEDIATE"
    ],
    "boardTypes": [
      "SHORTBOARD",
      "FISH",
      "LONGBOARD",
      "FUNBOARD"
    ]
  },
  {
    "id": "640a35a9e92030a34c9b47cc",
    "name": "El Palmarcito",
    "lat": 13.4937,
    "lon": -89.4217,
    "subregion": "El Salvador",
    "timezone": "America/El_Salvador",
    "cameras": 0,
    "abilityLevels": [],
    "boardTypes": []
  },
  {
    "id": "5842041f4e65fad6a7708bb0",
    "name": "Sunzal",
    "lat": 13.49167561061991,
    "lon": -89.39,
    "subregion": "El Salvador",
    "timezone": "America/El_Salvador",
    "cameras": 1,
    "abilityLevels": [
      "BEGINNER",
      "INTERMEDIATE",
      "ADVANCED"
    ],
    "boardTypes": [
      "SHORTBOARD",
      "FUNBOARD",
      "LONGBOARD",
      "FISH"
    ]
  },
  {
    "id": "5842041f4e65fad6a7708bae",
    "name": "La Bocana",
    "lat": 13.491596878346689,
    "lon": -89.38104,
    "subregion": "El Salvador",
    "timezone": "America/El_Salvador",
    "cameras": 3,
    "abilityLevels": [
      "BEGINNER",
      "INTERMEDIATE",
      "ADVANCED"
    ],
    "boardTypes": [
      "SHORTBOARD",
      "FISH"
    ]
  },
  {
    "id": "68af27d66ff5a8b8c0111a87",
    "name": "Playa Cocal",
    "lat": 13.48443,
    "lon": -89.34694,
    "subregion": "El Salvador",
    "timezone": "America/El_Salvador",
    "cameras": 1,
    "abilityLevels": [
      "BEGINNER",
      "INTERMEDIATE",
      "ADVANCED"
    ],
    "boardTypes": [
      "SHORTBOARD"
    ]
  },
  {
    "id": "5842041f4e65fad6a7708baf",
    "name": "Playa Conchalio",
    "lat": 13.48190146425147,
    "lon": -89.33389,
    "subregion": "El Salvador",
    "timezone": "America/El_Salvador",
    "cameras": 0,
    "abilityLevels": [
      "BEGINNER",
      "INTERMEDIATE",
      "ADVANCED"
    ],
    "boardTypes": [
      "SHORTBOARD"
    ]
  },
  {
    "id": "5842041f4e65fad6a7708bad",
    "name": "Punta Roca",
    "lat": 13.47973883183636,
    "lon": -89.32655,
    "subregion": "El Salvador",
    "timezone": "America/El_Salvador",
    "cameras": 2,
    "abilityLevels": [
      "INTERMEDIATE",
      "ADVANCED"
    ],
    "boardTypes": [
      "SHORTBOARD",
      "LONGBOARD",
      "FISH"
    ]
  },
  {
    "id": "5842041f4e65fad6a7708bab",
    "name": "La Paz",
    "lat": 13.4834740494465,
    "lon": -89.32376,
    "subregion": "El Salvador",
    "timezone": "America/El_Salvador",
    "cameras": 1,
    "abilityLevels": [
      "BEGINNER",
      "INTERMEDIATE",
      "ADVANCED"
    ],
    "boardTypes": [
      "SHORTBOARD",
      "FISH"
    ]
  },
  {
    "id": "5842041f4e65fad6a7708bac",
    "name": "El Muelle (Pier)",
    "lat": 13.48587874937462,
    "lon": -89.31998852531258,
    "subregion": "El Salvador",
    "timezone": "America/El_Salvador",
    "cameras": 0,
    "abilityLevels": [
      "BEGINNER",
      "INTERMEDIATE",
      "ADVANCED"
    ],
    "boardTypes": [
      "SHORTBOARD"
    ]
  },
  {
    "id": "61afff90ba143b9372b95325",
    "name": "Playa Las Flores",
    "lat": 13.48488,
    "lon": -89.30597,
    "subregion": "El Salvador",
    "timezone": "America/El_Salvador",
    "cameras": 1,
    "abilityLevels": [],
    "boardTypes": []
  },
  {
    "id": "5842041f4e65fad6a7708baa",
    "name": "Playa San Diego",
    "lat": 13.47971255664387,
    "lon": -89.28610104791234,
    "subregion": "El Salvador",
    "timezone": "America/El_Salvador",
    "cameras": 0,
    "abilityLevels": [
      "BEGINNER",
      "INTERMEDIATE",
      "ADVANCED"
    ],
    "boardTypes": [
      "SHORTBOARD"
    ]
  },
  {
    "id": "584204214e65fad6a7709bac",
    "name": "El Pimental",
    "lat": 13.378,
    "lon": -89.084,
    "subregion": "El Salvador",
    "timezone": "America/El_Salvador",
    "cameras": 0,
    "abilityLevels": [
      "BEGINNER",
      "INTERMEDIATE",
      "ADVANCED"
    ],
    "boardTypes": []
  },
  {
    "id": "640a35abb6d769c69d4ea140",
    "name": "Costa Del Sol",
    "lat": 13.342959,
    "lon": -89.00659,
    "subregion": "El Salvador",
    "timezone": "America/El_Salvador",
    "cameras": 0,
    "abilityLevels": [],
    "boardTypes": []
  },
  {
    "id": "640a35b1e9203052629b49ea",
    "name": "El Espino",
    "lat": 13.17,
    "lon": -88.3048,
    "subregion": "El Salvador",
    "timezone": "America/El_Salvador",
    "cameras": 0,
    "abilityLevels": [],
    "boardTypes": []
  },
  {
    "id": "584204214e65fad6a7709ba6",
    "name": "Punta Mango",
    "lat": 13.164,
    "lon": -88.19,
    "subregion": "El Salvador",
    "timezone": "America/El_Salvador",
    "cameras": 1,
    "abilityLevels": [
      "INTERMEDIATE",
      "ADVANCED",
      "PRO"
    ],
    "boardTypes": [
      "SHORTBOARD"
    ]
  },
  {
    "id": "640a35afe9203057999b4974",
    "name": "La Ventana",
    "lat": 13.1667,
    "lon": -88.1554,
    "subregion": "El Salvador",
    "timezone": "America/El_Salvador",
    "cameras": 0,
    "abilityLevels": [],
    "boardTypes": []
  },
  {
    "id": "640a35b5e92030b3a69b4b12",
    "name": "El Majague",
    "lat": 13.1633,
    "lon": -88.1288,
    "subregion": "El Salvador",
    "timezone": "America/El_Salvador",
    "cameras": 0,
    "abilityLevels": [],
    "boardTypes": []
  },
  {
    "id": "584204214e65fad6a7709ba4",
    "name": "Toro de Oro",
    "lat": 13.165,
    "lon": -88.125,
    "subregion": "El Salvador",
    "timezone": "America/El_Salvador",
    "cameras": 0,
    "abilityLevels": [
      "INTERMEDIATE",
      "ADVANCED"
    ],
    "boardTypes": []
  },
  {
    "id": "640a35ac451905728c9a1c19",
    "name": "La Vaca",
    "lat": 13.1662,
    "lon": -88.121,
    "subregion": "El Salvador",
    "timezone": "America/El_Salvador",
    "cameras": 0,
    "abilityLevels": [],
    "boardTypes": []
  },
  {
    "id": "5842041f4e65fad6a7708dbe",
    "name": "Las Flores",
    "lat": 13.167687,
    "lon": -88.11798,
    "subregion": "El Salvador",
    "timezone": "America/El_Salvador",
    "cameras": 1,
    "abilityLevels": [
      "BEGINNER",
      "INTERMEDIATE",
      "ADVANCED"
    ],
    "boardTypes": [
      "SHORTBOARD",
      "FUNBOARD",
      "LONGBOARD",
      "FISH"
    ]
  },
  {
    "id": "640a35ae606c451f52ae0e64",
    "name": "El Cuco",
    "lat": 13.1694,
    "lon": -88.1013,
    "subregion": "El Salvador",
    "timezone": "America/El_Salvador",
    "cameras": 0,
    "abilityLevels": [],
    "boardTypes": []
  },
  {
    "id": "640a35b2b6d769913e4ea340",
    "name": "Las Tunas",
    "lat": 13.1577,
    "lon": -87.9733,
    "subregion": "El Salvador",
    "timezone": "America/El_Salvador",
    "cameras": 0,
    "abilityLevels": [],
    "boardTypes": []
  },
  {
    "id": "640a35b4b6d7696a454ea3a0",
    "name": "Lucky Mans",
    "lat": 13.2168,
    "lon": -87.8744,
    "subregion": "El Salvador",
    "timezone": "America/El_Salvador",
    "cameras": 0,
    "abilityLevels": [],
    "boardTypes": []
  },
  {
    "id": "61d4d151c15a827dc58364ec",
    "name": "The Boom",
    "lat": 12.6269,
    "lon": -87.3561,
    "subregion": "Nicaragua - Pacific Side",
    "timezone": "America/Managua",
    "cameras": 0,
    "abilityLevels": [
      "INTERMEDIATE",
      "ADVANCED"
    ],
    "boardTypes": [
      "SHORTBOARD"
    ]
  },
  {
    "id": "5a1dfd8b1d8788001b7966de",
    "name": "Las Penitas",
    "lat": 12.371379957548557,
    "lon": -87.0373,
    "subregion": "Nicaragua - Pacific Side",
    "timezone": "America/Managua",
    "cameras": 0,
    "abilityLevels": [],
    "boardTypes": []
  },
  {
    "id": "640a43cd606c459a04b1ac93",
    "name": "Salinas Grandes",
    "lat": 12.2586,
    "lon": -86.8623,
    "subregion": "Nicaragua - Pacific Side",
    "timezone": "America/Managua",
    "cameras": 0,
    "abilityLevels": [],
    "boardTypes": []
  },
  {
    "id": "5842041f4e65fad6a7708f1c",
    "name": "Puerto Sandino",
    "lat": 12.188,
    "lon": -86.777,
    "subregion": "Nicaragua - Pacific Side",
    "timezone": "America/Managua",
    "cameras": 0,
    "abilityLevels": [
      "INTERMEDIATE",
      "ADVANCED"
    ],
    "boardTypes": [
      "SHORTBOARD",
      "LONGBOARD",
      "FISH"
    ]
  },
  {
    "id": "584204204e65fad6a7709147",
    "name": "Miramar",
    "lat": 12.167,
    "lon": -86.766,
    "subregion": "Nicaragua - Pacific Side",
    "timezone": "America/Managua",
    "cameras": 1,
    "abilityLevels": [
      "BEGINNER",
      "INTERMEDIATE",
      "ADVANCED"
    ],
    "boardTypes": [
      "SHORTBOARD",
      "FUNBOARD",
      "FISH",
      "LONGBOARD",
      "BODYBOARD"
    ]
  },
  {
    "id": "584204204e65fad6a7709983",
    "name": "Shack's/Shifty's",
    "lat": 12.16393,
    "lon": -86.76109,
    "subregion": "Nicaragua - Pacific Side",
    "timezone": "America/Managua",
    "cameras": 1,
    "abilityLevels": [
      "BEGINNER",
      "INTERMEDIATE",
      "ADVANCED",
      "PRO"
    ],
    "boardTypes": [
      "SHORTBOARD",
      "FUNBOARD",
      "LONGBOARD",
      "FISH"
    ]
  },
  {
    "id": "640a43cfb6d7693b75524287",
    "name": "Playa Hermosa",
    "lat": 12.1093,
    "lon": -86.7369,
    "subregion": "Nicaragua - Pacific Side",
    "timezone": "America/Managua",
    "cameras": 0,
    "abilityLevels": [],
    "boardTypes": []
  },
  {
    "id": "584204204e65fad6a7709078",
    "name": "El Transito",
    "lat": 12.052,
    "lon": -86.708,
    "subregion": "Nicaragua - Pacific Side",
    "timezone": "America/Managua",
    "cameras": 0,
    "abilityLevels": [
      "BEGINNER",
      "INTERMEDIATE",
      "ADVANCED"
    ],
    "boardTypes": [
      "SHORTBOARD",
      "FUNBOARD",
      "FISH",
      "LONGBOARD",
      "BODYBOARD"
    ]
  },
  {
    "id": "640a43cb606c459db4b1ac24",
    "name": "Gran Pacifica",
    "lat": 11.9109,
    "lon": -86.6201,
    "subregion": "Nicaragua - Pacific Side",
    "timezone": "America/Managua",
    "cameras": 0,
    "abilityLevels": [],
    "boardTypes": []
  },
  {
    "id": "640a43cae920302e619ee5fb",
    "name": "Montelimar",
    "lat": 11.8022,
    "lon": -86.5214,
    "subregion": "Nicaragua - Pacific Side",
    "timezone": "America/Managua",
    "cameras": 0,
    "abilityLevels": [],
    "boardTypes": []
  },
  {
    "id": "640a43c84eb37527969566d6",
    "name": "Masachapa",
    "lat": 11.7791,
    "lon": -86.522,
    "subregion": "Nicaragua - Pacific Side",
    "timezone": "America/Managua",
    "cameras": 0,
    "abilityLevels": [],
    "boardTypes": []
  },
  {
    "id": "640a43c74eb37578f3956659",
    "name": "Pochomil",
    "lat": 11.7523,
    "lon": -86.4871,
    "subregion": "Nicaragua - Pacific Side",
    "timezone": "America/Managua",
    "cameras": 0,
    "abilityLevels": [],
    "boardTypes": []
  },
  {
    "id": "640a43c5e920302ce89ee49f",
    "name": "Casares",
    "lat": 11.6467,
    "lon": -86.3606,
    "subregion": "Nicaragua - Pacific Side",
    "timezone": "America/Managua",
    "cameras": 0,
    "abilityLevels": [],
    "boardTypes": []
  },
  {
    "id": "640a43b745190506a99db6db",
    "name": "El Penon",
    "lat": 11.5219,
    "lon": -86.1777,
    "subregion": "Nicaragua - Pacific Side",
    "timezone": "America/Managua",
    "cameras": 0,
    "abilityLevels": [],
    "boardTypes": []
  },
  {
    "id": "584204204e65fad6a770910c",
    "name": "El Astillero",
    "lat": 11.518,
    "lon": -86.176,
    "subregion": "Nicaragua - Pacific Side",
    "timezone": "America/Managua",
    "cameras": 0,
    "abilityLevels": [
      "BEGINNER",
      "INTERMEDIATE",
      "ADVANCED",
      "PRO"
    ],
    "boardTypes": [
      "SHORTBOARD",
      "FUNBOARD",
      "LONGBOARD",
      "FISH"
    ]
  },
  {
    "id": "5842041f4e65fad6a7708db9",
    "name": "Popoyo",
    "lat": 11.45905865759882,
    "lon": -86.11157,
    "subregion": "Nicaragua - Pacific Side",
    "timezone": "America/Managua",
    "cameras": 0,
    "abilityLevels": [
      "BEGINNER",
      "INTERMEDIATE",
      "ADVANCED"
    ],
    "boardTypes": [
      "SHORTBOARD",
      "FUNBOARD",
      "FISH",
      "BODYBOARD"
    ]
  },
  {
    "id": "5842041f4e65fad6a7708dba",
    "name": "Popoyo Outer Reef",
    "lat": 11.45532,
    "lon": -86.10989,
    "subregion": "Nicaragua - Pacific Side",
    "timezone": "America/Managua",
    "cameras": 0,
    "abilityLevels": [
      "ADVANCED"
    ],
    "boardTypes": [
      "GUN",
      "TOW"
    ]
  },
  {
    "id": "685026ddef32a72c101bad7b",
    "name": "Beginners Bay",
    "lat": 11.45385,
    "lon": -86.10499,
    "subregion": "Nicaragua - Pacific Side",
    "timezone": "America/Managua",
    "cameras": 1,
    "abilityLevels": [],
    "boardTypes": []
  },
  {
    "id": "5842041f4e65fad6a7708b44",
    "name": "Santana",
    "lat": 11.44161,
    "lon": -86.08763,
    "subregion": "Nicaragua - Pacific Side",
    "timezone": "America/Managua",
    "cameras": 1,
    "abilityLevels": [
      "BEGINNER",
      "INTERMEDIATE",
      "ADVANCED"
    ],
    "boardTypes": [
      "SHORTBOARD",
      "FUNBOARD",
      "FISH",
      "BODYBOARD"
    ]
  },
  {
    "id": "640a43b945190504b29db760",
    "name": "Playa Rosada",
    "lat": 11.4339,
    "lon": -86.0844,
    "subregion": "Nicaragua - Pacific Side",
    "timezone": "America/Managua",
    "cameras": 0,
    "abilityLevels": [],
    "boardTypes": []
  },
  {
    "id": "584204204e65fad6a7709146",
    "name": "Panga Drops",
    "lat": 11.408,
    "lon": -86.056,
    "subregion": "Nicaragua - Pacific Side",
    "timezone": "America/Managua",
    "cameras": 0,
    "abilityLevels": [
      "INTERMEDIATE",
      "ADVANCED"
    ],
    "boardTypes": [
      "SHORTBOARD",
      "FUNBOARD",
      "FISH",
      "LONGBOARD",
      "BODYBOARD"
    ]
  },
  {
    "id": "5842041f4e65fad6a7708e1e",
    "name": "Colorados",
    "lat": 11.40551,
    "lon": -86.05062,
    "subregion": "Nicaragua - Pacific Side",
    "timezone": "America/Managua",
    "cameras": 0,
    "abilityLevels": [
      "INTERMEDIATE",
      "ADVANCED",
      "PRO"
    ],
    "boardTypes": [
      "SHORTBOARD",
      "FISH"
    ]
  },
  {
    "id": "5842041f4e65fad6a7708dbd",
    "name": "Manzanillo",
    "lat": 11.36577672698044,
    "lon": -86.0100626486595,
    "subregion": "Nicaragua - Pacific Side",
    "timezone": "America/Managua",
    "cameras": 0,
    "abilityLevels": [
      "BEGINNER",
      "INTERMEDIATE",
      "ADVANCED"
    ],
    "boardTypes": [
      "SHORTBOARD"
    ]
  },
  {
    "id": "5842041f4e65fad6a7708dc0",
    "name": "Playa Maderas",
    "lat": 11.29203,
    "lon": -85.91287,
    "subregion": "Nicaragua - Pacific Side",
    "timezone": "America/Managua",
    "cameras": 0,
    "abilityLevels": [
      "BEGINNER",
      "INTERMEDIATE",
      "ADVANCED"
    ],
    "boardTypes": [
      "SHORTBOARD",
      "FUNBOARD",
      "FISH",
      "LONGBOARD",
      "BODYBOARD"
    ]
  },
  {
    "id": "640a43bb99dd44a7db043898",
    "name": "El Remanso",
    "lat": 11.2205,
    "lon": -85.8494,
    "subregion": "Nicaragua - Pacific Side",
    "timezone": "America/Managua",
    "cameras": 0,
    "abilityLevels": [],
    "boardTypes": []
  },
  {
    "id": "640a43bc4eb375bdff956392",
    "name": "Tamarind",
    "lat": 11.2147,
    "lon": -85.8469,
    "subregion": "Nicaragua - Pacific Side",
    "timezone": "America/Managua",
    "cameras": 0,
    "abilityLevels": [],
    "boardTypes": []
  },
  {
    "id": "640a43c3e920305a089ee41b",
    "name": "Playa Hermosa",
    "lat": 11.203,
    "lon": -85.837,
    "subregion": "Nicaragua - Pacific Side",
    "timezone": "America/Managua",
    "cameras": 0,
    "abilityLevels": [],
    "boardTypes": []
  },
  {
    "id": "640a43be451905ebdf9db8ad",
    "name": "El Yanke",
    "lat": 11.1809,
    "lon": -85.8183,
    "subregion": "Nicaragua - Pacific Side",
    "timezone": "America/Managua",
    "cameras": 0,
    "abilityLevels": [],
    "boardTypes": []
  },
  {
    "id": "640a43c0e9203045249ee30a",
    "name": "El Coco",
    "lat": 11.158,
    "lon": -85.8042,
    "subregion": "Nicaragua - Pacific Side",
    "timezone": "America/Managua",
    "cameras": 0,
    "abilityLevels": [],
    "boardTypes": []
  },
  {
    "id": "640a43c1e9203002b49ee3a0",
    "name": "Sally Ann's",
    "lat": 11.1314,
    "lon": -85.8003,
    "subregion": "Nicaragua - Pacific Side",
    "timezone": "America/Managua",
    "cameras": 0,
    "abilityLevels": [],
    "boardTypes": []
  },
  {
    "id": "5842041f4e65fad6a7708b98",
    "name": "Ollie's Point",
    "lat": 10.85099440725964,
    "lon": -85.79981,
    "subregion": "North Costa Rica",
    "timezone": "America/Costa_Rica",
    "cameras": 0,
    "abilityLevels": [
      "BEGINNER",
      "INTERMEDIATE",
      "ADVANCED"
    ],
    "boardTypes": [
      "SHORTBOARD"
    ]
  },
  {
    "id": "5842041f4e65fad6a7708b99",
    "name": "Witches Rock",
    "lat": 10.79489213393012,
    "lon": -85.68066,
    "subregion": "North Costa Rica",
    "timezone": "America/Costa_Rica",
    "cameras": 0,
    "abilityLevels": [
      "BEGINNER",
      "INTERMEDIATE",
      "ADVANCED"
    ],
    "boardTypes": [
      "SHORTBOARD",
      "FUNBOARD",
      "LONGBOARD",
      "FISH"
    ]
  },
  {
    "id": "640a2d4d99dd442613fe861d",
    "name": "Playa Del Coco",
    "lat": 10.551,
    "lon": -85.6998,
    "subregion": "North Costa Rica",
    "timezone": "America/Costa_Rica",
    "cameras": 0,
    "abilityLevels": [],
    "boardTypes": []
  },
  {
    "id": "640a2d49451905cb45980348",
    "name": "Playa Flamingo",
    "lat": 10.4342,
    "lon": -85.7931,
    "subregion": "North Costa Rica",
    "timezone": "America/Costa_Rica",
    "cameras": 0,
    "abilityLevels": [],
    "boardTypes": []
  },
  {
    "id": "640a2d4bb6d769126e4c8973",
    "name": "Playa Brasilito",
    "lat": 10.4102,
    "lon": -85.7978,
    "subregion": "North Costa Rica",
    "timezone": "America/Costa_Rica",
    "cameras": 0,
    "abilityLevels": [],
    "boardTypes": []
  },
  {
    "id": "5842041f4e65fad6a7708c36",
    "name": "Playa Grande",
    "lat": 10.33328,
    "lon": -85.85069,
    "subregion": "North Costa Rica",
    "timezone": "America/Costa_Rica",
    "cameras": 1,
    "abilityLevels": [
      "BEGINNER",
      "INTERMEDIATE",
      "ADVANCED"
    ],
    "boardTypes": [
      "SHORTBOARD",
      "FUNBOARD",
      "LONGBOARD",
      "FISH",
      "BODYBOARD",
      "SKIMMING",
      "BODYSURFING"
    ]
  },
  {
    "id": "5842041f4e65fad6a7708b9b",
    "name": "Tamarindo",
    "lat": 10.29970304257365,
    "lon": -85.84398,
    "subregion": "North Costa Rica",
    "timezone": "America/Costa_Rica",
    "cameras": 1,
    "abilityLevels": [
      "BEGINNER",
      "INTERMEDIATE",
      "ADVANCED"
    ],
    "boardTypes": [
      "SHORTBOARD",
      "FUNBOARD",
      "LONGBOARD",
      "FISH"
    ]
  },
  {
    "id": "5842041f4e65fad6a7708c38",
    "name": "Playa Langosta",
    "lat": 10.28630556,
    "lon": -85.85228,
    "subregion": "North Costa Rica",
    "timezone": "America/Costa_Rica",
    "cameras": 0,
    "abilityLevels": [
      "INTERMEDIATE",
      "ADVANCED"
    ],
    "boardTypes": [
      "SHORTBOARD",
      "FISH"
    ]
  },
  {
    "id": "5842041f4e65fad6a7708c35",
    "name": "Avellanas",
    "lat": 10.22975,
    "lon": -85.84058,
    "subregion": "North Costa Rica",
    "timezone": "America/Costa_Rica",
    "cameras": 1,
    "abilityLevels": [
      "BEGINNER",
      "INTERMEDIATE",
      "ADVANCED"
    ],
    "boardTypes": [
      "SHORTBOARD",
      "FUNBOARD",
      "LONGBOARD",
      "FISH"
    ]
  },
  {
    "id": "584204204e65fad6a770913a",
    "name": "Playa Negra",
    "lat": 10.194,
    "lon": -85.832,
    "subregion": "North Costa Rica",
    "timezone": "America/Costa_Rica",
    "cameras": 0,
    "abilityLevels": [],
    "boardTypes": [
      "SHORTBOARD",
      "FUNBOARD",
      "LONGBOARD",
      "FISH"
    ]
  },
  {
    "id": "640a2d48b6d769ca6a4c88c2",
    "name": "Marbella",
    "lat": 10.0896,
    "lon": -85.7845,
    "subregion": "North Costa Rica",
    "timezone": "America/Costa_Rica",
    "cameras": 0,
    "abilityLevels": [],
    "boardTypes": []
  },
  {
    "id": "584204204e65fad6a770913c",
    "name": "Ostional",
    "lat": 9.995,
    "lon": -85.705,
    "subregion": "North Costa Rica",
    "timezone": "America/Costa_Rica",
    "cameras": 0,
    "abilityLevels": [
      "BEGINNER",
      "INTERMEDIATE",
      "ADVANCED",
      "PRO"
    ],
    "boardTypes": [
      "SHORTBOARD",
      "FUNBOARD",
      "LONGBOARD",
      "FISH",
      "BODYBOARD"
    ]
  },
  {
    "id": "584204204e65fad6a7709328",
    "name": "Nosara",
    "lat": 9.969,
    "lon": -85.6838,
    "subregion": "North Costa Rica",
    "timezone": "America/Costa_Rica",
    "cameras": 0,
    "abilityLevels": [
      "BEGINNER",
      "INTERMEDIATE",
      "ADVANCED"
    ],
    "boardTypes": [
      "SHORTBOARD",
      "FUNBOARD",
      "LONGBOARD",
      "FISH",
      "BODYBOARD"
    ]
  },
  {
    "id": "5842041f4e65fad6a7708b4d",
    "name": "Guiones",
    "lat": 9.94,
    "lon": -85.668,
    "subregion": "North Costa Rica",
    "timezone": "America/Costa_Rica",
    "cameras": 1,
    "abilityLevels": [
      "BEGINNER",
      "INTERMEDIATE",
      "ADVANCED"
    ],
    "boardTypes": [
      "SHORTBOARD",
      "FUNBOARD",
      "LONGBOARD",
      "FISH",
      "BODYBOARD"
    ]
  },
  {
    "id": "584204204e65fad6a770913d",
    "name": "Samara",
    "lat": 9.868,
    "lon": -85.536,
    "subregion": "North Costa Rica",
    "timezone": "America/Costa_Rica",
    "cameras": 0,
    "abilityLevels": [
      "BEGINNER",
      "INTERMEDIATE",
      "ADVANCED",
      "PRO"
    ],
    "boardTypes": [
      "SHORTBOARD",
      "FUNBOARD",
      "LONGBOARD",
      "FISH",
      "BODYBOARD"
    ]
  },
  {
    "id": "584204204e65fad6a7709140",
    "name": "Camaronal",
    "lat": 9.861,
    "lon": -85.444,
    "subregion": "North Costa Rica",
    "timezone": "America/Costa_Rica",
    "cameras": 0,
    "abilityLevels": [
      "ADVANCED",
      "PRO"
    ],
    "boardTypes": [
      "SHORTBOARD",
      "GUN"
    ]
  },
  {
    "id": "640a2d34606c45fa26abef97",
    "name": "Playa Coyote",
    "lat": 9.7751,
    "lon": -85.2684,
    "subregion": "North Costa Rica",
    "timezone": "America/Costa_Rica",
    "cameras": 0,
    "abilityLevels": [],
    "boardTypes": []
  },
  {
    "id": "640a2d33e920306f95992a42",
    "name": "Playa Caletas",
    "lat": 9.7538,
    "lon": -85.2599,
    "subregion": "North Costa Rica",
    "timezone": "America/Costa_Rica",
    "cameras": 0,
    "abilityLevels": [],
    "boardTypes": []
  },
  {
    "id": "640a2d2e4eb37546ff8fa917",
    "name": "Playa Manzanillo",
    "lat": 9.6984,
    "lon": -85.2118,
    "subregion": "North Costa Rica",
    "timezone": "America/Costa_Rica",
    "cameras": 0,
    "abilityLevels": [],
    "boardTypes": []
  },
  {
    "id": "645c2ffad729fd6b3b156571",
    "name": "Playa Hermosa",
    "lat": 9.6656,
    "lon": -85.1926,
    "subregion": "North Costa Rica",
    "timezone": "America/Costa_Rica",
    "cameras": 0,
    "abilityLevels": [],
    "boardTypes": [
      "SHORTBOARD",
      "FISH",
      "LONGBOARD",
      "BODYBOARD",
      "FUNBOARD",
      "BODYSURFING"
    ]
  },
  {
    "id": "5842041f4e65fad6a7708e31",
    "name": "Santa Teresa",
    "lat": 9.65372,
    "lon": -85.18252,
    "subregion": "North Costa Rica",
    "timezone": "America/Costa_Rica",
    "cameras": 1,
    "abilityLevels": [
      "BEGINNER",
      "INTERMEDIATE",
      "ADVANCED"
    ],
    "boardTypes": [
      "SHORTBOARD",
      "FUNBOARD",
      "LONGBOARD",
      "FISH",
      "BODYBOARD"
    ]
  },
  {
    "id": "640a2d2899dd446363fe7bdc",
    "name": "Playa Carmen",
    "lat": 9.6198,
    "lon": -85.15,
    "subregion": "North Costa Rica",
    "timezone": "America/Costa_Rica",
    "cameras": 0,
    "abilityLevels": [],
    "boardTypes": []
  },
  {
    "id": "640a2d2b451905d83497fa63",
    "name": "Cedros",
    "lat": 9.6297,
    "lon": -85.0763,
    "subregion": "North Costa Rica",
    "timezone": "America/Costa_Rica",
    "cameras": 0,
    "abilityLevels": [],
    "boardTypes": []
  },
  {
    "id": "640a2d2c4eb37540a08fa892",
    "name": "Punta Barigona",
    "lat": 9.5926,
    "lon": -85.1469,
    "subregion": "North Costa Rica",
    "timezone": "America/Costa_Rica",
    "cameras": 0,
    "abilityLevels": [],
    "boardTypes": []
  },
  {
    "id": "5842041f4e65fad6a7708b9a",
    "name": "Mal Pais",
    "lat": 9.570222044864844,
    "lon": -85.14184,
    "subregion": "North Costa Rica",
    "timezone": "America/Costa_Rica",
    "cameras": 0,
    "abilityLevels": [
      "BEGINNER",
      "INTERMEDIATE",
      "ADVANCED"
    ],
    "boardTypes": [
      "SHORTBOARD",
      "FUNBOARD",
      "LONGBOARD",
      "FISH"
    ]
  },
  {
    "id": "640a2d3699dd441e92fe8075",
    "name": "Tivives",
    "lat": 9.8701,
    "lon": -84.7038,
    "subregion": "North Costa Rica",
    "timezone": "America/Costa_Rica",
    "cameras": 0,
    "abilityLevels": [],
    "boardTypes": []
  },
  {
    "id": "640a2d2999dd445fd8fe7c46",
    "name": "Roca Loca",
    "lat": 9.5895,
    "lon": -84.6265,
    "subregion": "North Costa Rica",
    "timezone": "America/Costa_Rica",
    "cameras": 0,
    "abilityLevels": [],
    "boardTypes": []
  },
  {
    "id": "640a2d2fb6d769a3d04c81ad",
    "name": "Boca Tusubres",
    "lat": 9.5347,
    "lon": -84.5551,
    "subregion": "North Costa Rica",
    "timezone": "America/Costa_Rica",
    "cameras": 0,
    "abilityLevels": [],
    "boardTypes": []
  },
  {
    "id": "5842041f4e65fad6a7708ba5",
    "name": "Boca Barranca",
    "lat": 9.958235741436532,
    "lon": -84.74122,
    "subregion": "Central Costa Rica",
    "timezone": "America/Costa_Rica",
    "cameras": 0,
    "abilityLevels": [
      "BEGINNER",
      "INTERMEDIATE",
      "ADVANCED"
    ],
    "boardTypes": [
      "SHORTBOARD",
      "FUNBOARD",
      "LONGBOARD",
      "FISH"
    ]
  },
  {
    "id": "5842041f4e65fad6a7708ba6",
    "name": "Caldera Jetty",
    "lat": 9.922484732656224,
    "lon": -84.7158981889118,
    "subregion": "Central Costa Rica",
    "timezone": "America/Costa_Rica",
    "cameras": 0,
    "abilityLevels": [
      "ADVANCED",
      "PRO"
    ],
    "boardTypes": [
      "SHORTBOARD"
    ]
  },
  {
    "id": "5842041f4e65fad6a7708ba3",
    "name": "Playa Escondida",
    "lat": 9.661646156842439,
    "lon": -84.67316883195207,
    "subregion": "Central Costa Rica",
    "timezone": "America/Costa_Rica",
    "cameras": 0,
    "abilityLevels": [
      "ADVANCED",
      "PRO"
    ],
    "boardTypes": [
      "SHORTBOARD"
    ]
  },
  {
    "id": "5842041f4e65fad6a7708ba4",
    "name": "Herradura",
    "lat": 9.635059578319176,
    "lon": -84.66159522794959,
    "subregion": "Central Costa Rica",
    "timezone": "America/Costa_Rica",
    "cameras": 0,
    "abilityLevels": [
      "INTERMEDIATE",
      "ADVANCED",
      "PRO"
    ],
    "boardTypes": [
      "SHORTBOARD"
    ]
  },
  {
    "id": "5842041f4e65fad6a7708ba1",
    "name": "Playa Jaco",
    "lat": 9.616940559391795,
    "lon": -84.63541,
    "subregion": "Central Costa Rica",
    "timezone": "America/Costa_Rica",
    "cameras": 1,
    "abilityLevels": [
      "BEGINNER",
      "INTERMEDIATE",
      "ADVANCED"
    ],
    "boardTypes": [
      "SHORTBOARD",
      "FUNBOARD",
      "LONGBOARD",
      "FISH",
      "BODYBOARD"
    ]
  },
  {
    "id": "5842041f4e65fad6a7708b50",
    "name": "Playa Hermosa North",
    "lat": 9.576,
    "lon": -84.608,
    "subregion": "Central Costa Rica",
    "timezone": "America/Costa_Rica",
    "cameras": 2,
    "abilityLevels": [
      "INTERMEDIATE",
      "ADVANCED"
    ],
    "boardTypes": [
      "SHORTBOARD",
      "FISH",
      "GUN"
    ]
  },
  {
    "id": "5842041f4e65fad6a7708b4e",
    "name": "Playa Hermosa South",
    "lat": 9.56516,
    "lon": -84.59148,
    "subregion": "Central Costa Rica",
    "timezone": "America/Costa_Rica",
    "cameras": 0,
    "abilityLevels": [
      "INTERMEDIATE",
      "ADVANCED"
    ],
    "boardTypes": [
      "SHORTBOARD",
      "FISH",
      "GUN"
    ]
  },
  {
    "id": "5842041f4e65fad6a7708b4f",
    "name": "Playa Esterillos",
    "lat": 9.526305556,
    "lon": -84.48822,
    "subregion": "Central Costa Rica",
    "timezone": "America/Costa_Rica",
    "cameras": 0,
    "abilityLevels": [
      "BEGINNER",
      "INTERMEDIATE",
      "ADVANCED"
    ],
    "boardTypes": [
      "SHORTBOARD",
      "FUNBOARD",
      "LONGBOARD",
      "FISH"
    ]
  },
  {
    "id": "5842041f4e65fad6a7708b9d",
    "name": "Bejuco",
    "lat": 9.48278011021258,
    "lon": -84.28883991550364,
    "subregion": "Central Costa Rica",
    "timezone": "America/Costa_Rica",
    "cameras": 0,
    "abilityLevels": [
      "INTERMEDIATE",
      "ADVANCED",
      "PRO"
    ],
    "boardTypes": [
      "SHORTBOARD",
      "LONGBOARD",
      "FISH"
    ]
  },
  {
    "id": "640a2d5999dd443c90fe895c",
    "name": "Boca Damas",
    "lat": 9.4538,
    "lon": -84.219,
    "subregion": "Central Costa Rica",
    "timezone": "America/Costa_Rica",
    "cameras": 0,
    "abilityLevels": [],
    "boardTypes": []
  },
  {
    "id": "640a2d5be92030354599346e",
    "name": "Quepos Jetty",
    "lat": 9.4253,
    "lon": -84.1704,
    "subregion": "Central Costa Rica",
    "timezone": "America/Costa_Rica",
    "cameras": 0,
    "abilityLevels": [],
    "boardTypes": []
  },
  {
    "id": "640a2d5d45190529379807f2",
    "name": "Quepos Bombie",
    "lat": 9.421,
    "lon": -84.1724,
    "subregion": "Central Costa Rica",
    "timezone": "America/Costa_Rica",
    "cameras": 0,
    "abilityLevels": [],
    "boardTypes": []
  },
  {
    "id": "640a2d66b6d7693f714c8ff2",
    "name": "Playitas",
    "lat": 9.3964,
    "lon": -84.1643,
    "subregion": "Central Costa Rica",
    "timezone": "America/Costa_Rica",
    "cameras": 0,
    "abilityLevels": [],
    "boardTypes": []
  },
  {
    "id": "5842041f4e65fad6a7708c37",
    "name": "Manuel Antonio",
    "lat": 9.389333333,
    "lon": -84.15386111,
    "subregion": "Central Costa Rica",
    "timezone": "America/Costa_Rica",
    "cameras": 0,
    "abilityLevels": [
      "BEGINNER",
      "INTERMEDIATE"
    ],
    "boardTypes": [
      "SHORTBOARD",
      "FISH",
      "BODYBOARD"
    ]
  },
  {
    "id": "640a2d674519052523980a6b",
    "name": "Playa El Rey",
    "lat": 9.3732,
    "lon": -84.1079,
    "subregion": "Central Costa Rica",
    "timezone": "America/Costa_Rica",
    "cameras": 0,
    "abilityLevels": [],
    "boardTypes": []
  },
  {
    "id": "5842041f4e65fad6a7708b9c",
    "name": "Dominical",
    "lat": 9.250593929300813,
    "lon": -83.86522,
    "subregion": "Central Costa Rica",
    "timezone": "America/Costa_Rica",
    "cameras": 1,
    "abilityLevels": [
      "INTERMEDIATE",
      "ADVANCED"
    ],
    "boardTypes": [
      "SHORTBOARD",
      "FUNBOARD",
      "LONGBOARD",
      "FISH",
      "BODYBOARD"
    ]
  },
  {
    "id": "640a2d5fb6d76990ef4c8e21",
    "name": "Dominicalito",
    "lat": 9.2317,
    "lon": -83.842,
    "subregion": "Central Costa Rica",
    "timezone": "America/Costa_Rica",
    "cameras": 0,
    "abilityLevels": [],
    "boardTypes": []
  },
  {
    "id": "640a2d6099dd44b5c4fe8af0",
    "name": "Punta Dominical",
    "lat": 9.21424,
    "lon": -83.83671,
    "subregion": "Central Costa Rica",
    "timezone": "America/Costa_Rica",
    "cameras": 0,
    "abilityLevels": [],
    "boardTypes": []
  },
  {
    "id": "6340b24fb390fd7a54896e42",
    "name": "Playa Hermosa - Osa Peninsula",
    "lat": 9.192654,
    "lon": -83.78063,
    "subregion": "Central Costa Rica",
    "timezone": "America/Costa_Rica",
    "cameras": 0,
    "abilityLevels": [],
    "boardTypes": []
  },
  {
    "id": "640a2d6245190544f298091e",
    "name": "Playa Chaman (Punta Uvita)",
    "lat": 9.14841,
    "lon": -83.73886,
    "subregion": "Central Costa Rica",
    "timezone": "America/Costa_Rica",
    "cameras": 0,
    "abilityLevels": [],
    "boardTypes": []
  },
  {
    "id": "640a2d65b6d76930c64c8f86",
    "name": "Playa Ballena",
    "lat": 9.1106,
    "lon": -83.6958,
    "subregion": "Central Costa Rica",
    "timezone": "America/Costa_Rica",
    "cameras": 0,
    "abilityLevels": [],
    "boardTypes": []
  },
  {
    "id": "640a2d63b6d769fe594c8f27",
    "name": "Rio Sierpe Rivermouth",
    "lat": 8.7841,
    "lon": -83.6524,
    "subregion": "Central Costa Rica",
    "timezone": "America/Costa_Rica",
    "cameras": 0,
    "abilityLevels": [],
    "boardTypes": []
  },
  {
    "id": "640a2d6999dd4496c8fe8cfb",
    "name": "Drake's Bay",
    "lat": 8.7194,
    "lon": -83.6496,
    "subregion": "Central Costa Rica",
    "timezone": "America/Costa_Rica",
    "cameras": 0,
    "abilityLevels": [],
    "boardTypes": []
  },
  {
    "id": "662b93ffa22a47ec9cf40c64",
    "name": "Punta R\u00edo Claro",
    "lat": 8.67855181506715,
    "lon": -83.71332,
    "subregion": "Central Costa Rica",
    "timezone": "America/Costa_Rica",
    "cameras": 0,
    "abilityLevels": [],
    "boardTypes": []
  },
  {
    "id": "640a2d58606c4587baabf890",
    "name": "Rio Claro Rivermouth",
    "lat": 8.4638,
    "lon": -83.595,
    "subregion": "Central Costa Rica",
    "timezone": "America/Costa_Rica",
    "cameras": 0,
    "abilityLevels": [],
    "boardTypes": []
  },
  {
    "id": "640a4490b6d76936b85273a7",
    "name": "Puerto Armuelles",
    "lat": 8.28,
    "lon": -82.84,
    "subregion": "Panama Pacific",
    "timezone": "America/Panama",
    "cameras": 0,
    "abilityLevels": [],
    "boardTypes": []
  },
  {
    "id": "640a448f4519056e179dedef",
    "name": "La Barqueta",
    "lat": 8.3001,
    "lon": -82.5737,
    "subregion": "Panama Pacific",
    "timezone": "America/Panama",
    "cameras": 0,
    "abilityLevels": [],
    "boardTypes": []
  },
  {
    "id": "640a44a4606c457237b1e3e9",
    "name": "Las Lajas",
    "lat": 8.1668,
    "lon": -81.8667,
    "subregion": "Panama Pacific",
    "timezone": "America/Panama",
    "cameras": 0,
    "abilityLevels": [],
    "boardTypes": []
  },
  {
    "id": "640a4495b6d769207d5274b9",
    "name": "P-Land",
    "lat": 8.0814,
    "lon": -81.8179,
    "subregion": "Panama Pacific",
    "timezone": "America/Panama",
    "cameras": 0,
    "abilityLevels": [],
    "boardTypes": []
  },
  {
    "id": "640a44974eb3752d77959b69",
    "name": "Nestles",
    "lat": 8.0803,
    "lon": -81.8147,
    "subregion": "Panama Pacific",
    "timezone": "America/Panama",
    "cameras": 0,
    "abilityLevels": [],
    "boardTypes": []
  },
  {
    "id": "640a449245190559199dee9b",
    "name": "The Point",
    "lat": 8.0376,
    "lon": -81.7203,
    "subregion": "Panama Pacific",
    "timezone": "America/Panama",
    "cameras": 0,
    "abilityLevels": [],
    "boardTypes": []
  },
  {
    "id": "640a4494606c450caab1df75",
    "name": "Sandbar",
    "lat": 8.0156,
    "lon": -81.6931,
    "subregion": "Panama Pacific",
    "timezone": "America/Panama",
    "cameras": 0,
    "abilityLevels": [],
    "boardTypes": []
  },
  {
    "id": "640a448d45190537119ded89",
    "name": "Emily's (Morro Negrito)",
    "lat": 8.0447,
    "lon": -81.7141,
    "subregion": "Panama Pacific",
    "timezone": "America/Panama",
    "cameras": 0,
    "abilityLevels": [],
    "boardTypes": []
  },
  {
    "id": "5842041f4e65fad6a7708dc8",
    "name": "Punta Rocas",
    "lat": 7.635,
    "lon": -81.28,
    "subregion": "Panama Pacific",
    "timezone": "America/Panama",
    "cameras": 0,
    "abilityLevels": [
      "ADVANCED",
      "PRO"
    ],
    "boardTypes": [
      "SHORTBOARD",
      "GUN"
    ]
  },
  {
    "id": "645eb633d296ec83323b094d",
    "name": "Santa Catalina - La Punta",
    "lat": 7.6235,
    "lon": -81.2577,
    "subregion": "Panama Pacific",
    "timezone": "America/Panama",
    "cameras": 0,
    "abilityLevels": [],
    "boardTypes": []
  },
  {
    "id": "640a44a645190515bc9df420",
    "name": "El Estero",
    "lat": 7.6252,
    "lon": -81.2464,
    "subregion": "Panama Pacific",
    "timezone": "America/Panama",
    "cameras": 0,
    "abilityLevels": [],
    "boardTypes": []
  },
  {
    "id": "640a44a04519054e259df247",
    "name": "Playa Reina",
    "lat": 7.6208,
    "lon": -80.9958,
    "subregion": "Panama Pacific",
    "timezone": "America/Panama",
    "cameras": 0,
    "abilityLevels": [],
    "boardTypes": []
  },
  {
    "id": "640a449d45190518779df153",
    "name": "Playa Morrillo",
    "lat": 7.4888,
    "lon": -80.9539,
    "subregion": "Panama Pacific",
    "timezone": "America/Panama",
    "cameras": 0,
    "abilityLevels": [],
    "boardTypes": []
  },
  {
    "id": "635809c81b01aa3667eab22d",
    "name": "CORTO CIRCUITO",
    "lat": 7.241944,
    "lon": -80.56444,
    "subregion": "Panama Pacific",
    "timezone": "America/Panama",
    "cameras": 0,
    "abilityLevels": [],
    "boardTypes": []
  },
  {
    "id": "635bab0234068e1d3e441249",
    "name": "Cambutal El Frente",
    "lat": 7.248645,
    "lon": -80.49926,
    "subregion": "Panama Pacific",
    "timezone": "America/Panama",
    "cameras": 0,
    "abilityLevels": [],
    "boardTypes": []
  },
  {
    "id": "635a9b217ba3134fc227b4b1",
    "name": "Guanico",
    "lat": 7.27153,
    "lon": -80.41806,
    "subregion": "Panama Pacific",
    "timezone": "America/Panama",
    "cameras": 0,
    "abilityLevels": [],
    "boardTypes": []
  },
  {
    "id": "584204204e65fad6a7709681",
    "name": "Playa Venao",
    "lat": 7.42407,
    "lon": -80.19587,
    "subregion": "Panama Pacific",
    "timezone": "America/Panama",
    "cameras": 1,
    "abilityLevels": [
      "BEGINNER",
      "INTERMEDIATE",
      "ADVANCED"
    ],
    "boardTypes": []
  },
  {
    "id": "640a449a99dd44d74d047169",
    "name": "Playa Pedasi",
    "lat": 7.53,
    "lon": -80.0031,
    "subregion": "Panama Pacific",
    "timezone": "America/Panama",
    "cameras": 0,
    "abilityLevels": [],
    "boardTypes": []
  },
  {
    "id": "640a44b94eb375479c95a4da",
    "name": "Rio Mar",
    "lat": 8.4313,
    "lon": -80.0054,
    "subregion": "Panama Pacific",
    "timezone": "America/Panama",
    "cameras": 0,
    "abilityLevels": [],
    "boardTypes": []
  },
  {
    "id": "584204214e65fad6a7709bfb",
    "name": "Punta Palmar",
    "lat": 8.466,
    "lon": -79.954,
    "subregion": "Panama Pacific",
    "timezone": "America/Panama",
    "cameras": 1,
    "abilityLevels": [],
    "boardTypes": []
  },
  {
    "id": "640a44b34eb3750af795a31f",
    "name": "Hawaiisito",
    "lat": 8.4812,
    "lon": -79.9459,
    "subregion": "Panama Pacific",
    "timezone": "America/Panama",
    "cameras": 0,
    "abilityLevels": [],
    "boardTypes": []
  },
  {
    "id": "640a44b54eb375f4dc95a3bd",
    "name": "San Carlos Point",
    "lat": 8.4841,
    "lon": -79.9434,
    "subregion": "Panama Pacific",
    "timezone": "America/Panama",
    "cameras": 0,
    "abilityLevels": [],
    "boardTypes": []
  },
  {
    "id": "640a44b899dd44a8ab047997",
    "name": "Esmeralda",
    "lat": 8.4944,
    "lon": -79.9316,
    "subregion": "Panama Pacific",
    "timezone": "America/Panama",
    "cameras": 0,
    "abilityLevels": [],
    "boardTypes": []
  },
  {
    "id": "584204214e65fad6a7709bfd",
    "name": "Punta Teta",
    "lat": 8.504,
    "lon": -79.917,
    "subregion": "Panama Pacific",
    "timezone": "America/Panama",
    "cameras": 0,
    "abilityLevels": [],
    "boardTypes": []
  },
  {
    "id": "640a44bbb6d769b332527ea6",
    "name": "Rinconsito",
    "lat": 8.5078,
    "lon": -79.9131,
    "subregion": "Panama Pacific",
    "timezone": "America/Panama",
    "cameras": 0,
    "abilityLevels": [],
    "boardTypes": []
  },
  {
    "id": "640a44bde920307e099f240e",
    "name": "Rocky Point",
    "lat": 8.5229,
    "lon": -79.8915,
    "subregion": "Panama Pacific",
    "timezone": "America/Panama",
    "cameras": 0,
    "abilityLevels": [],
    "boardTypes": []
  },
  {
    "id": "640a44bf99dd445e04047b80",
    "name": "Playa Serena",
    "lat": 8.5488,
    "lon": -79.8673,
    "subregion": "Panama Pacific",
    "timezone": "America/Panama",
    "cameras": 0,
    "abilityLevels": [],
    "boardTypes": []
  },
  {
    "id": "640a44c199dd44c464047c0c",
    "name": "Playa Malib\u00fa",
    "lat": 8.5566,
    "lon": -79.8399,
    "subregion": "Panama Pacific",
    "timezone": "America/Panama",
    "cameras": 0,
    "abilityLevels": [],
    "boardTypes": []
  },
  {
    "id": "5a1dd7159caa98001b09d0e2",
    "name": "Playa Caracol",
    "lat": 8.573213105719432,
    "lon": -79.79482,
    "subregion": "Panama Pacific",
    "timezone": "America/Panama",
    "cameras": 1,
    "abilityLevels": [],
    "boardTypes": []
  },
  {
    "id": "640a44a9e920307abc9f1ed4",
    "name": "Las B\u00f3vedas",
    "lat": 8.9493,
    "lon": -79.5312,
    "subregion": "Panama Pacific",
    "timezone": "America/Panama",
    "cameras": 0,
    "abilityLevels": [],
    "boardTypes": []
  },
  {
    "id": "640a44a7606c457b96b1e4df",
    "name": "Panam\u00e1 La Vieja (Panama City)",
    "lat": 9.0022,
    "lon": -79.4833,
    "subregion": "Panama Pacific",
    "timezone": "America/Panama",
    "cameras": 0,
    "abilityLevels": [],
    "boardTypes": []
  },
  {
    "id": "640a44ad99dd440e5e0476cf",
    "name": "Nuevo Loco",
    "lat": 9.0071,
    "lon": -79.4765,
    "subregion": "Panama Pacific",
    "timezone": "America/Panama",
    "cameras": 0,
    "abilityLevels": [],
    "boardTypes": []
  },
  {
    "id": "640a44abe92030f1739f1f6d",
    "name": "La Zurda",
    "lat": 9.0051,
    "lon": -79.4848,
    "subregion": "Panama Pacific",
    "timezone": "America/Panama",
    "cameras": 0,
    "abilityLevels": [],
    "boardTypes": []
  },
  {
    "id": "640a44b199dd4423870477bd",
    "name": "Mojon Beach",
    "lat": 9.006,
    "lon": -79.4677,
    "subregion": "Panama Pacific",
    "timezone": "America/Panama",
    "cameras": 0,
    "abilityLevels": [],
    "boardTypes": []
  },
  {
    "id": "640a44c699dd4490eb047d5c",
    "name": "Mazzeti Break",
    "lat": 8.951111,
    "lon": -79.13361,
    "subregion": "Panama Pacific",
    "timezone": "America/Panama",
    "cameras": 0,
    "abilityLevels": [],
    "boardTypes": []
  },
  {
    "id": "63595826a370a82c4f6d625d",
    "name": "Chepillo",
    "lat": 8.94314,
    "lon": -79.13139,
    "subregion": "Panama Pacific",
    "timezone": "America/Panama",
    "cameras": 0,
    "abilityLevels": [],
    "boardTypes": []
  },
  {
    "id": "640a44c44eb375ae0a95a77c",
    "name": "Main Break",
    "lat": 8.941944,
    "lon": -79.12722,
    "subregion": "Panama Pacific",
    "timezone": "America/Panama",
    "cameras": 0,
    "abilityLevels": [],
    "boardTypes": []
  },
  {
    "id": "635bad43a370a82293e0b4bb",
    "name": "Jaqu\u00e9",
    "lat": 7.513152012111972,
    "lon": -78.16126,
    "subregion": "Panama Pacific",
    "timezone": "Africa/Abidjan",
    "cameras": 0,
    "abilityLevels": [],
    "boardTypes": []
  },
  {
    "id": "640a2811b6d769fcd14b40f1",
    "name": "Playa La Playeta",
    "lat": 8.4186,
    "lon": -77.1404,
    "subregion": "Caribbean Colombia",
    "timezone": "America/Bogota",
    "cameras": 0,
    "abilityLevels": [],
    "boardTypes": []
  },
  {
    "id": "640a281c4eb37545848e6aaa",
    "name": "Playa Culebra",
    "lat": 9.1966,
    "lon": -76.1735,
    "subregion": "Caribbean Colombia",
    "timezone": "America/Bogota",
    "cameras": 0,
    "abilityLevels": [],
    "boardTypes": []
  },
  {
    "id": "640a2825b6d769a0674b4573",
    "name": "Playa La Playona",
    "lat": 8.4457,
    "lon": -77.198,
    "subregion": "Caribbean Colombia",
    "timezone": "America/Bogota",
    "cameras": 0,
    "abilityLevels": [],
    "boardTypes": []
  },
  {
    "id": "640a28214eb3752c118e6be8",
    "name": "Playa del Viento",
    "lat": 9.3451,
    "lon": -76.0487,
    "subregion": "Caribbean Colombia",
    "timezone": "America/Bogota",
    "cameras": 0,
    "abilityLevels": [],
    "boardTypes": []
  },
  {
    "id": "584204204e65fad6a7709a3e",
    "name": "Colpipe",
    "lat": 9.3946,
    "lon": -76.17,
    "subregion": "Caribbean Colombia",
    "timezone": "America/Bogota",
    "cameras": 0,
    "abilityLevels": [],
    "boardTypes": []
  },
  {
    "id": "640a280d99dd442ddafd3c0e",
    "name": "Playa de Los Venados",
    "lat": 9.3715,
    "lon": -75.9847,
    "subregion": "Caribbean Colombia",
    "timezone": "America/Bogota",
    "cameras": 0,
    "abilityLevels": [],
    "boardTypes": []
  },
  {
    "id": "640a281a99dd44e5aefd3ecb",
    "name": "Playa Grande",
    "lat": 9.4055,
    "lon": -75.7622,
    "subregion": "Caribbean Colombia",
    "timezone": "America/Bogota",
    "cameras": 0,
    "abilityLevels": [],
    "boardTypes": []
  },
  {
    "id": "640a2817606c45d76faaae01",
    "name": "Playa Linda",
    "lat": 10.3688,
    "lon": -75.5803,
    "subregion": "Caribbean Colombia",
    "timezone": "America/Bogota",
    "cameras": 0,
    "abilityLevels": [],
    "boardTypes": []
  },
  {
    "id": "584204204e65fad6a7709a40",
    "name": "Hilton",
    "lat": 10.3939,
    "lon": -75.5574,
    "subregion": "Caribbean Colombia",
    "timezone": "America/Bogota",
    "cameras": 0,
    "abilityLevels": [],
    "boardTypes": []
  },
  {
    "id": "584204204e65fad6a7709a43",
    "name": "Las Velas",
    "lat": 10.3993,
    "lon": -75.5645,
    "subregion": "Caribbean Colombia",
    "timezone": "America/Bogota",
    "cameras": 0,
    "abilityLevels": [],
    "boardTypes": []
  },
  {
    "id": "584204204e65fad6a7709a41",
    "name": "Castillogrande",
    "lat": 10.3944,
    "lon": -75.5554,
    "subregion": "Caribbean Colombia",
    "timezone": "America/Bogota",
    "cameras": 0,
    "abilityLevels": [],
    "boardTypes": []
  },
  {
    "id": "640a280c99dd449782fd3ba9",
    "name": "Balneario de Marbella",
    "lat": 10.4364,
    "lon": -75.5369,
    "subregion": "Caribbean Colombia",
    "timezone": "America/Bogota",
    "cameras": 0,
    "abilityLevels": [],
    "boardTypes": []
  },
  {
    "id": "640a2823451905811796bdf3",
    "name": "Playa Veronica",
    "lat": 10.8796,
    "lon": -75.0844,
    "subregion": "Caribbean Colombia",
    "timezone": "America/Bogota",
    "cameras": 0,
    "abilityLevels": [],
    "boardTypes": []
  },
  {
    "id": "640a2808b6d7694f454b3ea7",
    "name": "Playa del Fer\u00fa",
    "lat": 10.8833,
    "lon": -75.0833,
    "subregion": "Caribbean Colombia",
    "timezone": "America/Bogota",
    "cameras": 0,
    "abilityLevels": [],
    "boardTypes": []
  },
  {
    "id": "640a2813e9203097ec97e822",
    "name": "Playa de Pradomar",
    "lat": 10.9784,
    "lon": -74.9975,
    "subregion": "Caribbean Colombia",
    "timezone": "America/Bogota",
    "cameras": 0,
    "abilityLevels": [],
    "boardTypes": []
  },
  {
    "id": "584204204e65fad6a7709a45",
    "name": "El Muelle",
    "lat": 10.9904,
    "lon": -74.9641,
    "subregion": "Caribbean Colombia",
    "timezone": "America/Bogota",
    "cameras": 0,
    "abilityLevels": [],
    "boardTypes": []
  },
  {
    "id": "584204204e65fad6a7709a44",
    "name": "Pradomar",
    "lat": 11.0047,
    "lon": -74.9552,
    "subregion": "Caribbean Colombia",
    "timezone": "America/Bogota",
    "cameras": 0,
    "abilityLevels": [],
    "boardTypes": []
  },
  {
    "id": "584204204e65fad6a7709a46",
    "name": "El Bolsillo",
    "lat": 11.0085,
    "lon": -74.9522,
    "subregion": "Caribbean Colombia",
    "timezone": "America/Bogota",
    "cameras": 0,
    "abilityLevels": [],
    "boardTypes": []
  },
  {
    "id": "640a44c899dd445c60047ddf",
    "name": "Mahalo",
    "lat": 11.019568,
    "lon": -74.9367,
    "subregion": "Caribbean Colombia",
    "timezone": "America/Panama",
    "cameras": 0,
    "abilityLevels": [],
    "boardTypes": []
  },
  {
    "id": "584204204e65fad6a7709a48",
    "name": "Punta Roca",
    "lat": 11.0465,
    "lon": -74.9188,
    "subregion": "Caribbean Colombia",
    "timezone": "America/Bogota",
    "cameras": 0,
    "abilityLevels": [],
    "boardTypes": []
  },
  {
    "id": "640a280f606c456db2aaac30",
    "name": "Playa de Los Pescadores",
    "lat": 11.0459,
    "lon": -74.8742,
    "subregion": "Caribbean Colombia",
    "timezone": "America/Bogota",
    "cameras": 0,
    "abilityLevels": [],
    "boardTypes": []
  },
  {
    "id": "640a280a99dd4418fbfd3b11",
    "name": "Play\u00f3n de Cachimbero",
    "lat": 11.0091,
    "lon": -74.2625,
    "subregion": "Caribbean Colombia",
    "timezone": "America/Bogota",
    "cameras": 0,
    "abilityLevels": [],
    "boardTypes": []
  },
  {
    "id": "640a28144eb3754d098e68d0",
    "name": "Playa La Cueva",
    "lat": 11.2283,
    "lon": -74.2264,
    "subregion": "Caribbean Colombia",
    "timezone": "America/Bogota",
    "cameras": 0,
    "abilityLevels": [],
    "boardTypes": []
  },
  {
    "id": "640a2816b6d76909104b4235",
    "name": "Playa del Centro",
    "lat": 11.2443,
    "lon": -74.2149,
    "subregion": "Caribbean Colombia",
    "timezone": "America/Bogota",
    "cameras": 0,
    "abilityLevels": [],
    "boardTypes": []
  },
  {
    "id": "640a281fe9203076ce97ead9",
    "name": "Playa Brava",
    "lat": 11.3198,
    "lon": -74.0983,
    "subregion": "Caribbean Colombia",
    "timezone": "America/Bogota",
    "cameras": 0,
    "abilityLevels": [],
    "boardTypes": []
  },
  {
    "id": "584204204e65fad6a7709a47",
    "name": "Arrecifes",
    "lat": 11.3164,
    "lon": -73.9476,
    "subregion": "Caribbean Colombia",
    "timezone": "America/Bogota",
    "cameras": 0,
    "abilityLevels": [],
    "boardTypes": []
  },
  {
    "id": "584204204e65fad6a7709a49",
    "name": "Los Naranjos",
    "lat": 11.2983,
    "lon": -73.8928,
    "subregion": "Caribbean Colombia",
    "timezone": "America/Bogota",
    "cameras": 0,
    "abilityLevels": [],
    "boardTypes": []
  },
  {
    "id": "584204204e65fad6a7709a4a",
    "name": "Casa Grande",
    "lat": 11.2751,
    "lon": -73.8553,
    "subregion": "Caribbean Colombia",
    "timezone": "America/Bogota",
    "cameras": 0,
    "abilityLevels": [],
    "boardTypes": []
  },
  {
    "id": "584204204e65fad6a7709a4b",
    "name": "Buritaca",
    "lat": 11.265,
    "lon": -73.7715,
    "subregion": "Caribbean Colombia",
    "timezone": "America/Bogota",
    "cameras": 0,
    "abilityLevels": [],
    "boardTypes": []
  },
  {
    "id": "584204204e65fad6a7709a4c",
    "name": "Viento Fresco",
    "lat": 11.2591,
    "lon": -73.7082,
    "subregion": "Caribbean Colombia",
    "timezone": "America/Bogota",
    "cameras": 0,
    "abilityLevels": [],
    "boardTypes": []
  },
  {
    "id": "584204204e65fad6a7709a4d",
    "name": "Las Gaviotas",
    "lat": 11.2605,
    "lon": -73.567,
    "subregion": "Caribbean Colombia",
    "timezone": "America/Bogota",
    "cameras": 0,
    "abilityLevels": [],
    "boardTypes": []
  },
  {
    "id": "640a28194eb375f8dd8e6a05",
    "name": "Playa de Los Holandeses",
    "lat": 11.2584,
    "lon": -73.4539,
    "subregion": "Caribbean Colombia",
    "timezone": "America/Bogota",
    "cameras": 0,
    "abilityLevels": [],
    "boardTypes": []
  },
  {
    "id": "640a2addb6d7699cac4beeb6",
    "name": "El Barco",
    "lat": 12.1737,
    "lon": -69.9666,
    "subregion": "West Venezuela",
    "timezone": "America/Caracas",
    "cameras": 0,
    "abilityLevels": [],
    "boardTypes": []
  },
  {
    "id": "640a2ad9b6d769786a4bed36",
    "name": "Punta Tumatey",
    "lat": 12.1728,
    "lon": -69.9363,
    "subregion": "West Venezuela",
    "timezone": "America/Caracas",
    "cameras": 0,
    "abilityLevels": [],
    "boardTypes": []
  },
  {
    "id": "640a2adee920300f3a9895d5",
    "name": "Bah\u00eda Tiraya",
    "lat": 12.0694,
    "lon": -69.8573,
    "subregion": "West Venezuela",
    "timezone": "America/Caracas",
    "cameras": 0,
    "abilityLevels": [],
    "boardTypes": []
  },
  {
    "id": "640a2ad499dd44d4f3fde7e0",
    "name": "Cazon (Buchuaco)",
    "lat": 11.9943,
    "lon": -69.8205,
    "subregion": "West Venezuela",
    "timezone": "America/Caracas",
    "cameras": 0,
    "abilityLevels": [],
    "boardTypes": []
  },
  {
    "id": "640a2ad74eb37503f28f13ff",
    "name": "Las Cabanas",
    "lat": 11.9562,
    "lon": -69.8162,
    "subregion": "West Venezuela",
    "timezone": "America/Caracas",
    "cameras": 0,
    "abilityLevels": [],
    "boardTypes": []
  },
  {
    "id": "640a2ae499dd448351fdec7f",
    "name": "Playa de Los Camarones",
    "lat": 11.4715,
    "lon": -69.7397,
    "subregion": "West Venezuela",
    "timezone": "America/Caracas",
    "cameras": 0,
    "abilityLevels": [],
    "boardTypes": []
  },
  {
    "id": "640a2adb4519054bf3976715",
    "name": "Muaco",
    "lat": 11.4772,
    "lon": -69.5643,
    "subregion": "West Venezuela",
    "timezone": "America/Caracas",
    "cameras": 0,
    "abilityLevels": [],
    "boardTypes": []
  },
  {
    "id": "640a2ae3451905d54f976968",
    "name": "Playa Los Muertos",
    "lat": 10.9,
    "lon": -68.2442,
    "subregion": "West Venezuela",
    "timezone": "America/Caracas",
    "cameras": 0,
    "abilityLevels": [],
    "boardTypes": []
  },
  {
    "id": "640a2ae1451905c7419768e0",
    "name": "Playa Mayorquina",
    "lat": 10.875,
    "lon": -68.2289,
    "subregion": "West Venezuela",
    "timezone": "America/Caracas",
    "cameras": 0,
    "abilityLevels": [],
    "boardTypes": []
  },
  {
    "id": "640a2ae04eb3751f688f16e8",
    "name": "Playa Azul",
    "lat": 10.8462,
    "lon": -68.2291,
    "subregion": "West Venezuela",
    "timezone": "America/Caracas",
    "cameras": 0,
    "abilityLevels": [],
    "boardTypes": []
  },
  {
    "id": "640a2ad3b6d76963ee4beb6b",
    "name": "El Peaje",
    "lat": 10.6028,
    "lon": -68.2529,
    "subregion": "West Venezuela",
    "timezone": "America/Caracas",
    "cameras": 0,
    "abilityLevels": [],
    "boardTypes": []
  },
  {
    "id": "584204214e65fad6a7709be3",
    "name": "Palma Sola",
    "lat": 10.508,
    "lon": -68.173,
    "subregion": "West Venezuela",
    "timezone": "America/Caracas",
    "cameras": 0,
    "abilityLevels": [],
    "boardTypes": []
  },
  {
    "id": "584204214e65fad6a7709be4",
    "name": "Playa Los Cuatro",
    "lat": 10.49,
    "lon": -68.139,
    "subregion": "West Venezuela",
    "timezone": "America/Caracas",
    "cameras": 0,
    "abilityLevels": [],
    "boardTypes": []
  },
  {
    "id": "584204214e65fad6a7709bf6",
    "name": "El Palito",
    "lat": 10.483,
    "lon": -68.111,
    "subregion": "West Venezuela",
    "timezone": "America/Caracas",
    "cameras": 0,
    "abilityLevels": [],
    "boardTypes": []
  },
  {
    "id": "584204214e65fad6a7709bdf",
    "name": "La Playita",
    "lat": 10.493,
    "lon": -68.082,
    "subregion": "West Venezuela",
    "timezone": "America/Caracas",
    "cameras": 0,
    "abilityLevels": [],
    "boardTypes": []
  },
  {
    "id": "640a2ae8606c456844ab5d1b",
    "name": "Playa Waikiki",
    "lat": 10.4831915,
    "lon": -68.03818,
    "subregion": "West Venezuela",
    "timezone": "America/Caracas",
    "cameras": 0,
    "abilityLevels": [],
    "boardTypes": []
  },
  {
    "id": "584204214e65fad6a7709be2",
    "name": "Cumboto",
    "lat": 10.483,
    "lon": -68.038,
    "subregion": "West Venezuela",
    "timezone": "America/Caracas",
    "cameras": 0,
    "abilityLevels": [],
    "boardTypes": []
  },
  {
    "id": "640a2ae6b6d769497a4bf10f",
    "name": "Playa Blanca",
    "lat": 10.4759,
    "lon": -68.0272,
    "subregion": "West Venezuela",
    "timezone": "America/Caracas",
    "cameras": 0,
    "abilityLevels": [],
    "boardTypes": []
  },
  {
    "id": "584204214e65fad6a7709be0",
    "name": "Macuro",
    "lat": 10.498,
    "lon": -68.01,
    "subregion": "West Venezuela",
    "timezone": "America/Caracas",
    "cameras": 0,
    "abilityLevels": [],
    "boardTypes": []
  },
  {
    "id": "584204214e65fad6a7709be1",
    "name": "La Bocaina",
    "lat": 10.464,
    "lon": -67.931,
    "subregion": "West Venezuela",
    "timezone": "America/Caracas",
    "cameras": 0,
    "abilityLevels": [],
    "boardTypes": []
  },
  {
    "id": "5e2f1e7658bfc90c844ce612",
    "name": "Patanemo",
    "lat": 10.453848204519536,
    "lon": -67.92313,
    "subregion": "West Venezuela",
    "timezone": "America/Caracas",
    "cameras": 0,
    "abilityLevels": [],
    "boardTypes": []
  },
  {
    "id": "584204214e65fad6a7709be5",
    "name": "Cuyagua",
    "lat": 10.498,
    "lon": -67.689,
    "subregion": "West Venezuela",
    "timezone": "America/Caracas",
    "cameras": 0,
    "abilityLevels": [],
    "boardTypes": []
  },
  {
    "id": "584204214e65fad6a7709be6",
    "name": "El Malecon",
    "lat": 10.51,
    "lon": -67.606,
    "subregion": "West Venezuela",
    "timezone": "America/Caracas",
    "cameras": 0,
    "abilityLevels": [],
    "boardTypes": []
  },