[
  {
    "id": "640b9204b6d7699104927809",
    "name": "Red Bluff",
    "lat": -24.3944,
    "lon": 113.402,
    "subregion": "Coral Coast",
    "timezone": "Australia/Perth",
    "cameras": 0,
    "abilityLevels": [],
    "boardTypes": []
  },
  {
    "id": "584204204e65fad6a7709306",
    "name": "Blue Holes",
    "lat": -27.717,
    "lon": 114.152,
    "subregion": "Coral Coast",
    "timezone": "Australia/Perth",
    "cameras": 0,
    "abilityLevels": [],
    "boardTypes": []
  },
  {
    "id": "584204204e65fad6a7709346",
    "name": "Bowes Rivermouth",
    "lat": -28.413,
    "lon": 114.452,
    "subregion": "Coral Coast",
    "timezone": "Australia/Perth",
    "cameras": 0,
    "abilityLevels": [],
    "boardTypes": []
  },
  {
    "id": "584204204e65fad6a7709345",
    "name": "Coronation Beach",
    "lat": -28.553,
    "lon": 114.563,
    "subregion": "Coral Coast",
    "timezone": "Australia/Perth",
    "cameras": 0,
    "abilityLevels": [],
    "boardTypes": []
  },
  {
    "id": "584204204e65fad6a7709344",
    "name": "Drummonds",
    "lat": -28.672,
    "lon": 114.61,
    "subregion": "Coral Coast",
    "timezone": "Australia/Perth",
    "cameras": 0,
    "abilityLevels": [],
    "boardTypes": []
  },
  {
    "id": "640b91fe606c457993f1e45f",
    "name": "Geraldton",
    "lat": -28.78,
    "lon": 114.57,
    "subregion": "Coral Coast",
    "timezone": "Australia/Perth",
    "cameras": 0,
    "abilityLevels": [],
    "boardTypes": []
  },
  {
    "id": "584204204e65fad6a770934a",
    "name": "Explosives",
    "lat": -28.783,
    "lon": 114.575,
    "subregion": "Coral Coast",
    "timezone": "Australia/Perth",
    "cameras": 0,
    "abilityLevels": [],
    "boardTypes": []
  },
  {
    "id": "584204204e65fad6a7709347",
    "name": "Hells Gate",
    "lat": -28.781,
    "lon": 114.569,
    "subregion": "Coral Coast",
    "timezone": "Australia/Perth",
    "cameras": 0,
    "abilityLevels": [],
    "boardTypes": []
  },
  {
    "id": "584204204e65fad6a7709349",
    "name": "Separation Point",
    "lat": -28.795,
    "lon": 114.594,
    "subregion": "Coral Coast",
    "timezone": "Australia/Perth",
    "cameras": 0,
    "abilityLevels": [],
    "boardTypes": []
  },
  {
    "id": "584204204e65fad6a7709348",
    "name": "Back Beach",
    "lat": -28.796,
    "lon": 114.61,
    "subregion": "Coral Coast",
    "timezone": "Australia/Perth",
    "cameras": 0,
    "abilityLevels": [],
    "boardTypes": []
  },
  {
    "id": "584204204e65fad6a770934b",
    "name": "Tarcoola Beach",
    "lat": -28.807,
    "lon": 114.618,
    "subregion": "Coral Coast",
    "timezone": "Australia/Perth",
    "cameras": 0,
    "abilityLevels": [],
    "boardTypes": []
  },
  {
    "id": "584204204e65fad6a770934c",
    "name": "Greenough Rivermouth",
    "lat": -28.862,
    "lon": 114.633,
    "subregion": "Coral Coast",
    "timezone": "Australia/Perth",
    "cameras": 0,
    "abilityLevels": [],
    "boardTypes": []
  },
  {
    "id": "640b920ade81d5f95d0b9d1d",
    "name": "Flat Rocks",
    "lat": -29.0149,
    "lon": 114.7756,
    "subregion": "Coral Coast",
    "timezone": "Australia/Perth",
    "cameras": 0,
    "abilityLevels": [],
    "boardTypes": []
  },
  {
    "id": "584204204e65fad6a7709350",
    "name": "Flat Rocks",
    "lat": -29.089,
    "lon": 114.846,
    "subregion": "Coral Coast",
    "timezone": "Australia/Perth",
    "cameras": 0,
    "abilityLevels": [
      "INTERMEDIATE",
      "ADVANCED"
    ],
    "boardTypes": [
      "SHORTBOARD",
      "FUNBOARD",
      "LONGBOARD",
      "FISH"
    ]
  },
  {
    "id": "584204204e65fad6a770934f",
    "name": "Port Denison",
    "lat": -29.27,
    "lon": 114.921,
    "subregion": "Coral Coast",
    "timezone": "Australia/Perth",
    "cameras": 0,
    "abilityLevels": [
      "INTERMEDIATE",
      "ADVANCED"
    ],
    "boardTypes": [
      "SHORTBOARD",
      "FUNBOARD",
      "LONGBOARD",
      "FISH"
    ]
  },
  {
    "id": "584204204e65fad6a770934d",
    "name": "Dongara Point",
    "lat": -29.275,
    "lon": 114.91,
    "subregion": "Coral Coast",
    "timezone": "Australia/Perth",
    "cameras": 0,
    "abilityLevels": [],
    "boardTypes": []
  },
  {
    "id": "66222c95192346387c47fc51",
    "name": "Main Break (Lancelin)",
    "lat": -31.0168076,
    "lon": 115.31785,
    "subregion": "Perth",
    "timezone": "Australia/Perth",
    "cameras": 0,
    "abilityLevels": [],
    "boardTypes": []
  },
  {
    "id": "6622299a6bcd18507aa56c3c",
    "name": "Eddies",
    "lat": -31.0274405,
    "lon": 115.32262,
    "subregion": "Perth",
    "timezone": "Australia/Perth",
    "cameras": 0,
    "abilityLevels": [],
    "boardTypes": []
  },
  {
    "id": "66222eeb3b045354c8c6ae22",
    "name": "Back Beach",
    "lat": -31.0343232,
    "lon": 115.33428,
    "subregion": "Perth",
    "timezone": "Australia/Perth",
    "cameras": 0,
    "abilityLevels": [],
    "boardTypes": []
  },
  {
    "id": "640b9222de81d54d2e0ba32a",
    "name": "Ders",
    "lat": -31.4738,
    "lon": 115.572,
    "subregion": "Perth",
    "timezone": "Australia/Perth",
    "cameras": 0,
    "abilityLevels": [],
    "boardTypes": []
  },
  {
    "id": "640b9228451905120bddff59",
    "name": "The Spot",
    "lat": -31.5224,
    "lon": 115.603,
    "subregion": "Perth",
    "timezone": "Australia/Perth",
    "cameras": 0,
    "abilityLevels": [],
    "boardTypes": []
  },
  {
    "id": "640b923a606c45ec51f1f3ee",
    "name": "Yanchep",
    "lat": -31.5533,
    "lon": 115.6256,
    "subregion": "Perth",
    "timezone": "Australia/Perth",
    "cameras": 0,
    "abilityLevels": [],
    "boardTypes": []
  },
  {
    "id": "640b92344878eb4cc41bb73c",
    "name": "Whitfords Beach",
    "lat": -31.799,
    "lon": 115.731,
    "subregion": "Perth",
    "timezone": "Australia/Perth",
    "cameras": 0,
    "abilityLevels": [],
    "boardTypes": []
  },
  {
    "id": "68502a82f8010d287283c260",
    "name": "Sorrento",
    "lat": -31.829429719103096,
    "lon": 115.74214,
    "subregion": "Perth",
    "timezone": "Africa/Abidjan",
    "cameras": 0,
    "abilityLevels": [],
    "boardTypes": []
  },
  {
    "id": "584204204e65fad6a7709268",
    "name": "Trigg Beach",
    "lat": -31.878352050830976,
    "lon": 115.75125,
    "subregion": "Perth",
    "timezone": "Australia/Perth",
    "cameras": 4,
    "abilityLevels": [
      "BEGINNER",
      "INTERMEDIATE",
      "ADVANCED"
    ],
    "boardTypes": [
      "SHORTBOARD",
      "FISH",
      "FUNBOARD",
      "LONGBOARD",
      "SUP",
      "FOIL",
      "SKIMMING",
      "BODYBOARD",
      "BODYSURFING",
      "KITEBOARD"
    ]
  },
  {
    "id": "5842041f4e65fad6a7708c1e",
    "name": "Scarborough",
    "lat": -31.89140556,
    "lon": 115.75388,
    "subregion": "Perth",
    "timezone": "Australia/Perth",
    "cameras": 0,
    "abilityLevels": [
      "BEGINNER",
      "INTERMEDIATE",
      "ADVANCED"
    ],
    "boardTypes": [
      "SHORTBOARD",
      "FUNBOARD",
      "LONGBOARD",
      "FISH",
      "BODYBOARD"
    ]
  },
  {
    "id": "640b921c8284febe1caefa3e",
    "name": "Observation City",
    "lat": -31.8936,
    "lon": 115.753,
    "subregion": "Perth",
    "timezone": "Australia/Perth",
    "cameras": 0,
    "abilityLevels": [],
    "boardTypes": []
  },
  {
    "id": "640b922e4519053a23de00cf",
    "name": "Floreat Beach",
    "lat": -31.93,
    "lon": 115.7539,
    "subregion": "Perth",
    "timezone": "Australia/Perth",
    "cameras": 0,
    "abilityLevels": [],
    "boardTypes": []
  },
  {
    "id": "640b9246e920304922df2e2f",
    "name": "Cable Station Reef",
    "lat": -32.00312,
    "lon": 115.75067,
    "subregion": "Perth",
    "timezone": "Australia/Perth",
    "cameras": 0,
    "abilityLevels": [],
    "boardTypes": []
  },
  {
    "id": "5842041f4e65fad6a7708c1f",
    "name": "Cottesloe",
    "lat": -32.007275,
    "lon": 115.75131,
    "subregion": "Perth",
    "timezone": "Australia/Perth",
    "cameras": 0,
    "abilityLevels": [
      "INTERMEDIATE",
      "ADVANCED"
    ],
    "boardTypes": [
      "SHORTBOARD",
      "FUNBOARD",
      "LONGBOARD",
      "FISH"
    ]
  },
  {
    "id": "5842041f4e65fad6a7708c20",
    "name": "Cables",
    "lat": -32.01661667,
    "lon": 115.7511583,
    "subregion": "Perth",
    "timezone": "Australia/Perth",
    "cameras": 0,
    "abilityLevels": [
      "BEGINNER"
    ],
    "boardTypes": [
      "SHORTBOARD",
      "FUNBOARD",
      "LONGBOARD",
      "FISH"
    ]
  },
  {
    "id": "640b9240606c454126f1f56a",
    "name": "South Beach",
    "lat": -32.073,
    "lon": 115.7508,
    "subregion": "Perth",
    "timezone": "Australia/Perth",
    "cameras": 0,
    "abilityLevels": [],
    "boardTypes": []
  },
  {
    "id": "584204204e65fad6a7709466",
    "name": "Garden Island",
    "lat": -32.153,
    "lon": 115.66,
    "subregion": "Perth",
    "timezone": "Australia/Perth",
    "cameras": 0,
    "abilityLevels": [],
    "boardTypes": []
  },
  {
    "id": "595ea6bb9c3d320013e9723b",
    "name": "Secret Harbour",
    "lat": -32.409023708579554,
    "lon": 115.74384,
    "subregion": "Perth",
    "timezone": "Australia/Perth",
    "cameras": 2,
    "abilityLevels": [],
    "boardTypes": []
  },
  {
    "id": "5842041f4e65fad6a7708c23",
    "name": "Strickland Bay/Rottnest Island",
    "lat": -32.01881111,
    "lon": 115.48693,
    "subregion": "Perth",
    "timezone": "Australia/Perth",
    "cameras": 0,
    "abilityLevels": [
      "INTERMEDIATE",
      "ADVANCED"
    ],
    "boardTypes": [
      "SHORTBOARD",
      "GUN"
    ]
  },
  {
    "id": "640b9216de81d50b930ba01c",
    "name": "Salmon Point",
    "lat": -32.0225,
    "lon": 115.517,
    "subregion": "Perth",
    "timezone": "Australia/Perth",
    "cameras": 0,
    "abilityLevels": [],
    "boardTypes": []
  },
  {
    "id": "640b9210606c45710bf1e8b4",
    "name": "Stark Bay",
    "lat": -32.0022,
    "lon": 115.482,
    "subregion": "Perth",
    "timezone": "Australia/Perth",
    "cameras": 0,
    "abilityLevels": [],
    "boardTypes": []
  },
  {
    "id": "5d7abfaac2811c0001494b7b",
    "name": "Dolphins",
    "lat": -32.520577809602244,
    "lon": 115.71957,
    "subregion": "Perth",
    "timezone": "Australia/Perth",
    "cameras": 0,
    "abilityLevels": [],
    "boardTypes": []
  },
  {
    "id": "6307f1f5c54d21f0a3edf882",
    "name": "Avalon Point",
    "lat": -32.5945,
    "lon": 115.633,
    "subregion": "Perth",
    "timezone": "Australia/Perth",
    "cameras": 0,
    "abilityLevels": [],
    "boardTypes": []
  },
  {
    "id": "63a2267733c8be13ed4b2688",
    "name": "Pyramids Beach",
    "lat": -32.603549,
    "lon": 115.63031,
    "subregion": "Perth",
    "timezone": "Australia/Perth",
    "cameras": 2,
    "abilityLevels": [],
    "boardTypes": []
  },
  {
    "id": "5842041f4e65fad6a7708c27",
    "name": "South Point",
    "lat": -33.86301667,
    "lon": 114.97679,
    "subregion": "Southwest Australia",
    "timezone": "Australia/Perth",
    "cameras": 0,
    "abilityLevels": [
      "BEGINNER",
      "INTERMEDIATE"
    ],
    "boardTypes": [
      "SHORTBOARD",
      "FUNBOARD",
      "FISH"
    ]
  },
  {
    "id": "640b92884878ebb63b1bcb54",
    "name": "Huzzas",
    "lat": -33.8657,
    "lon": 114.9814,
    "subregion": "Southwest Australia",
    "timezone": "Australia/Perth",
    "cameras": 0,
    "abilityLevels": [],
    "boardTypes": []
  },
  {
    "id": "5842041f4e65fad6a7708c2a",
    "name": "Lefthanders (Lefties)",
    "lat": -33.88036667,
    "lon": 114.98032,
    "subregion": "Southwest Australia",
    "timezone": "Australia/Perth",
    "cameras": 0,
    "abilityLevels": [
      "INTERMEDIATE",
      "ADVANCED"
    ],
    "boardTypes": [
      "SHORTBOARD"
    ]
  },
  {
    "id": "5842041f4e65fad6a7708c25",
    "name": "North Point",
    "lat": -33.858925,
    "lon": 114.98469,
    "subregion": "Southwest Australia",
    "timezone": "Australia/Perth",
    "cameras": 0,
    "abilityLevels": [
      "ADVANCED"
    ],
    "boardTypes": [
      "SHORTBOARD",
      "GUN"
    ]
  },
  {
    "id": "5842041f4e65fad6a7708c24",
    "name": "Injidup Carpark",
    "lat": -33.69852222,
    "lon": 114.98713,
    "subregion": "Southwest Australia",
    "timezone": "Australia/Perth",
    "cameras": 0,
    "abilityLevels": [
      "INTERMEDIATE",
      "ADVANCED"
    ],
    "boardTypes": [
      "SHORTBOARD",
      "GUN"
    ]
  },
  {
    "id": "640b92528284fe2018af0787",
    "name": "Pea Break",
    "lat": -33.6977,
    "lon": 114.988,
    "subregion": "Southwest Australia",
    "timezone": "Australia/Perth",
    "cameras": 0,
    "abilityLevels": [],
    "boardTypes": []
  },
  {
    "id": "584204214e65fad6a7709bfe",
    "name": "The Box",
    "lat": -33.972,
    "lon": 114.979,
    "subregion": "Southwest Australia",
    "timezone": "Australia/Perth",
    "cameras": 0,
    "abilityLevels": [
      "ADVANCED"
    ],
    "boardTypes": [
      "SHORTBOARD",
      "GUN",
      "BODYBOARD"
    ]
  },
  {
    "id": "5842041f4e65fad6a7708c28",
    "name": "Margaret River",
    "lat": -33.97649722,
    "lon": 114.98311,
    "subregion": "Southwest Australia",
    "timezone": "Australia/Perth",
    "cameras": 4,
    "abilityLevels": [
      "ADVANCED",
      "INTERMEDIATE"
    ],
    "boardTypes": [
      "SHORTBOARD",
      "GUN",
      "FISH",
      "BODYBOARD"
    ]
  },
  {
    "id": "5842041f4e65fad6a7708c29",
    "name": "Gas Bay",
    "lat": -33.978325,
    "lon": 114.9863667,
    "subregion": "Southwest Australia",
    "timezone": "Australia/Perth",
    "cameras": 0,
    "abilityLevels": [
      "INTERMEDIATE",
      "ADVANCED"
    ],
    "boardTypes": [
      "SHORTBOARD"
    ]
  },
  {
    "id": "584204204e65fad6a7709468",
    "name": "Red Gate",
    "lat": -34.0363,
    "lon": 115.001,
    "subregion": "Southwest Australia",
    "timezone": "Australia/Perth",
    "cameras": 0,
    "abilityLevels": [],
    "boardTypes": []
  },
  {
    "id": "584204204e65fad6a770946a",
    "name": "Conto",
    "lat": -34.091,
    "lon": 114.994,
    "subregion": "Southwest Australia",
    "timezone": "Australia/Perth",
    "cameras": 0,
    "abilityLevels": [],
    "boardTypes": []
  },
  {
    "id": "584204204e65fad6a7709469",
    "name": "Boranup",
    "lat": -34.164,
    "lon": 115.027,
    "subregion": "Southwest Australia",
    "timezone": "Australia/Perth",
    "cameras": 0,
    "abilityLevels": [],
    "boardTypes": []
  },
  {
    "id": "584204204e65fad6a770946b",
    "name": "Deepdene",
    "lat": -34.272,
    "lon": 115.041,
    "subregion": "Southwest Australia",
    "timezone": "Australia/Perth",
    "cameras": 0,
    "abilityLevels": [],
    "boardTypes": []
  },
  {
    "id": "5842041f4e65fad6a7708c26",
    "name": "Smiths Beach",
    "lat": -33.65705556,
    "lon": 115.01457,
    "subregion": "Southwest Australia",
    "timezone": "Australia/Perth",
    "cameras": 2,
    "abilityLevels": [
      "INTERMEDIATE",
      "ADVANCED"
    ],
    "boardTypes": [
      "SHORTBOARD",
      "BODYBOARD",
      "FISH",
      "FUNBOARD",
      "BODYSURFING"
    ]
  },
  {
    "id": "5842041f4e65fad6a7708c21",
    "name": "Supertubes",
    "lat": -33.65305556,
    "lon": 115.018,
    "subregion": "Southwest Australia",
    "timezone": "Australia/Perth",
    "cameras": 1,
    "abilityLevels": [
      "INTERMEDIATE",
      "ADVANCED"
    ],
    "boardTypes": [
      "SHORTBOARD",
      "BODYBOARD"
    ]
  },
  {
    "id": "5842041f4e65fad6a7708c22",
    "name": "Yallingup",
    "lat": -33.63875278,
    "lon": 115.02247,
    "subregion": "Southwest Australia",
    "timezone": "Australia/Perth",
    "cameras": 2,
    "abilityLevels": [
      "INTERMEDIATE",
      "ADVANCED"
    ],
    "boardTypes": [
      "FUNBOARD",
      "LONGBOARD",
      "FISH",
      "GUN"
    ]
  },
  {
    "id": "640b928ee9203020efdf3f9b",
    "name": "Port Geographe Bay",
    "lat": -33.636254,
    "lon": 115.37258,
    "subregion": "Southwest Australia",
    "timezone": "Australia/Perth",
    "cameras": 0,
    "abilityLevels": [],
    "boardTypes": []
  },
  {
    "id": "640b924c606c456f16f1f80e",
    "name": "Three Bears",
    "lat": -33.5711,
    "lon": 115.007,
    "subregion": "Southwest Australia",
    "timezone": "Australia/Perth",
    "cameras": 0,
    "abilityLevels": [],
    "boardTypes": []
  },
  {
    "id": "640b9258b6d7697988928cdb",
    "name": "Windmills",
    "lat": -33.5369,
    "lon": 115.004,
    "subregion": "Southwest Australia",
    "timezone": "Australia/Perth",
    "cameras": 0,
    "abilityLevels": [],
    "boardTypes": []
  },
  {
    "id": "60df8ef3c9d6e38dc8b63d6e",
    "name": "Bunbury Point",
    "lat": -33.3103648,
    "lon": 115.63497,
    "subregion": "Southwest Australia",
    "timezone": "Australia/Perth",
    "cameras": 0,
    "abilityLevels": [],
    "boardTypes": []
  },
  {
    "id": "640b926a606c45234bf1ffd5",
    "name": "Lights Beach",
    "lat": -35.0261,
    "lon": 117.2831,
    "subregion": "Southwest Australia",
    "timezone": "Australia/Perth",
    "cameras": 0,
    "abilityLevels": [],
    "boardTypes": []
  },
  {
    "id": "640b9282de81d59c8e0bbb30",
    "name": "Ocean Beach",
    "lat": -35.0232,
    "lon": 117.3336,
    "subregion": "Southwest Australia",
    "timezone": "Australia/Perth",
    "cameras": 0,
    "abilityLevels": [],
    "boardTypes": []
  },
  {
    "id": "640b92704878eb4cd41bc5b1",
    "name": "Lowlands Beach",
    "lat": -35.0757,
    "lon": 117.5135,
    "subregion": "Southwest Australia",
    "timezone": "Australia/Perth",
    "cameras": 0,
    "abilityLevels": [],
    "boardTypes": []
  },
  {
    "id": "663a2c3a51178bc84bd02e40",
    "name": "Muttonbird Beach",
    "lat": -35.04549111082749,
    "lon": 117.68012,
    "subregion": "Southwest Australia",
    "timezone": "Australia/Perth",
    "cameras": 0,
    "abilityLevels": [],
    "boardTypes": []
  },
  {
    "id": "640b9276606c452e26f202c4",
    "name": "Middleton Beach",
    "lat": -35.0127,
    "lon": 117.9221,
    "subregion": "Southwest Australia",
    "timezone": "Australia/Perth",
    "cameras": 0,
    "abilityLevels": [],
    "boardTypes": []
  },
  {
    "id": "640b927c606c453318f20445",
    "name": "Ben Dearg Beach",
    "lat": -35.0051,
    "lon": 118.0564,
    "subregion": "Southwest Australia",
    "timezone": "Australia/Perth",
    "cameras": 0,
    "abilityLevels": [],
    "boardTypes": []
  },
  {
    "id": "663a2dcd033aad1ea0828293",
    "name": "Nanarup Beach",
    "lat": -34.99016503548295,
    "lon": 118.08689,
    "subregion": "Southwest Australia",
    "timezone": "Australia/Perth",
    "cameras": 0,
    "abilityLevels": [],
    "boardTypes": []
  },
  {
    "id": "640b925ede81d588fc0bb21e",
    "name": "Cheyne Beach",
    "lat": -34.8694,
    "lon": 118.3964,
    "subregion": "Southwest Australia",
    "timezone": "Australia/Perth",
    "cameras": 0,
    "abilityLevels": [],
    "boardTypes": []
  },
  {
    "id": "663d0286266aefb09cbfb158",
    "name": "Blossoms",
    "lat": -34.4594384,
    "lon": 119.36523,
    "subregion": "Southwest Australia",
    "timezone": "Australia/Perth",
    "cameras": 0,
    "abilityLevels": [],
    "boardTypes": []
  },
  {
    "id": "663cf83411c0d27a1e39604f",
    "name": "Fourth Beach",
    "lat": -33.88883,
    "lon": 121.84147,
    "subregion": "Southwest Australia",
    "timezone": "Australia/Perth",
    "cameras": 0,
    "abilityLevels": [],
    "boardTypes": []
  },
  {
    "id": "640b9265606c45bd2df1fe61",
    "name": "Kennedy Beach",
    "lat": -33.89193,
    "lon": 122.9065,
    "subregion": "Southwest Australia",
    "timezone": "Australia/Perth",
    "cameras": 0,
    "abilityLevels": [],
    "boardTypes": []
  },
  {
    "id": "640b8b4dde81d5db7809d6cc",
    "name": "Cheetima Beach",
    "lat": -32.0125,
    "lon": 132.1727,
    "subregion": "West Coast",
    "timezone": "Australia/Adelaide",
    "cameras": 0,
    "abilityLevels": [],
    "boardTypes": []
  },
  {
    "id": "584204204e65fad6a770926d",
    "name": "Chrushers",
    "lat": -32.080578,
    "lon": 132.977242,
    "subregion": "West Coast",
    "timezone": "Australia/Adelaide",
    "cameras": 0,
    "abilityLevels": [],
    "boardTypes": []
  },
  {
    "id": "584204204e65fad6a7709270",
    "name": "Caves",
    "lat": -32.081831,
    "lon": 132.979208,
    "subregion": "West Coast",
    "timezone": "Australia/Adelaide",
    "cameras": 0,
    "abilityLevels": [],
    "boardTypes": []
  },
  {
    "id": "640b8b47e920306a34dd5787",
    "name": "Supertubes (Cactus)",
    "lat": -32.0796,
    "lon": 132.978,
    "subregion": "West Coast",
    "timezone": "Australia/Adelaide",
    "cameras": 0,
    "abilityLevels": [],
    "boardTypes": []
  },
  {
    "id": "5842041f4e65fad6a7708c2c",
    "name": "Cactus",
    "lat": -32.08626,
    "lon": 132.97959,
    "subregion": "West Coast",
    "timezone": "Australia/Adelaide",
    "cameras": 0,
    "abilityLevels": [
      "INTERMEDIATE",
      "ADVANCED"
    ],
    "boardTypes": [
      "SHORTBOARD"
    ]
  },
  {
    "id": "584204204e65fad6a7709274",
    "name": "Cunns",
    "lat": -32.089117,
    "lon": 132.978903,
    "subregion": "West Coast",
    "timezone": "Australia/Adelaide",
    "cameras": 0,
    "abilityLevels": [],
    "boardTypes": []
  },
  {
    "id": "584204204e65fad6a770926f",
    "name": "Witzig's",
    "lat": -32.096867,
    "lon": 132.979761,
    "subregion": "West Coast",
    "timezone": "Australia/Adelaide",
    "cameras": 0,
    "abilityLevels": [],
    "boardTypes": []
  },
  {
    "id": "640b8c864878eb6c5c1a3c08",
    "name": "Mount Camel Beach",
    "lat": -33.2823,
    "lon": 134.7446,
    "subregion": "West Coast",
    "timezone": "Australia/Adelaide",
    "cameras": 0,
    "abilityLevels": [],
    "boardTypes": []
  },
  {
    "id": "640b8c5c8284fe6dbbad7923",
    "name": "Elliston",
    "lat": -33.6246,
    "lon": 134.828,
    "subregion": "West Coast",
    "timezone": "Australia/Adelaide",
    "cameras": 0,
    "abilityLevels": [],
    "boardTypes": []
  },
  {
    "id": "640b8c624878eb953c1a323a",
    "name": "Almonta Beach",
    "lat": -34.6805,
    "lon": 135.3472,
    "subregion": "West Coast",
    "timezone": "Australia/Adelaide",
    "cameras": 0,
    "abilityLevels": [],
    "boardTypes": []
  },
  {
    "id": "640b8c68de81d57fc00a22fa",
    "name": "Mary Ellis Wreck Beach",
    "lat": -34.8597,
    "lon": 135.7262,
    "subregion": "West Coast",
    "timezone": "Australia/Adelaide",
    "cameras": 0,
    "abilityLevels": [],
    "boardTypes": []
  },
  {
    "id": "640b8c56b6d769b5de90fa9f",
    "name": "Fisheries Bay",
    "lat": -34.9163,
    "lon": 135.683,
    "subregion": "West Coast",
    "timezone": "Australia/Adelaide",
    "cameras": 0,
    "abilityLevels": [],
    "boardTypes": []
  },
  {
    "id": "640b8c6eb6d7691fb39100ce",
    "name": "Tinah Beach",
    "lat": -34.8576,
    "lon": 135.7688,
    "subregion": "West Coast",
    "timezone": "Australia/Adelaide",
    "cameras": 0,
    "abilityLevels": [],
    "boardTypes": []
  },
  {
    "id": "584204204e65fad6a770926a",
    "name": "Trespassers",
    "lat": -35.163411,
    "lon": 136.89357,
    "subregion": "Yorke Peninsula",
    "timezone": "Australia/Adelaide",
    "cameras": 0,
    "abilityLevels": [],
    "boardTypes": []
  },
  {
    "id": "584204204e65fad6a7709266",
    "name": "Pondi",
    "lat": -35.236043,
    "lon": 136.83175,
    "subregion": "Yorke Peninsula",
    "timezone": "Australia/Adelaide",
    "cameras": 0,
    "abilityLevels": [],
    "boardTypes": []
  },
  {
    "id": "584204204e65fad6a7709264",
    "name": "Ethel Wreck",
    "lat": -35.288942,
    "lon": 136.872333,
    "subregion": "Yorke Peninsula",
    "timezone": "Australia/Adelaide",
    "cameras": 0,
    "abilityLevels": [],
    "boardTypes": []
  },
  {
    "id": "5842041f4e65fad6a7708c2b",
    "name": "Chinamans",
    "lat": -35.29171667,
    "lon": 136.875225,
    "subregion": "Yorke Peninsula",
    "timezone": "Australia/Adelaide",
    "cameras": 0,
    "abilityLevels": [
      "ADVANCED"
    ],
    "boardTypes": [
      "SHORTBOARD",
      "GUN"
    ]
  },
  {
    "id": "584204204e65fad6a7709261",
    "name": "Cape Kersaint",
    "lat": -36.03905,
    "lon": 137.12681,
    "subregion": "Kangaroo Island",
    "timezone": "Australia/Adelaide",
    "cameras": 0,
    "abilityLevels": [],
    "boardTypes": []
  },
  {
    "id": "5842041f4e65fad6a7708c2d",
    "name": "Pennington Bay",
    "lat": -35.86224722,
    "lon": 137.74371,
    "subregion": "Kangaroo Island",
    "timezone": "Australia/Adelaide",
    "cameras": 0,
    "abilityLevels": [
      "INTERMEDIATE",
      "ADVANCED"
    ],
    "boardTypes": [
      "SHORTBOARD"
    ]
  },
  {
    "id": "5842041f4e65fad6a7708c2f",
    "name": "Waitpinga",
    "lat": -35.63450833,
    "lon": 138.49829,
    "subregion": "South Coast",
    "timezone": "Australia/Adelaide",
    "cameras": 0,
    "abilityLevels": [
      "INTERMEDIATE",
      "ADVANCED"
    ],
    "boardTypes": [
      "SHORTBOARD"
    ]
  },
  {
    "id": "5d7976cc9f0a9200016820f0",
    "name": "Chiton Rocks",
    "lat": -35.538063225253616,
    "lon": 138.65392,
    "subregion": "South Coast",
    "timezone": "Australia/Adelaide",
    "cameras": 1,
    "abilityLevels": [],
    "boardTypes": []
  },
  {
    "id": "5842041f4e65fad6a7708c30",
    "name": "Middleton",
    "lat": -35.52,
    "lon": 138.71,
    "subregion": "South Coast",
    "timezone": "Australia/Adelaide",
    "cameras": 0,
    "abilityLevels": [
      "BEGINNER",
      "INTERMEDIATE"
    ],
    "boardTypes": [
      "FUNBOARD",
      "LONGBOARD",
      "FISH"
    ]
  },
  {
    "id": "640f86dfd19c66224c8b1238",
    "name": "Matches",
    "lat": -37.1849,
    "lon": 139.747,
    "subregion": "Southeast Australia",
    "timezone": "Australia/Adelaide",
    "cameras": 0,
    "abilityLevels": [],
    "boardTypes": []
  },
  {
    "id": "640f871835546904f1d16f16",
    "name": "Outlet Beach",
    "lat": -37.1652,
    "lon": 139.7765,
    "subregion": "Southeast Australia",
    "timezone": "Australia/Adelaide",
    "cameras": 0,
    "abilityLevels": [],
    "boardTypes": []
  },
  {
    "id": "640f86d438476e1c76e79b8b",
    "name": "Stony Rise",
    "lat": -37.19203,
    "lon": 139.75073,
    "subregion": "Southeast Australia",
    "timezone": "Australia/Adelaide",
    "cameras": 0,
    "abilityLevels": [],
    "boardTypes": []
  },
  {
    "id": "640f86f5326c176d5a6d809b",
    "name": "Beachport",
    "lat": -37.475,
    "lon": 140.028,
    "subregion": "Southeast Australia",
    "timezone": "Australia/Adelaide",
    "cameras": 0,
    "abilityLevels": [],
    "boardTypes": []
  },
  {
    "id": "584204204e65fad6a7709af1",
    "name": "Robe Long Beach",
    "lat": -37.129,
    "lon": 139.792,
    "subregion": "Southeast Australia",
    "timezone": "Australia/Adelaide",
    "cameras": 0,
    "abilityLevels": [],
    "boardTypes": []
  },
  {
    "id": "640b8c0a45190542aedc651e",
    "name": "Southend Beach",
    "lat": -37.5289,
    "lon": 140.1191,
    "subregion": "Southeast Australia",
    "timezone": "Australia/Adelaide",
    "cameras": 0,
    "abilityLevels": [],
    "boardTypes": []
  },
  {
    "id": "640f87006d5ecc7d6c6d358c",
    "name": "Admella Beach",
    "lat": -37.854,
    "lon": 140.3567,
    "subregion": "Southeast Australia",
    "timezone": "Australia/Adelaide",
    "cameras": 0,
    "abilityLevels": [],
    "boardTypes": []
  },
  {
    "id": "584204204e65fad6a7709af0",
    "name": "Posties",
    "lat": -38.051,
    "lon": 140.631,
    "subregion": "Southeast Australia",
    "timezone": "Australia/Adelaide",
    "cameras": 0,
    "abilityLevels": [
      "ADVANCED"
    ],
    "boardTypes": [
      "SHORTBOARD",
      "FUNBOARD",
      "LONGBOARD",
      "FISH"
    ]
  },
  {
    "id": "640f86eb7966c396267be5f1",
    "name": "Port Macdonnell",
    "lat": -38.0536,
    "lon": 140.732,
    "subregion": "Southeast Australia",
    "timezone": "Australia/Adelaide",
    "cameras": 0,
    "abilityLevels": [],
    "boardTypes": []
  },
  {
    "id": "640f870c38476e5cc8e7a8ae",
    "name": "Brown Beach",
    "lat": -38.0413,
    "lon": 140.8423,
    "subregion": "Southeast Australia",
    "timezone": "Australia/Adelaide",
    "cameras": 0,
    "abilityLevels": [],
    "boardTypes": []
  },
  {
    "id": "584204204e65fad6a7709277",
    "name": "Glenelg Rivermouth",
    "lat": -38.063,
    "lon": 140.986,
    "subregion": "Western Victoria",
    "timezone": "Australia/Melbourne",
    "cameras": 0,
    "abilityLevels": [
      "INTERMEDIATE",
      "ADVANCED"
    ],
    "boardTypes": [
      "SHORTBOARD",
      "LONGBOARD",
      "FISH",
      "BODYBOARD"
    ]
  },
  {
    "id": "584204204e65fad6a770927b",
    "name": "Discovery Bay",
    "lat": -38.342,
    "lon": 141.378,
    "subregion": "Western Victoria",
    "timezone": "Australia/Melbourne",
    "cameras": 0,
    "abilityLevels": [
      "BEGINNER",
      "INTERMEDIATE",
      "ADVANCED",
      "PRO"
    ],
    "boardTypes": [
      "SHORTBOARD",
      "FUNBOARD",
      "LONGBOARD",
      "FISH",
      "BODYBOARD"
    ]
  },
  {
    "id": "640b91a3de81d580b90b82af",
    "name": "Crumpets Beach",
    "lat": -38.3817,
    "lon": 141.6412,
    "subregion": "Western Victoria",
    "timezone": "Australia/Melbourne",
    "cameras": 0,
    "abilityLevels": [],
    "boardTypes": []
  },
  {
    "id": "640b919e8284fe641faed9d9",
    "name": "Blacknose Point",
    "lat": -38.3786,
    "lon": 141.6429,
    "subregion": "Western Victoria",
    "timezone": "Australia/Melbourne",
    "cameras": 0,
    "abilityLevels": [],
    "boardTypes": []
  },
  {
    "id": "584204204e65fad6a770927d",
    "name": "The Passage",
    "lat": -38.3949733,
    "lon": 142.2392,
    "subregion": "Western Victoria",
    "timezone": "Australia/Melbourne",
    "cameras": 0,
    "abilityLevels": [
      "INTERMEDIATE",
      "ADVANCED"
    ],
    "boardTypes": [
      "SHORTBOARD",
      "LONGBOARD",
      "FISH"
    ]
  },
  {
    "id": "584204204e65fad6a770927e",
    "name": "The Lighthouse",
    "lat": -38.39,
    "lon": 142.256,
    "subregion": "Western Victoria",
    "timezone": "Australia/Melbourne",
    "cameras": 0,
    "abilityLevels": [
      "BEGINNER",
      "INTERMEDIATE",
      "ADVANCED",
      "PRO"
    ],
    "boardTypes": [
      "SHORTBOARD",
      "LONGBOARD",
      "BODYBOARD"
    ]
  },
  {
    "id": "584204204e65fad6a7709281",
    "name": "The Cutting",
    "lat": -38.352,
    "lon": 142.367,
    "subregion": "Western Victoria",
    "timezone": "Australia/Melbourne",
    "cameras": 0,
    "abilityLevels": [
      "INTERMEDIATE",
      "ADVANCED",
      "PRO"
    ],
    "boardTypes": [
      "SHORTBOARD",
      "BODYBOARD"
    ]
  },
  {
    "id": "584204204e65fad6a7709280",
    "name": "Warrnambool Beach",
    "lat": -38.395,
    "lon": 142.486,
    "subregion": "Western Victoria",
    "timezone": "Australia/Melbourne",
    "cameras": 2,
    "abilityLevels": [
      "BEGINNER",
      "INTERMEDIATE",
      "ADVANCED",
      "PRO"
    ],
    "boardTypes": [
      "SHORTBOARD",
      "FUNBOARD",
      "LONGBOARD",
      "FISH",
      "BODYBOARD",
      "SKIMMING",
      "BODYSURFING"
    ]
  },
  {
    "id": "584204204e65fad6a7709285",
    "name": "Flume",
    "lat": -38.397,
    "lon": 142.498,
    "subregion": "Western Victoria",
    "timezone": "Australia/Melbourne",
    "cameras": 0,
    "abilityLevels": [
      "BEGINNER",
      "INTERMEDIATE"
    ],
    "boardTypes": [
      "SHORTBOARD",
      "FUNBOARD",
      "LONGBOARD",
      "FISH",
      "BODYBOARD",
      "SKIMMING",
      "BODYSURFING"
    ]
  },
  {
    "id": "584204204e65fad6a7709294",
    "name": "Logans Beach/Japs",
    "lat": -38.405,
    "lon": 142.519,
    "subregion": "Western Victoria",
    "timezone": "Australia/Melbourne",
    "cameras": 0,
    "abilityLevels": [
      "ADVANCED",
      "PRO"
    ],
    "boardTypes": [
      "SHORTBOARD",
      "BODYBOARD",
      "BODYSURFING"
    ]
  },
  {
    "id": "584204204e65fad6a7709291",
    "name": "Childers Cove",
    "lat": -38.495,
    "lon": 142.681,
    "subregion": "Western Victoria",
    "timezone": "Australia/Melbourne",
    "cameras": 0,
    "abilityLevels": [
      "INTERMEDIATE",
      "ADVANCED",
      "PRO"
    ],
    "boardTypes": [
      "SHORTBOARD",
      "FUNBOARD",
      "LONGBOARD",
      "FISH"
    ]
  },
  {
    "id": "584204204e65fad6a7709298",
    "name": "The Well",
    "lat": -38.605,
    "lon": 142.862,
    "subregion": "Western Victoria",
    "timezone": "Australia/Melbourne",
    "cameras": 0,
    "abilityLevels": [
      "PRO"
    ],
    "boardTypes": [
      "GUN",
      "TOW"
    ]
  },
  {
    "id": "5842041f4e65fad6a7708c1c",
    "name": "Two Mile/Easter Reef",
    "lat": -38.62743889,
    "lon": 142.9796,
    "subregion": "Western Victoria",
    "timezone": "Australia/Melbourne",
    "cameras": 0,
    "abilityLevels": [
      "ADVANCED"
    ],
    "boardTypes": [
      "GUN"
    ]
  },
  {
    "id": "640b9184451905a82bddd405",
    "name": "Princetown",
    "lat": -38.7082,
    "lon": 143.1591,
    "subregion": "Western Victoria",
    "timezone": "Australia/Melbourne",
    "cameras": 0,
    "abilityLevels": [],
    "boardTypes": []
  },
  {
    "id": "584204204e65fad6a770928f",
    "name": "Luna Park/Milansea Beach",
    "lat": -38.753,
    "lon": 143.309,
    "subregion": "Western Victoria",
    "timezone": "Australia/Melbourne",
    "cameras": 0,
    "abilityLevels": [
      "PRO"
    ],
    "boardTypes": [
      "BODYBOARD",
      "GUN",
      "TOW"
    ]
  },
  {
    "id": "5842041f4e65fad6a7708c0d",
    "name": "Johanna",
    "lat": -38.76017222,
    "lon": 143.37283,
    "subregion": "Western Victoria",
    "timezone": "Australia/Melbourne",
    "cameras": 0,
    "abilityLevels": [
      "INTERMEDIATE",
      "ADVANCED"
    ],
    "boardTypes": [
      "SHORTBOARD",
      "LONGBOARD",
      "FISH"
    ]
  },
  {
    "id": "640b917eb6d7694bcf9254bf",
    "name": "Castle Cove",
    "lat": -38.7834,
    "lon": 143.4277,
    "subregion": "Western Victoria",
    "timezone": "Australia/Melbourne",
    "cameras": 0,
    "abilityLevels": [],
    "boardTypes": []
  },
  {
    "id": "584204204e65fad6a770929b",
    "name": "Elliott River",
    "lat": -38.792,
    "lon": 143.635,
    "subregion": "Surf Coast",
    "timezone": "Australia/Melbourne",
    "cameras": 0,
    "abilityLevels": [
      "INTERMEDIATE",
      "ADVANCED",
      "PRO"
    ],
    "boardTypes": [
      "SHORTBOARD",
      "BODYBOARD"
    ]
  },
  {
    "id": "584204204e65fad6a7709292",
    "name": "Moo Cows",
    "lat": -38.789,
    "lon": 143.65,
    "subregion": "Surf Coast",
    "timezone": "Australia/Melbourne",
    "cameras": 0,
    "abilityLevels": [
      "ADVANCED",
      "PRO"
    ],
    "boardTypes": [
      "SHORTBOARD",
      "GUN"
    ]
  },
  {
    "id": "584204204e65fad6a7709293",
    "name": "The Corner",
    "lat": -38.785,
    "lon": 143.659,
    "subregion": "Surf Coast",
    "timezone": "Australia/Melbourne",
    "cameras": 0,
    "abilityLevels": [
      "PRO"
    ],
    "boardTypes": [
      "SHORTBOARD",
      "BODYBOARD"
    ]
  },
  {
    "id": "6198357bcab3430a71a633dc",
    "name": "Mounts Bay",
    "lat": -38.76865,
    "lon": 143.66634,
    "subregion": "Surf Coast",
    "timezone": "Australia/Melbourne",
    "cameras": 0,
    "abilityLevels": [],
    "boardTypes": []
  },
  {
    "id": "61a5406bb8ae6ff409069c8a",
    "name": "Apollo Bay",
    "lat": -38.7541,
    "lon": 143.674,
    "subregion": "Surf Coast",
    "timezone": "Australia/Melbourne",
    "cameras": 0,
    "abilityLevels": [],
    "boardTypes": []
  },
  {
    "id": "6997159399b9a15760fc81c4",
    "name": "Skenes Creek",
    "lat": -38.72662,
    "lon": 143.71062,
    "subregion": "Surf Coast",
    "timezone": "Australia/Melbourne",
    "cameras": 0,
    "abilityLevels": [],
    "boardTypes": []
  },
  {
    "id": "584204204e65fad6a7709297",
    "name": "Smyths",
    "lat": -38.706,
    "lon": 143.763,
    "subregion": "Surf Coast",
    "timezone": "Australia/Melbourne",
    "cameras": 0,
    "abilityLevels": [
      "ADVANCED",
      "PRO"
    ],
    "boardTypes": []
  },
  {
    "id": "584204204e65fad6a7709299",
    "name": "Sledgehammers",
    "lat": -38.707,
    "lon": 143.775,
    "subregion": "Surf Coast",
    "timezone": "Australia/Melbourne",
    "cameras": 0,
    "abilityLevels": [
      "ADVANCED",
      "PRO"
    ],
    "boardTypes": [
      "SHORTBOARD",
      "BODYBOARD",
      "GUN"
    ]
  },
  {
    "id": "584204204e65fad6a77092b3",
    "name": "Kennett River",
    "lat": -38.668,
    "lon": 143.864,
    "subregion": "Surf Coast",
    "timezone": "Australia/Melbourne",
    "cameras": 0,
    "abilityLevels": [
      "INTERMEDIATE",
      "ADVANCED"
    ],
    "boardTypes": [
      "SHORTBOARD",
      "FUNBOARD",
      "LONGBOARD",
      "FISH"
    ]
  },
  {
    "id": "584204204e65fad6a77092b5",
    "name": "Wye River",
    "lat": -38.635,
    "lon": 143.893,
    "subregion": "Surf Coast",
    "timezone": "Australia/Melbourne",
    "cameras": 0,
    "abilityLevels": [
      "BEGINNER",
      "INTERMEDIATE",
      "ADVANCED"
    ],
    "boardTypes": [
      "SHORTBOARD",
      "FUNBOARD",
      "LONGBOARD",
      "FISH",
      "BODYBOARD",
      "SKIMMING",
      "BODYSURFING"
    ]
  },
  {
    "id": "584204204e65fad6a77092af",
    "name": "Kennett Point",
    "lat": -38.67,
    "lon": 143.866,
    "subregion": "Surf Coast",
    "timezone": "Australia/Melbourne",
    "cameras": 0,
    "abilityLevels": [
      "BEGINNER",
      "INTERMEDIATE",
      "ADVANCED",
      "PRO"
    ],
    "boardTypes": [
      "SHORTBOARD",
      "FUNBOARD",
      "LONGBOARD",
      "FISH"
    ]
  },
  {
    "id": "584204204e65fad6a77092b6",
    "name": "Cumbos",
    "lat": -38.57,
    "lon": 143.966,
    "subregion": "Surf Coast",
    "timezone": "Australia/Melbourne",
    "cameras": 0,
    "abilityLevels": [
      "BEGINNER",
      "INTERMEDIATE",
      "ADVANCED",
      "PRO"
    ],
    "boardTypes": []
  },
  {
    "id": "584204204e65fad6a77092b7",
    "name": "Blue Moons",
    "lat": -38.568,
    "lon": 143.967,
    "subregion": "Surf Coast",
    "timezone": "Australia/Melbourne",
    "cameras": 0,
    "abilityLevels": [],
    "boardTypes": []
  },
  {
    "id": "584204204e65fad6a77092b9",
    "name": "Lorne",
    "lat": -38.54,
    "lon": 143.979,
    "subregion": "Surf Coast",
    "timezone": "Australia/Melbourne",
    "cameras": 2,
    "abilityLevels": [
      "BEGINNER",
      "INTERMEDIATE"
    ],
    "boardTypes": [
      "SHORTBOARD",
      "FUNBOARD",
      "LONGBOARD",
      "FISH",
      "BODYBOARD",
      "SKIMMING",
      "BODYSURFING"
    ]
  },
  {
    "id": "584204204e65fad6a77092bb",
    "name": "Cathedral Rock",
    "lat": -38.48,
    "lon": 144.035,
    "subregion": "Surf Coast",
    "timezone": "Australia/Melbourne",
    "cameras": 0,
    "abilityLevels": [
      "INTERMEDIATE",
      "ADVANCED"
    ],
    "boardTypes": [
      "SHORTBOARD",
      "LONGBOARD",
      "BODYBOARD"
    ]
  },
  {
    "id": "584204204e65fad6a77092ba",
    "name": "Spout Creek",
    "lat": -38.477,
    "lon": 144.036,
    "subregion": "Surf Coast",
    "timezone": "Australia/Melbourne",
    "cameras": 0,
    "abilityLevels": [
      "BEGINNER",
      "INTERMEDIATE",
      "ADVANCED"
    ],
    "boardTypes": [
      "SHORTBOARD",
      "FUNBOARD",
      "LONGBOARD",
      "FISH",
      "BODYBOARD"
    ]
  },
  {
    "id": "584204204e65fad6a770933f",
    "name": "Moggs Creek",
    "lat": -38.471,
    "lon": 144.066,
    "subregion": "Surf Coast",
    "timezone": "Australia/Melbourne",
    "cameras": 0,
    "abilityLevels": [
      "BEGINNER",
      "INTERMEDIATE",
      "ADVANCED"
    ],
    "boardTypes": [
      "SHORTBOARD",
      "FUNBOARD",
      "LONGBOARD",
      "FISH",
      "BODYBOARD"
    ]
  },
  {
    "id": "584204204e65fad6a7709340",
    "name": "Fairhaven",
    "lat": -38.47,
    "lon": 144.083,
    "subregion": "Surf Coast",
    "timezone": "Australia/Melbourne",
    "cameras": 3,
    "abilityLevels": [
      "BEGINNER",
      "INTERMEDIATE",
      "ADVANCED"
    ],
    "boardTypes": [
      "SHORTBOARD",
      "FUNBOARD",
      "LONGBOARD",
      "BODYBOARD"
    ]
  },
  {
    "id": "584204204e65fad6a7709341",
    "name": "Boundary Road",
    "lat": -38.451,
    "lon": 144.12,
    "subregion": "Surf Coast",
    "timezone": "Australia/Melbourne",
    "cameras": 0,
    "abilityLevels": [
      "INTERMEDIATE",
      "ADVANCED",
      "PRO"
    ],
    "boardTypes": [
      "SHORTBOARD",
      "LONGBOARD"
    ]
  },
  {
    "id": "584204204e65fad6a7709342",
    "name": "Urquharts Bluff",
    "lat": -38.44,
    "lon": 144.13,
    "subregion": "Surf Coast",
    "timezone": "Australia/Melbourne",
    "cameras": 0,
    "abilityLevels": [
      "BEGINNER",
      "INTERMEDIATE",
      "ADVANCED"
    ],
    "boardTypes": [
      "SHORTBOARD",
      "LONGBOARD",
      "BODYBOARD"
    ]
  },
  {
    "id": "584204204e65fad6a7709343",
    "name": "Hut Gully",
    "lat": -38.436,
    "lon": 144.135,
    "subregion": "Surf Coast",
    "timezone": "Australia/Melbourne",
    "cameras": 0,
    "abilityLevels": [
      "BEGINNER",
      "INTERMEDIATE",
      "ADVANCED"
    ],
    "boardTypes": [
      "SHORTBOARD",
      "LONGBOARD",
      "BODYBOARD"
    ]
  },
  {
    "id": "584204204e65fad6a770934e",
    "name": "Guvvos",
    "lat": -38.431,
    "lon": 144.162,
    "subregion": "Surf Coast",
    "timezone": "Australia/Melbourne",
    "cameras": 0,
    "abilityLevels": [
      "INTERMEDIATE",
      "ADVANCED"
    ],
    "boardTypes": [
      "SHORTBOARD",
      "FUNBOARD",
      "LONGBOARD",
      "FISH"
    ]
  },
  {
    "id": "584204204e65fad6a7709351",
    "name": "O'Donoghues",
    "lat": -38.43,
    "lon": 144.169,
    "subregion": "Surf Coast",
    "timezone": "Australia/Melbourne",
    "cameras": 0,
    "abilityLevels": [
      "INTERMEDIATE",
      "ADVANCED",
      "PRO"
    ],
    "boardTypes": [
      "SHORTBOARD",
      "LONGBOARD",
      "BODYBOARD"
    ]
  },
  {
    "id": "584204204e65fad6a7709352",
    "name": "Point Roadknight",
    "lat": -38.428,
    "lon": 144.186,
    "subregion": "Surf Coast",
    "timezone": "Australia/Melbourne",
    "cameras": 1,
    "abilityLevels": [
      "BEGINNER",
      "INTERMEDIATE",
      "ADVANCED",
      "PRO"
    ],
    "boardTypes": [
      "SHORTBOARD",
      "FUNBOARD",
      "LONGBOARD",
      "FISH"
    ]
  },
  {
    "id": "6198230cc50e897908acb714",
    "name": "Anglesea",
    "lat": -38.41458,
    "lon": 144.19002,
    "subregion": "Surf Coast",
    "timezone": "Australia/Melbourne",
    "cameras": 1,
    "abilityLevels": [],
    "boardTypes": []
  },
  {
    "id": "619ed2b2bae9aa1b129f08c0",
    "name": "Point Addis",
    "lat": -38.396,
    "lon": 144.2526,
    "subregion": "Surf Coast",
    "timezone": "Australia/Melbourne",
    "cameras": 0,
    "abilityLevels": [],
    "boardTypes": []
  },
  {
    "id": "584204204e65fad6a77099c7",
    "name": "Bells Beach",
    "lat": -38.372284,
    "lon": 144.2836,
    "subregion": "Surf Coast",
    "timezone": "Australia/Melbourne",
    "cameras": 1,
    "abilityLevels": [
      "INTERMEDIATE",
      "ADVANCED"
    ],
    "boardTypes": [
      "SHORTBOARD",
      "FISH",
      "GUN",
      "LONGBOARD",
      "FUNBOARD"
    ]
  },
  {
    "id": "5842041f4e65fad6a7708c12",
    "name": "Winkipop",
    "lat": -38.368504,
    "lon": 144.2871,
    "subregion": "Surf Coast",
    "timezone": "Australia/Melbourne",
    "cameras": 0,
    "abilityLevels": [
      "INTERMEDIATE",
      "ADVANCED"
    ],
    "boardTypes": [
      "SHORTBOARD",
      "FISH",
      "GUN"
    ]
  },
  {
    "id": "6997186799b9a15760fcb36e",
    "name": "Boobs",
    "lat": -38.35967,
    "lon": 144.29409,
    "subregion": "Surf Coast",
    "timezone": "Australia/Melbourne",
    "cameras": 0,
    "abilityLevels": [],
    "boardTypes": []
  },
  {
    "id": "699c55bbeb9b7e9bbd899a79",
    "name": "Steps",
    "lat": -38.35661,
    "lon": 144.29796,
    "subregion": "Surf Coast",
    "timezone": "Australia/Melbourne",
    "cameras": 0,
    "abilityLevels": [],
    "boardTypes": []
  },
  {
    "id": "699c5a7887120774627469b2",
    "name": "Sparrows",
    "lat": -38.35165,
    "lon": 144.30146,
    "subregion": "Surf Coast",
    "timezone": "Australia/Melbourne",
    "cameras": 0,
    "abilityLevels": [],
    "boardTypes": []
  },
  {
    "id": "5842041f4e65fad6a7708c0b",
    "name": "Jan Juc",
    "lat": -38.347207621284134,
    "lon": 144.31065,
    "subregion": "Surf Coast",
    "timezone": "Australia/Melbourne",
    "cameras": 1,
    "abilityLevels": [
      "BEGINNER",
      "INTERMEDIATE",
      "ADVANCED"
    ],
    "boardTypes": [
      "SHORTBOARD",
      "FUNBOARD",
      "LONGBOARD",
      "FISH",
      "BODYBOARD",
      "KITEBOARD"
    ]
  },
  {
    "id": "607776017a3e100333600795",
    "name": "Torquay Point",
    "lat": -38.34494,
    "lon": 144.31937,
    "subregion": "Surf Coast",
    "timezone": "Australia/Melbourne",
    "cameras": 0,
    "abilityLevels": [],
    "boardTypes": []
  },
  {
    "id": "640b9160e920306430def151",
    "name": "Cosy Corner",
    "lat": -38.33814,
    "lon": 144.32975,
    "subregion": "Surf Coast",
    "timezone": "Australia/Melbourne",
    "cameras": 0,
    "abilityLevels": [],
    "boardTypes": []
  },
  {
    "id": "699720d508752acfccb4101f",
    "name": "Fishos",
    "lat": -38.32866,
    "lon": 144.32907,
    "subregion": "Surf Coast",
    "timezone": "Australia/Melbourne",
    "cameras": 0,
    "abilityLevels": [],
    "boardTypes": []
  },
  {
    "id": "6997228232e019f1de2c1eab",
    "name": "The Gap",
    "lat": -38.31966,
    "lon": 144.34832,
    "subregion": "Surf Coast",
    "timezone": "Australia/Melbourne",
    "cameras": 0,
    "abilityLevels": [],
    "boardTypes": []
  },
  {
    "id": "699730a032e019f1de2d22be",
    "name": "Point Impossible",
    "lat": -38.30499,
    "lon": 144.37954,
    "subregion": "Surf Coast",
    "timezone": "Australia/Melbourne",
    "cameras": 0,
    "abilityLevels": [],
    "boardTypes": []
  },
  {
    "id": "5842041f4e65fad6a7708c0c",
    "name": "13th Beach",
    "lat": -38.2873,
    "lon": 144.4652,
    "subregion": "Surf Coast",
    "timezone": "Australia/Melbourne",
    "cameras": 1,
    "abilityLevels": [
      "INTERMEDIATE",
      "ADVANCED"
    ],
    "boardTypes": [
      "SHORTBOARD",
      "FISH",
      "FUNBOARD"
    ]
  },
  {
    "id": "699c5daceb9b7e9bbd8a14d3",
    "name": "RAAFs",
    "lat": -38.28016,
    "lon": 144.50472,
    "subregion": "Surf Coast",
    "timezone": "Australia/Melbourne",
    "cameras": 0,
    "abilityLevels": [],
    "boardTypes": []
  },
  {
    "id": "5a97241a6f4719001b22d55d",
    "name": "Ocean Grove",
    "lat": -38.27416,
    "lon": 144.51683,
    "subregion": "Surf Coast",
    "timezone": "Australia/Melbourne",
    "cameras": 2,
    "abilityLevels": [],
    "boardTypes": []
  },
  {
    "id": "699c6155eb9b7e9bbd8a5431",
    "name": "Collendina",
    "lat": -38.27397,
    "lon": 144.54641,
    "subregion": "Surf Coast",
    "timezone": "Australia/Melbourne",
    "cameras": 1,
    "abilityLevels": [],
    "boardTypes": []
  },
  {
    "id": "619ecd985e524078c9716a5a",
    "name": "Point Lonsdale",
    "lat": -38.2892,
    "lon": 144.604,
    "subregion": "Surf Coast",
    "timezone": "Australia/Melbourne",
    "cameras": 0,
    "abilityLevels": [],
    "boardTypes": []
  },
  {
    "id": "5d81664c2e43e50001c5b8b1",
    "name": "St. Leonards Boat Ramp",
    "lat": -38.18007237890565,
    "lon": 144.71663,
    "subregion": "Surf Coast",
    "timezone": "Australia/Melbourne",
    "cameras": 0,
    "abilityLevels": [],
    "boardTypes": []
  },
  {
    "id": "619d958d9ae0be7be13f4e1d",
    "name": "Quarantines",
    "lat": -38.3,
    "lon": 144.6531,
    "subregion": "Mornington Peninsula - Phillip Island",
    "timezone": "Australia/Melbourne",
    "cameras": 0,
    "abilityLevels": [],
    "boardTypes": []
  },
  {
    "id": "619d7666339003593b680131",
    "name": "Portsea Back Beach",
    "lat": -38.33807,
    "lon": 144.70616,
    "subregion": "Mornington Peninsula - Phillip Island",
    "timezone": "Australia/Melbourne",
    "cameras": 0,
    "abilityLevels": [],
    "boardTypes": []
  },
  {
    "id": "619d888675ea37345e152b92",
    "name": "Sorrento",
    "lat": -38.34768,
    "lon": 144.72639,
    "subregion": "Mornington Peninsula - Phillip Island",
    "timezone": "Australia/Melbourne",
    "cameras": 1,
    "abilityLevels": [],
    "boardTypes": []
  },
  {
    "id": "619d743675ea3753d410e7da",
    "name": "St Andrews",
    "lat": -38.4138,
    "lon": 144.814,
    "subregion": "Mornington Peninsula - Phillip Island",
    "timezone": "Australia/Melbourne",
    "cameras": 1,
    "abilityLevels": [],
    "boardTypes": []
  },
  {
    "id": "5842041f4e65fad6a7708c0e",
    "name": "Gunnamatta",
    "lat": -38.44902778,
    "lon": 144.85891,
    "subregion": "Mornington Peninsula - Phillip Island",
    "timezone": "Australia/Melbourne",
    "cameras": 0,
    "abilityLevels": [
      "INTERMEDIATE",
      "ADVANCED"
    ],
    "boardTypes": [
      "SHORTBOARD"
    ]
  },
  {
    "id": "5842041f4e65fad6a7708c15",
    "name": "Mornington Peninsula",
    "lat": -38.48777,
    "lon": 144.97036,
    "subregion": "Mornington Peninsula - Phillip Island",
    "timezone": "Australia/Melbourne",
    "cameras": 0,
    "abilityLevels": [
      "ADVANCED"
    ],
    "boardTypes": [
      "SHORTBOARD",
      "GUN"
    ]
  },
  {
    "id": "619d6fcde062261f94cd8f41",
    "name": "Flinders Beach",
    "lat": -38.4807,
    "lon": 145.0134,
    "subregion": "Mornington Peninsula - Phillip Island",
    "timezone": "Australia/Melbourne",
    "cameras": 2,
    "abilityLevels": [],
    "boardTypes": []
  },
  {
    "id": "619d6d5de062260f2ecd0681",
    "name": "Pines",
    "lat": -38.4349,
    "lon": 145.0484,
    "subregion": "Mornington Peninsula - Phillip Island",
    "timezone": "Australia/Melbourne",
    "cameras": 0,
    "abilityLevels": [],
    "boardTypes": []
  },
  {
    "id": "5842041f4e65fad6a7708c0f",
    "name": "Point Leo",
    "lat": -38.42897222,
    "lon": 145.07755,
    "subregion": "Mornington Peninsula - Phillip Island",
    "timezone": "Australia/Melbourne",
    "cameras": 3,
    "abilityLevels": [
      "INTERMEDIATE",
      "ADVANCED",
      "BEGINNER"
    ],
    "boardTypes": [
      "SHORTBOARD",
      "FISH",
      "FUNBOARD",
      "LONGBOARD",
      "BODYSURFING",
      "BODYBOARD",
      "SUP",
      "FOIL"
    ]
  },
  {
    "id": "69973ccc32e019f1de2e0325",
    "name": "Balnarring Beach",
    "lat": -38.3931714,
    "lon": 145.12157,
    "subregion": "Mornington Peninsula - Phillip Island",
    "timezone": "Australia/Melbourne",
    "cameras": 0,
    "abilityLevels": [],
    "boardTypes": []
  },
  {
    "id": "640b91c1b6d7696c999267a1",
    "name": "Hen and Chicken Beach",
    "lat": -38.468,
    "lon": 145.1653,
    "subregion": "Mornington Peninsula - Phillip Island",
    "timezone": "Australia/Melbourne",
    "cameras": 0,
    "abilityLevels": [],
    "boardTypes": []
  },
  {
    "id": "640b91c78284feb685aee50a",
    "name": "Sheoak Beach",
    "lat": -38.4491,
    "lon": 145.2119,
    "subregion": "Mornington Peninsula - Phillip Island",
    "timezone": "Australia/Melbourne",
    "cameras": 0,
    "abilityLevels": [],
    "boardTypes": []
  },
  {
    "id": "640b91bbe920303885df0b6d",
    "name": "Farm",
    "lat": -38.4859,
    "lon": 145.1527,
    "subregion": "Mornington Peninsula - Phillip Island",
    "timezone": "Australia/Melbourne",
    "cameras": 0,
    "abilityLevels": [],
    "boardTypes": []
  },
  {
    "id": "640b91b5e920302e9edf09c4",
    "name": "Flynns",
    "lat": -38.4968,
    "lon": 145.1485,
    "subregion": "Mornington Peninsula - Phillip Island",
    "timezone": "Australia/Melbourne",
    "cameras": 0,
    "abilityLevels": [],
    "boardTypes": []
  },
  {
    "id": "5842041f4e65fad6a7708c13",
    "name": "Cat Bay",
    "lat": -38.50596111,
    "lon": 145.14044,
    "subregion": "Mornington Peninsula - Phillip Island",
    "timezone": "Australia/Melbourne",
    "cameras": 0,
    "abilityLevels": [
      "INTERMEDIATE",
      "ADVANCED"
    ],
    "boardTypes": [
      "SHORTBOARD",
      "FUNBOARD",
      "LONGBOARD",
      "FISH"
    ]
  },
  {
    "id": "60aecba4f1ca444c19b94c6d",
    "name": "Summerland Bay",
    "lat": -38.5108,
    "lon": 145.1575,
    "subregion": "Mornington Peninsula - Phillip Island",
    "timezone": "Australia/Melbourne",
    "cameras": 0,
    "abilityLevels": [],
    "boardTypes": []
  },
  {
    "id": "60aecce3fb0d8af246a1f542",
    "name": "Kitty Miller Bay",
    "lat": -38.5109,
    "lon": 145.1705,
    "subregion": "Mornington Peninsula - Phillip Island",
    "timezone": "Australia/Melbourne",
    "cameras": 0,
    "abilityLevels": [],
    "boardTypes": []
  },
  {
    "id": "60aece3ebbe0e921ee79a187",
    "name": "Thorny Beach",
    "lat": -38.5142,
    "lon": 145.1838,
    "subregion": "Mornington Peninsula - Phillip Island",
    "timezone": "Australia/Melbourne",
    "cameras": 0,
    "abilityLevels": [],
    "boardTypes": []
  },
  {
    "id": "60aecf6828b6d9b6473ad7b6",
    "name": "Hutchinson Beach",
    "lat": -38.5165,
    "lon": 145.1925,
    "subregion": "Mornington Peninsula - Phillip Island",
    "timezone": "Australia/Melbourne",
    "cameras": 0,
    "abilityLevels": [],
    "boardTypes": []
  },
  {
    "id": "60aed15a213ed7832972fdef",
    "name": "Berry",
    "lat": -38.518,
    "lon": 145.2024,
    "subregion": "Mornington Peninsula - Phillip Island",
    "timezone": "Australia/Melbourne",
    "cameras": 0,
    "abilityLevels": [],
    "boardTypes": []
  },
  {
    "id": "60aed284c434aed055d89291",
    "name": "Storm Bay",
    "lat": -38.5279,
    "lon": 145.2169,
    "subregion": "Mornington Peninsula - Phillip Island",
    "timezone": "Australia/Melbourne",
    "cameras": 0,
    "abilityLevels": [],
    "boardTypes": []
  },
  {
    "id": "640b91afb6d76910ae9262e1",
    "name": "Jesse Island",
    "lat": -38.5156,
    "lon": 145.2359,
    "subregion": "Mornington Peninsula - Phillip Island",
    "timezone": "Australia/Melbourne",
    "cameras": 0,
    "abilityLevels": [],
    "boardTypes": []
  },
  {
    "id": "60aed61552e5871eec3e212b",
    "name": "Racetrack",
    "lat": -38.5114,
    "lon": 145.237,
    "subregion": "Mornington Peninsula - Phillip Island",
    "timezone": "Australia/Melbourne",
    "cameras": 0,
    "abilityLevels": [],
    "boardTypes": []
  },
  {
    "id": "60aed7c3bffe5199e94af14c",
    "name": "The Gap",
    "lat": -38.5091,
    "lon": 145.2425,
    "subregion": "Mornington Peninsula - Phillip Island",
    "timezone": "Australia/Melbourne",
    "cameras": 0,
    "abilityLevels": [],
    "boardTypes": []
  },
  {
    "id": "60aed8656142d9614bc35c65",
    "name": "YCW",
    "lat": -38.5053,
    "lon": 145.2494,
    "subregion": "Mornington Peninsula - Phillip Island",
    "timezone": "Australia/Melbourne",
    "cameras": 0,
    "abilityLevels": [],
    "boardTypes": []
  },
  {
    "id": "60aed913bbe0e97a0a79a192",
    "name": "Smiths Beach",
    "lat": -38.5057,
    "lon": 145.255,
    "subregion": "Mornington Peninsula - Phillip Island",
    "timezone": "Australia/Melbourne",
    "cameras": 0,
    "abilityLevels": [],
    "boardTypes": []
  },
  {
    "id": "60afd74a6d8f1545dab2886c",
    "name": "Surfies Point",
    "lat": -38.5121,
    "lon": 145.282,
    "subregion": "Mornington Peninsula - Phillip Island",
    "timezone": "Australia/Melbourne",
    "cameras": 0,
    "abilityLevels": [],
    "boardTypes": []
  },
  {
    "id": "640b91a9b6d769f5a89260d0",
    "name": "Phillip Island",
    "lat": -38.51,
    "lon": 145.29,
    "subregion": "Mornington Peninsula - Phillip Island",
    "timezone": "Australia/Melbourne",
    "cameras": 0,
    "abilityLevels": [],
    "boardTypes": []
  },
  {
    "id": "60afd810e783a76e98f9e133",
    "name": "Forrest Caves",
    "lat": -38.5185,
    "lon": 145.3056,
    "subregion": "Mornington Peninsula - Phillip Island",
    "timezone": "Australia/Melbourne",
    "cameras": 0,
    "abilityLevels": [],
    "boardTypes": []
  },
  {
    "id": "60afd9502a3f8e3f4d41bb09",
    "name": "The Colonnades",
    "lat": -38.5298,
    "lon": 145.3221,
    "subregion": "Mornington Peninsula - Phillip Island",
    "timezone": "Australia/Melbourne",
    "cameras": 0,
    "abilityLevels": [],
    "boardTypes": []
  },
  {
    "id": "60afdad822ac26888bc6efdc",
    "name": "Magiclands West",
    "lat": -38.5504,
    "lon": 145.3398,
    "subregion": "Mornington Peninsula - Phillip Island",
    "timezone": "Australia/Melbourne",
    "cameras": 0,
    "abilityLevels": [],
    "boardTypes": []
  },
  {
    "id": "640b91ec4519050b5addf020",
    "name": "Back Beach",
    "lat": -38.5288,
    "lon": 145.3699,
    "subregion": "Mornington Peninsula - Phillip Island",
    "timezone": "Australia/Melbourne",
    "cameras": 0,
    "abilityLevels": [],
    "boardTypes": []
  },
  {
    "id": "640b91e6e92030a2dadf15f0",
    "name": "Griffith Point",
    "lat": -38.5382,
    "lon": 145.379,
    "subregion": "Mornington Peninsula - Phillip Island",
    "timezone": "Australia/Melbourne",
    "cameras": 0,
    "abilityLevels": [],
    "boardTypes": []
  },
  {
    "id": "5842041f4e65fad6a7708c10",
    "name": "Woolamai",
    "lat": -38.54456,
    "lon": 145.33749,
    "subregion": "Mornington Peninsula - Phillip Island",
    "timezone": "Australia/Melbourne",
    "cameras": 0,
    "abilityLevels": [
      "INTERMEDIATE",
      "ADVANCED"
    ],
    "boardTypes": [
      "SHORTBOARD"
    ]
  },
  {
    "id": "60afda4a56f1dcecaec36797",
    "name": "Magiclands",
    "lat": -38.5553,
    "lon": 145.3463,
    "subregion": "Mornington Peninsula - Phillip Island",
    "timezone": "Australia/Melbourne",
    "cameras": 0,
    "abilityLevels": [],
    "boardTypes": []
  },
  {
    "id": "640b91e0e920300adadf1467",
    "name": "Punchbowl Beach",
    "lat": -38.5407,
    "lon": 145.4368,
    "subregion": "Mornington Peninsula - Phillip Island",
    "timezone": "Australia/Melbourne",
    "cameras": 0,
    "abilityLevels": [],
    "boardTypes": []
  },
  {
    "id": "640b91d9de81d5d2170b90fd",
    "name": "Sandy Waterhole Beach",
    "lat": -38.5455,
    "lon": 145.4466,
    "subregion": "Mornington Peninsula - Phillip Island",
    "timezone": "Australia/Melbourne",
    "cameras": 0,
    "abilityLevels": [],
    "boardTypes": []
  },
  {
    "id": "640b91d34519054766dde97d",
    "name": "The Oaks",
    "lat": -38.6727,
    "lon": 145.64,
    "subregion": "Mornington Peninsula - Phillip Island",
    "timezone": "Australia/Melbourne",
    "cameras": 0,
    "abilityLevels": [],
    "boardTypes": []
  },
  {
    "id": "664e27e8e404fd3f78dd2e4c",
    "name": "Eagles Nest",
    "lat": -38.66854,
    "lon": 145.6723,
    "subregion": "Mornington Peninsula - Phillip Island",
    "timezone": "Australia/Melbourne",
    "cameras": 0,
    "abilityLevels": [],
    "boardTypes": []
  },
  {
    "id": "640b91cdde81d520180b8e04",
    "name": "Inverloch",
    "lat": -38.6474,
    "lon": 145.7088,
    "subregion": "Mornington Peninsula - Phillip Island",
    "timezone": "Australia/Melbourne",
    "cameras": 0,
    "abilityLevels": [],
    "boardTypes": []
  },
  {
    "id": "60aeca64dbd96a0fafa1d4c0",
    "name": "Cowries",
    "lat": -38.5101,
    "lon": 145.1226,
    "subregion": "Mornington Peninsula - Phillip Island",
    "timezone": "Australia/Melbourne",
    "cameras": 0,
    "abilityLevels": [],
    "boardTypes": []
  },
  {
    "id": "60afdddaa87bf01b702a9252",
    "name": "Kilcunda",
    "lat": -38.5583,
    "lon": 145.4856,
    "subregion": "Eastern Victoria",
    "timezone": "Australia/Melbourne",
    "cameras": 0,
    "abilityLevels": [],
    "boardTypes": []
  },
  {
    "id": "60afdf18a8c6d5f4ccff9263",
    "name": "Powlett River West",
    "lat": -38.5768,
    "lon": 145.5036,
    "subregion": "Eastern Victoria",
    "timezone": "Australia/Melbourne",
    "cameras": 0,
    "abilityLevels": [],
    "boardTypes": []
  },
  {
    "id": "60afdf51e573f49e3b998e52",
    "name": "Powlett River East",
    "lat": -38.589,
    "lon": 145.515,
    "subregion": "Eastern Victoria",
    "timezone": "Australia/Melbourne",
    "cameras": 0,
    "abilityLevels": [],
    "boardTypes": []
  },
  {
    "id": "60b00afa5c639ae01ce2926b",
    "name": "Williamsons Beach",
    "lat": -38.5976,
    "lon": 145.5241,
    "subregion": "Eastern Victoria",
    "timezone": "Australia/Melbourne",
    "cameras": 0,
    "abilityLevels": [],
    "boardTypes": []
  },
  {
    "id": "60b00c635c639a5abae29272",
    "name": "Cutlers Beach",
    "lat": -38.6217,
    "lon": 145.5447,
    "subregion": "Eastern Victoria",
    "timezone": "Australia/Melbourne",
    "cameras": 0,
    "abilityLevels": [],
    "boardTypes": []
  },
  {
    "id": "60b010af3b690412f0154a24",
    "name": "Coal Point",
    "lat": -38.6449,
    "lon": 145.5579,
    "subregion": "Eastern Victoria",
    "timezone": "Australia/Melbourne",
    "cameras": 0,
    "abilityLevels": [],
    "boardTypes": []
  },
  {
    "id": "60b011aa041d11f240db1aff",
    "name": "Wreck Bay",
    "lat": -38.6596,
    "lon": 145.58,
    "subregion": "Eastern Victoria",
    "timezone": "Australia/Melbourne",
    "cameras": 0,
    "abilityLevels": [],
    "boardTypes": []
  },
  {
    "id": "60b012eec434ae0ce8d89452",
    "name": "Second Surf",
    "lat": -38.6763,
    "lon": 145.603,
    "subregion": "Eastern Victoria",
    "timezone": "Australia/Melbourne",
    "cameras": 0,
    "abilityLevels": [],
    "boardTypes": []
  },
  {
    "id": "60b0149e6142d9795cc35e69",
    "name": "Cape Paterson",
    "lat": -38.6772,
    "lon": 145.609,
    "subregion": "Eastern Victoria",
    "timezone": "Australia/Melbourne",
    "cameras": 2,
    "abilityLevels": [],
    "boardTypes": []
  },
  {
    "id": "60b01a83041d11a64edb1b05",
    "name": "Twin Reefs",
    "lat": -38.6763,
    "lon": 145.6519,
    "subregion": "Eastern Victoria",
    "timezone": "Australia/Melbourne",
    "cameras": 0,
    "abilityLevels": [],
    "boardTypes": []
  },
  {
    "id": "60b01b1ca8c6d582eeff9277",
    "name": "Shack Bay",
    "lat": -38.6719,
    "lon": 145.6588,
    "subregion": "Eastern Victoria",
    "timezone": "Australia/Melbourne",
    "cameras": 0,
    "abilityLevels": [],
    "boardTypes": []
  },
  {
    "id": "6019cd944706568de98b59fc",
    "name": "Venus Bay",
    "lat": -38.67915107170627,
    "lon": 145.77741,
    "subregion": "Eastern Victoria",
    "timezone": "Australia/Melbourne",
    "cameras": 0,
    "abilityLevels": [],
    "boardTypes": []
  },
  {
    "id": "60189c9ebb8f84c0c33a8b2a",
    "name": "Waratah Bay",
    "lat": -38.812985874325996,
    "lon": 146.0498,
    "subregion": "Eastern Victoria",
    "timezone": "Australia/Melbourne",
    "cameras": 0,
    "abilityLevels": [],
    "boardTypes": []
  },
  {
    "id": "584204204e65fad6a7709aef",
    "name": "Lakes Entrance",
    "lat": -37.884,
    "lon": 147.997,
    "subregion": "Eastern Victoria",
    "timezone": "Australia/Melbourne",
    "cameras": 0,
    "abilityLevels": [
      "BEGINNER",
      "INTERMEDIATE",
      "ADVANCED"
    ],
    "boardTypes": [
      "SHORTBOARD",
      "FUNBOARD",
      "LONGBOARD",
      "FISH",
      "BODYBOARD"
    ]
  },
  {
    "id": "584204204e65fad6a7709aed",
    "name": "Red Bluff",
    "lat": -37.868,
    "lon": 148.058,
    "subregion": "Eastern Victoria",
    "timezone": "Australia/Melbourne",
    "cameras": 0,
    "abilityLevels": [
      "INTERMEDIATE",
      "ADVANCED"
    ],
    "boardTypes": [
      "SHORTBOARD",
      "GUN"
    ]
  },
  {
    "id": "640b91f34519053aa6ddf1a0",
    "name": "Seaspray",
    "lat": -38.379911,
    "lon": 147.18792,
    "subregion": "Eastern Victoria",
    "timezone": "Australia/Melbourne",
    "cameras": 0,
    "abilityLevels": [],
    "boardTypes": []
  },
  {
    "id": "640b9178b6d769d70e92530b",
    "name": "Wilsons Promontory",
    "lat": -39.0357,
    "lon": 146.3199,
    "subregion": "East Gippsland",
    "timezone": "Australia/Melbourne",
    "cameras": 0,
    "abilityLevels": [],
    "boardTypes": []
  },
  {
    "id": "640b8f4a4878ebceeb1af4e8",
    "name": "Ninety Mile Beach",
    "lat": -38.2146,
    "lon": 147.4006,
    "subregion": "East Gippsland",
    "timezone": "Australia/Brisbane",
    "cameras": 0,
    "abilityLevels": [],
    "boardTypes": []
  },
  {
    "id": "640b9172de81d5e8fc0b74a0",
    "name": "Lake Tyers",
    "lat": -37.8604,
    "lon": 148.0858,
    "subregion": "East Gippsland",
    "timezone": "Australia/Melbourne",
    "cameras": 0,
    "abilityLevels": [],
    "boardTypes": []
  },
  {
    "id": "640b916c8284fe44e5aecb37",
    "name": "Cape Conran",
    "lat": -37.805,
    "lon": 148.7167,
    "subregion": "East Gippsland",
    "timezone": "Australia/Melbourne",
    "cameras": 0,
    "abilityLevels": [],
    "boardTypes": []
  },
  {
    "id": "640b9166de81d53ea60b70d8",
    "name": "Mallacoota",
    "lat": -37.5791,
    "lon": 149.7507,
    "subregion": "East Gippsland",
    "timezone": "Australia/Melbourne",
    "cameras": 0,
    "abilityLevels": [],
    "boardTypes": []
  },
  {
    "id": "5dd6eb24459d3782283575e9",
    "name": "Shoalhaven",
    "lat": -34.85107243765944,
    "lon": 150.75039456091304,
    "subregion": "South Coast NSW",
    "timezone": "Australia/Sydney",
    "cameras": 1,
    "abilityLevels": [],
    "boardTypes": []
  },
  {
    "id": "584204204e65fad6a770942c",
    "name": "Callala",
    "lat": -35.008,
    "lon": 150.714,
    "subregion": "South Coast NSW",
    "timezone": "Australia/Sydney",
    "cameras": 0,
    "abilityLevels": [],
    "boardTypes": []
  },
  {
    "id": "584204204e65fad6a770942a",
    "name": "Currarong",
    "lat": -35.012,
    "lon": 150.821,
    "subregion": "South Coast NSW",
    "timezone": "Australia/Sydney",
    "cameras": 0,
    "abilityLevels": [
      "BEGINNER",
      "INTERMEDIATE",
      "ADVANCED"
    ],
    "boardTypes": [
      "SHORTBOARD",
      "BODYBOARD"
    ]
  },
  {
    "id": "584204204e65fad6a770942e",
    "name": "Moona Creek",
    "lat": -35.0366,
    "lon": 150.672,
    "subregion": "South Coast NSW",
    "timezone": "Australia/Sydney",
    "cameras": 0,
    "abilityLevels": [
      "BEGINNER",
      "INTERMEDIATE"
    ],
    "boardTypes": [
      "SHORTBOARD",
      "FUNBOARD",
      "LONGBOARD",
      "FISH",
      "BODYBOARD"
    ]
  },
  {
    "id": "584204204e65fad6a770942d",
    "name": "Plantation Point",
    "lat": -35.0713,
    "lon": 150.697,
    "subregion": "South Coast NSW",
    "timezone": "Australia/Sydney",
    "cameras": 0,
    "abilityLevels": [
      "INTERMEDIATE",
      "ADVANCED"
    ],
    "boardTypes": [
      "SHORTBOARD",
      "FISH",
      "BODYBOARD"
    ]
  },
  {
    "id": "584204204e65fad6a7709430",
    "name": "Cave Beach",
    "lat": -35.164,
    "lon": 150.67,
    "subregion": "South Coast NSW",
    "timezone": "Australia/Sydney",
    "cameras": 0,
    "abilityLevels": [
      "BEGINNER",
      "INTERMEDIATE",
      "ADVANCED"
    ],
    "boardTypes": [
      "SHORTBOARD",
      "LONGBOARD",
      "FISH"
    ]
  },
  {
    "id": "5842041f4e65fad6a7708c06",
    "name": "Black Rock",
    "lat": -35.17533333,
    "lon": 150.6881667,
    "subregion": "South Coast NSW",
    "timezone": "Australia/Sydney",
    "cameras": 0,
    "abilityLevels": [
      "INTERMEDIATE",
      "ADVANCED"
    ],
    "boardTypes": [
      "SHORTBOARD",
      "BODYBOARD"
    ]
  },
  {
    "id": "640b936b4878eb4b211c08bc",
    "name": "Bherwherre Beach",
    "lat": -35.1641,
    "lon": 150.6575,
    "subregion": "South Coast NSW",
    "timezone": "Australia/Sydney",
    "cameras": 0,
    "abilityLevels": [],
    "boardTypes": []
  },
  {
    "id": "5d816b294f341100011bf272",
    "name": "Sussex Inlet",
    "lat": -35.184348864632604,
    "lon": 150.59384,
    "subregion": "South Coast NSW",
    "timezone": "Australia/Sydney",
    "cameras": 0,
    "abilityLevels": [
      "BEGINNER",
      "INTERMEDIATE",
      "ADVANCED"
    ],
    "boardTypes": [
      "SHORTBOARD",
      "FISH",
      "FUNBOARD",
      "LONGBOARD"
    ]
  },
  {
    "id": "584204204e65fad6a770942f",
    "name": "Steamers Beach",
    "lat": -35.174,
    "lon": 150.725,
    "subregion": "South Coast NSW",
    "timezone": "Australia/Sydney",
    "cameras": 0,
    "abilityLevels": [
      "INTERMEDIATE",
      "ADVANCED"
    ],
    "boardTypes": [
      "SHORTBOARD",
      "FUNBOARD",
      "LONGBOARD",
      "FISH",
      "BODYBOARD"
    ]
  },
  {
    "id": "640b9365606c456b9cf242a9",
    "name": "Cudmirrah Beach",
    "lat": -35.1955,
    "lon": 150.5687,
    "subregion": "South Coast NSW",
    "timezone": "Australia/Sydney",
    "cameras": 1,
    "abilityLevels": [],
    "boardTypes": []
  },
  {
    "id": "584204204e65fad6a7709432",
    "name": "Cudmirrah Reef",
    "lat": -35.203,
    "lon": 150.562,
    "subregion": "South Coast NSW",
    "timezone": "Australia/Sydney",
    "cameras": 0,
    "abilityLevels": [
      "INTERMEDIATE",
      "ADVANCED"
    ],
    "boardTypes": [
      "SHORTBOARD"
    ]
  },
  {
    "id": "640b93a2de81d5b2fe0c0879",
    "name": "Monument Beach",
    "lat": -35.2269,
    "lon": 150.5338,
    "subregion": "South Coast NSW",
    "timezone": "Australia/Sydney",
    "cameras": 0,
    "abilityLevels": [],
    "boardTypes": []
  },
  {
    "id": "640b937db6d769292292dae7",
    "name": "Flat Rock Beach",
    "lat": -35.234,
    "lon": 150.5302,
    "subregion": "South Coast NSW",
    "timezone": "Australia/Sydney",
    "cameras": 0,
    "abilityLevels": [],
    "boardTypes": []
  },
  {
    "id": "640b939c8284fe4e9faf5f62",
    "name": "Washerwomans Beach",
    "lat": -35.2421,
    "lon": 150.5318,
    "subregion": "South Coast NSW",
    "timezone": "Australia/Sydney",
    "cameras": 0,
    "abilityLevels": [],
    "boardTypes": []
  },
  {
    "id": "584204204e65fad6a7709431",
    "name": "Bendalong Boat Ramp",
    "lat": -35.245,
    "lon": 150.537,
    "subregion": "South Coast NSW",
    "timezone": "Australia/Sydney",
    "cameras": 0,
    "abilityLevels": [
      "INTERMEDIATE",
      "ADVANCED"
    ],
    "boardTypes": [
      "SHORTBOARD",
      "LONGBOARD",
      "FISH"
    ]
  },
  {
    "id": "584204204e65fad6a7709433",
    "name": "Bendalong Beach",
    "lat": -35.251,
    "lon": 150.533,
    "subregion": "South Coast NSW",
    "timezone": "Australia/Sydney",
    "cameras": 0,
    "abilityLevels": [
      "BEGINNER",
      "INTERMEDIATE",
      "ADVANCED"
    ],
    "boardTypes": [
      "SHORTBOARD",
      "FISH",
      "GUN"
    ]
  },
  {
    "id": "5842041f4e65fad6a7708c05",
    "name": "Green Island",
    "lat": -35.27280833,
    "lon": 150.51393,
    "subregion": "South Coast NSW",
    "timezone": "Australia/Sydney",
    "cameras": 0,
    "abilityLevels": [
      "INTERMEDIATE",
      "ADVANCED"
    ],
    "boardTypes": [
      "SHORTBOARD",
      "LONGBOARD",
      "FISH"
    ]
  },
  {
    "id": "584204204e65fad6a7709434",
    "name": "Narrawallee",
    "lat": -35.307,
    "lon": 150.474,
    "subregion": "South Coast NSW",
    "timezone": "Australia/Sydney",
    "cameras": 0,
    "abilityLevels": [
      "BEGINNER",
      "INTERMEDIATE",
      "ADVANCED"
    ],
    "boardTypes": [
      "SHORTBOARD",
      "FUNBOARD",
      "LONGBOARD",
      "FISH",
      "BODYBOARD"
    ]
  },
  {
    "id": "584204204e65fad6a7709437",
    "name": "Mollymook Beach",
    "lat": -35.33,
    "lon": 150.476,
    "subregion": "South Coast NSW",
    "timezone": "Australia/Sydney",
    "cameras": 2,
    "abilityLevels": [
      "BEGINNER",
      "INTERMEDIATE",
      "ADVANCED"
    ],
    "boardTypes": [
      "SHORTBOARD",
      "FUNBOARD",
      "LONGBOARD",
      "FISH",
      "BODYBOARD"
    ]
  },
  {
    "id": "5842041f4e65fad6a7708c04",
    "name": "Golf Course Reef",
    "lat": -35.34604167,
    "lon": 150.4773361,
    "subregion": "South Coast NSW",
    "timezone": "Australia/Sydney",
    "cameras": 0,
    "abilityLevels": [
      "INTERMEDIATE",
      "ADVANCED"
    ],
    "boardTypes": [
      "SHORTBOARD"
    ]
  },
  {
    "id": "5842041f4e65fad6a7708c03",
    "name": "Ulladulla Bommie",
    "lat": -35.36742222,
    "lon": 150.48575,
    "subregion": "South Coast NSW",
    "timezone": "Australia/Sydney",
    "cameras": 0,
    "abilityLevels": [
      "INTERMEDIATE",
      "ADVANCED"
    ],
    "boardTypes": [
      "SHORTBOARD",
      "GUN"
    ]
  },
  {
    "id": "584204204e65fad6a7709439",
    "name": "Rennies Beach",
    "lat": -35.369,
    "lon": 150.479,
    "subregion": "South Coast NSW",
    "timezone": "Australia/Sydney",
    "cameras": 0,
    "abilityLevels": [
      "BEGINNER",
      "INTERMEDIATE",
      "ADVANCED"
    ],
    "boardTypes": [
      "SHORTBOARD",
      "FUNBOARD",
      "LONGBOARD",
      "FISH",
      "BODYBOARD"
    ]
  },
  {
    "id": "584204204e65fad6a770943b",
    "name": "Flat Rock",
    "lat": -35.376,
    "lon": 150.472,
    "subregion": "South Coast NSW",
    "timezone": "Australia/Sydney",
    "cameras": 0,
    "abilityLevels": [
      "INTERMEDIATE",
      "ADVANCED"
    ],
    "boardTypes": [
      "SHORTBOARD",
      "BODYBOARD"
    ]
  },
  {
    "id": "584204204e65fad6a770943d",
    "name": "Racecourse",
    "lat": -35.377,
    "lon": 150.465,
    "subregion": "South Coast NSW",
    "timezone": "Australia/Sydney",
    "cameras": 0,
    "abilityLevels": [
      "INTERMEDIATE",
      "ADVANCED"
    ],
    "boardTypes": [
      "SHORTBOARD",
      "BODYBOARD"
    ]
  },
  {
    "id": "640b93904519059eaade5dc2",
    "name": "Burrill Beach",
    "lat": -35.3855,
    "lon": 150.4603,
    "subregion": "South Coast NSW",
    "timezone": "Australia/Sydney",
    "cameras": 0,
    "abilityLevels": [],
    "boardTypes": []
  },
  {
    "id": "584204204e65fad6a770943a",
    "name": "Dolphin Point",
    "lat": -35.399,
    "lon": 150.45,
    "subregion": "South Coast NSW",
    "timezone": "Australia/Sydney",
    "cameras": 0,
    "abilityLevels": [
      "INTERMEDIATE",
      "ADVANCED"
    ],
    "boardTypes": [
      "SHORTBOARD",
      "BODYBOARD"
    ]
  },
  {
    "id": "640b93bade81d5d7590c0e65",
    "name": "Wairo Beach",
    "lat": -35.4152,
    "lon": 150.4346,
    "subregion": "South Coast NSW",
    "timezone": "Australia/Sydney",
    "cameras": 0,
    "abilityLevels": [],
    "boardTypes": []
  },
  {
    "id": "584204204e65fad6a770943c",
    "name": "North Tabourie",
    "lat": -35.442,
    "lon": 150.412,
    "subregion": "South Coast NSW",
    "timezone": "Australia/Sydney",
    "cameras": 0,
    "abilityLevels": [
      "INTERMEDIATE",
      "ADVANCED"
    ],
    "boardTypes": [
      "SHORTBOARD"
    ]
  },
  {
    "id": "584204204e65fad6a770943e",
    "name": "Dum-Dums",
    "lat": -35.446,
    "lon": 150.41,
    "subregion": "South Coast NSW",
    "timezone": "Australia/Sydney",
    "cameras": 0,
    "abilityLevels": [
      "ADVANCED"
    ],
    "boardTypes": []
  },
  {
    "id": "584204204e65fad6a770943f",
    "name": "Termeil",
    "lat": -35.474,
    "lon": 150.391,
    "subregion": "South Coast NSW",
    "timezone": "Australia/Sydney",
    "cameras": 0,
    "abilityLevels": [
      "BEGINNER",
      "INTERMEDIATE",
      "ADVANCED"
    ],
    "boardTypes": [
      "SHORTBOARD",
      "FUNBOARD",
      "LONGBOARD",
      "FISH"
    ]
  },
  {
    "id": "584204204e65fad6a7709441",
    "name": "Guillotines",
    "lat": -35.504,
    "lon": 150.396,
    "subregion": "South Coast NSW",
    "timezone": "Australia/Sydney",
    "cameras": 0,
    "abilityLevels": [
      "ADVANCED"
    ],
    "boardTypes": [
      "SHORTBOARD",
      "GUN",
      "TOW"
    ]
  },
  {
    "id": "584204204e65fad6a7709440",
    "name": "Bawley Point",
    "lat": -35.508,
    "lon": 150.402,
    "subregion": "South Coast NSW",
    "timezone": "Australia/Sydney",
    "cameras": 0,
    "abilityLevels": [
      "INTERMEDIATE",
      "ADVANCED"
    ],
    "boardTypes": [
      "SHORTBOARD",
      "LONGBOARD",
      "FISH",
      "BODYBOARD"
    ]
  },
  {
    "id": "640b93c0e920304ce4df9129",
    "name": "Bull Pup",
    "lat": -35.5318,
    "lon": 150.4012,
    "subregion": "South Coast NSW",
    "timezone": "Australia/Sydney",
    "cameras": 0,
    "abilityLevels": [],
    "boardTypes": []
  },
  {
    "id": "640b9384b6d769771692dc94",
    "name": "Kioloa Beach",
    "lat": -35.5485,
    "lon": 150.3846,
    "subregion": "South Coast NSW",
    "timezone": "Australia/Sydney",
    "cameras": 0,
    "abilityLevels": [],
    "boardTypes": []
  },
  {
    "id": "640b938ae920305891df8340",
    "name": "Merry Beach",
    "lat": -35.5648,
    "lon": 150.3757,
    "subregion": "South Coast NSW",
    "timezone": "Australia/Sydney",
    "cameras": 0,
    "abilityLevels": [],
    "boardTypes": []
  },
  {
    "id": "584204204e65fad6a7709443",
    "name": "Pebbly Beach",
    "lat": -35.609,
    "lon": 150.328,
    "subregion": "South Coast NSW",
    "timezone": "Australia/Sydney",
    "cameras": 0,
    "abilityLevels": [
      "BEGINNER",
      "INTERMEDIATE",
      "ADVANCED"
    ],
    "boardTypes": [
      "SHORTBOARD",
      "FUNBOARD",
      "LONGBOARD",
      "FISH"
    ]
  },
  {
    "id": "584204204e65fad6a7709442",
    "name": "Depot Beach",
    "lat": -35.626,
    "lon": 150.325,
    "subregion": "South Coast NSW",
    "timezone": "Australia/Sydney",
    "cameras": 0,
    "abilityLevels": [
      "INTERMEDIATE",
      "ADVANCED"
    ],
    "boardTypes": [
      "SHORTBOARD",
      "FUNBOARD",
      "LONGBOARD",
      "FISH"
    ]
  },
  {
    "id": "584204204e65fad6a7709444",
    "name": "Durras Beach",
    "lat": -35.645,
    "lon": 150.302,
    "subregion": "South Coast NSW",
    "timezone": "Australia/Sydney",
    "cameras": 0,
    "abilityLevels": [
      "INTERMEDIATE",
      "ADVANCED"
    ],
    "boardTypes": [
      "SHORTBOARD"
    ]
  },
  {
    "id": "640b9396451905f8bcde5f74",
    "name": "Mill Beach",
    "lat": -35.6673,
    "lon": 150.3018,
    "subregion": "South Coast NSW",
    "timezone": "Australia/Sydney",
    "cameras": 0,
    "abilityLevels": [],
    "boardTypes": []
  },
  {
    "id": "640b93778284fe5cd0af5547",
    "name": "Emily Miller Beach",
    "lat": -35.673,
    "lon": 150.3024,
    "subregion": "South Coast NSW",
    "timezone": "Australia/Sydney",
    "cameras": 0,
    "abilityLevels": [],
    "boardTypes": []
  },
  {
    "id": "584204204e65fad6a7709445",
    "name": "Mill Point",
    "lat": -35.667,
    "lon": 150.307,
    "subregion": "South Coast NSW",
    "timezone": "Australia/Sydney",
    "cameras": 0,
    "abilityLevels": [
      "INTERMEDIATE",
      "ADVANCED"
    ],
    "boardTypes": [
      "SHORTBOARD"
    ]
  },
  {
    "id": "640b93a8606c45976df25410",
    "name": "Myrtle Beach",
    "lat": -35.6841,
    "lon": 150.2999,
    "subregion": "South Coast NSW",
    "timezone": "Australia/Sydney",
    "cameras": 0,
    "abilityLevels": [],
    "boardTypes": []
  },
  {
    "id": "640b93b4e92030cd3ddf8e6c",
    "name": "Richmond Beach",
    "lat": -35.6939,
    "lon": 150.2921,
    "subregion": "South Coast NSW",
    "timezone": "Australia/Sydney",
    "cameras": 0,
    "abilityLevels": [],
    "boardTypes": []
  },
  {
    "id": "640b93de4878eb55a51c2654",
    "name": "Oaky Beach",
    "lat": -35.7033,
    "lon": 150.2814,
    "subregion": "South Coast NSW",
    "timezone": "Australia/Sydney",
    "cameras": 0,
    "abilityLevels": [],
    "boardTypes": []
  },
  {
    "id": "5dd6e12c8804cd07366a423d",
    "name": "Batemans Bay",
    "lat": -35.70686032079149,
    "lon": 150.18436,
    "subregion": "South Coast NSW",
    "timezone": "Australia/Sydney",
    "cameras": 0,
    "abilityLevels": [],
    "boardTypes": []
  },
  {
    "id": "640b940eb6d76951b893006c",
    "name": "Corrigans Beach",
    "lat": -35.7296,
    "lon": 150.2,
    "subregion": "South Coast NSW",
    "timezone": "Australia/Sydney",
    "cameras": 0,
    "abilityLevels": [],
    "boardTypes": []
  },
  {
    "id": "640b93eae92030454adf9c5c",
    "name": "Denhams Beach",
    "lat": -35.7525,
    "lon": 150.2122,
    "subregion": "South Coast NSW",
    "timezone": "Australia/Sydney",
    "cameras": 0,
    "abilityLevels": [],
    "boardTypes": []
  },
  {
    "id": "640b94ec8284fe3f77afae0a",
    "name": "Wimbie Beach",
    "lat": -35.7618,
    "lon": 150.2136,
    "subregion": "South Coast NSW",
    "timezone": "Australia/Sydney",
    "cameras": 0,
    "abilityLevels": [],
    "boardTypes": []
  },
  {
    "id": "584204204e65fad6a7709446",
    "name": "Malua",
    "lat": -35.794,
    "lon": 150.233,
    "subregion": "South Coast NSW",
    "timezone": "Australia/Sydney",
    "cameras": 0,
    "abilityLevels": [
      "BEGINNER",
      "INTERMEDIATE",
      "ADVANCED"
    ],
    "boardTypes": [
      "SHORTBOARD",
      "FUNBOARD",
      "LONGBOARD",
      "FISH"
    ]
  },
  {
    "id": "584204204e65fad6a7709447",
    "name": "Rosedale",
    "lat": -35.813,
    "lon": 150.229,
    "subregion": "South Coast NSW",
    "timezone": "Australia/Sydney",
    "cameras": 0,
    "abilityLevels": [
      "BEGINNER",
      "INTERMEDIATE",
      "ADVANCED"
    ],
    "boardTypes": [
      "SHORTBOARD",
      "FUNBOARD",
      "LONGBOARD",
      "FISH"
    ]
  },
  {
    "id": "584204204e65fad6a770944c",
    "name": "Barlings Beach",
    "lat": -35.83,
    "lon": 150.199,
    "subregion": "South Coast NSW",
    "timezone": "Australia/Sydney",
    "cameras": 0,
    "abilityLevels": [
      "INTERMEDIATE",
      "ADVANCED"
    ],
    "boardTypes": [
      "SHORTBOARD",
      "FISH"
    ]
  },
  {
    "id": "584204204e65fad6a7709448",
    "name": "Tomakin Rivermouth",
    "lat": -35.837,
    "lon": 150.19,
    "subregion": "South Coast NSW",
    "timezone": "Australia/Sydney",
    "cameras": 0,
    "abilityLevels": [
      "INTERMEDIATE",
      "ADVANCED"
    ],
    "boardTypes": [
      "SHORTBOARD",
      "FUNBOARD",
      "LONGBOARD",
      "FISH",
      "BODYBOARD"
    ]
  },
  {
    "id": "584204204e65fad6a770944b",
    "name": "Broulee Island",
    "lat": -35.853,
    "lon": 150.19,
    "subregion": "South Coast NSW",
    "timezone": "Australia/Sydney",
    "cameras": 0,
    "abilityLevels": [
      "ADVANCED"
    ],
    "boardTypes": [
      "GUN"
    ]
  },
  {
    "id": "640b93e3b6d76943e392f536",
    "name": "Bengello Beach",
    "lat": -35.8652,
    "lon": 150.1679,
    "subregion": "South Coast NSW",
    "timezone": "Australia/Sydney",
    "cameras": 0,
    "abilityLevels": [],
    "boardTypes": []
  },
  {
    "id": "584204204e65fad6a7709449",
    "name": "Broulee Beach",
    "lat": -35.874,
    "lon": 150.16,
    "subregion": "South Coast NSW",
    "timezone": "Australia/Sydney",
    "cameras": 0,
    "abilityLevels": [
      "BEGINNER",
      "INTERMEDIATE",
      "ADVANCED"
    ],
    "boardTypes": [
      "SHORTBOARD",
      "FUNBOARD",
      "LONGBOARD",
      "FISH",
      "BODYBOARD",
      "SKIMMING",
      "BODYSURFING"
    ]
  },
  {
    "id": "5842041f4e65fad6a7708c02",
    "name": "Moruya",
    "lat": -35.90458333,
    "lon": 150.15191,
    "subregion": "South Coast NSW",
    "timezone": "Australia/Sydney",
    "cameras": 0,
    "abilityLevels": [
      "INTERMEDIATE",
      "ADVANCED"
    ],
    "boardTypes": [
      "SHORTBOARD",
      "FUNBOARD",
      "LONGBOARD",
      "FISH"
    ]
  },
  {
    "id": "65bce8a3d677c07bdf1f0787",
    "name": "Moruya South Head Beach",
    "lat": -35.91399,
    "lon": 150.1592,
    "subregion": "South Coast NSW",
    "timezone": "Australia/Sydney",
    "cameras": 1,
    "abilityLevels": [],
    "boardTypes": []
  },
  {
    "id": "584204204e65fad6a770944a",
    "name": "Congo",
    "lat": -35.952,
    "lon": 150.164,
    "subregion": "South Coast NSW",
    "timezone": "Australia/Sydney",
    "cameras": 0,
    "abilityLevels": [
      "BEGINNER",
      "INTERMEDIATE",
      "ADVANCED"
    ],
    "boardTypes": [
      "SHORTBOARD",
      "BODYBOARD"
    ]
  },
  {
    "id": "640b943e8284feb7f8af8746",
    "name": "Meringo Beach",
    "lat": -36.0096,
    "lon": 150.1596,
    "subregion": "South Coast NSW",
    "timezone": "Australia/Sydney",
    "cameras": 0,
    "abilityLevels": [],
    "boardTypes": []
  },
  {
    "id": "640b9426b6d769852e930611",
    "name": "Coila Beach",
    "lat": -36.0318,
    "lon": 150.1512,
    "subregion": "South Coast NSW",
    "timezone": "Australia/Sydney",
    "cameras": 0,
    "abilityLevels": [],
    "boardTypes": []
  },
  {
    "id": "584204204e65fad6a770944d",
    "name": "Blackfellows Point",
    "lat": -36.086,
    "lon": 150.136,
    "subregion": "South Coast NSW",
    "timezone": "Australia/Sydney",
    "cameras": 0,
    "abilityLevels": [
      "INTERMEDIATE",
      "ADVANCED"
    ],
    "boardTypes": [
      "SHORTBOARD"
    ]
  },
  {
    "id": "584204204e65fad6a770944e",
    "name": "Potato Point",
    "lat": -36.094,
    "lon": 150.142,
    "subregion": "South Coast NSW",
    "timezone": "Australia/Sydney",
    "cameras": 0,
    "abilityLevels": [
      "BEGINNER",
      "INTERMEDIATE",
      "ADVANCED"
    ],
    "boardTypes": [
      "SHORTBOARD",
      "LONGBOARD",
      "FISH",
      "BODYBOARD"
    ]
  },
  {
    "id": "640b93d8de81d57e360c1646",
    "name": "Brou Beach",
    "lat": -36.1288,
    "lon": 150.1262,
    "subregion": "South Coast NSW",
    "timezone": "Australia/Sydney",
    "cameras": 0,
    "abilityLevels": [],
    "boardTypes": []
  },
  {
    "id": "584204204e65fad6a7709450",
    "name": "Dalmeny",
    "lat": -36.169,
    "lon": 150.135,
    "subregion": "South Coast NSW",
    "timezone": "Australia/Sydney",
    "cameras": 0,
    "abilityLevels": [
      "INTERMEDIATE",
      "ADVANCED"
    ],
    "boardTypes": [
      "SHORTBOARD"
    ]
  },
  {
    "id": "640b9457de81d52bfa0c34a9",
    "name": "Yabbara Beach",
    "lat": -36.1752,
    "lon": 150.133,
    "subregion": "South Coast NSW",
    "timezone": "Australia/Sydney",
    "cameras": 0,
    "abilityLevels": [],
    "boardTypes": []
  },
  {
    "id": "640b944a8284fe5248af8a84",
    "name": "Duesburys Beach",
    "lat": -36.181,
    "lon": 150.1324,
    "subregion": "South Coast NSW",
    "timezone": "Australia/Sydney",
    "cameras": 0,
    "abilityLevels": [],
    "boardTypes": []
  },
  {
    "id": "584204204e65fad6a770944f",
    "name": "Kianga",
    "lat": -36.193,
    "lon": 150.131,
    "subregion": "South Coast NSW",
    "timezone": "Australia/Sydney",
    "cameras": 0,
    "abilityLevels": [
      "INTERMEDIATE",
      "ADVANCED"
    ],
    "boardTypes": [
      "SHORTBOARD"
    ]
  },
  {
    "id": "584204204e65fad6a7709451",
    "name": "Narooma",
    "lat": -36.208,
    "lon": 150.134,
    "subregion": "South Coast NSW",
    "timezone": "Australia/Sydney",
    "cameras": 1,
    "abilityLevels": [
      "INTERMEDIATE",
      "ADVANCED"
    ],
    "boardTypes": [
      "SHORTBOARD",
      "BODYBOARD"
    ]
  },
  {
    "id": "640b94324878eb4f351c3b2f",
    "name": "Loader Beach",
    "lat": -36.2872,
    "lon": 150.1315,
    "subregion": "South Coast NSW",
    "timezone": "Australia/Sydney",
    "cameras": 0,
    "abilityLevels": [],
    "boardTypes": []
  },
  {
    "id": "584204204e65fad6a7709452",
    "name": "Tilba Tilba",
    "lat": -36.324,
    "lon": 150.118,
    "subregion": "South Coast NSW",
    "timezone": "Australia/Sydney",
    "cameras": 0,
    "abilityLevels": [
      "INTERMEDIATE",
      "ADVANCED"
    ],
    "boardTypes": [
      "SHORTBOARD"
    ]
  },
  {
    "id": "640b94a54878eb50471c552e",
    "name": "Wallaga Beach",
    "lat": -36.3485,
    "lon": 150.0929,
    "subregion": "South Coast NSW",
    "timezone": "Australia/Sydney",
    "cameras": 0,
    "abilityLevels": [],
    "boardTypes": []
  },
  {
    "id": "584204204e65fad6a7709454",
    "name": "Camel Rock",
    "lat": -36.379,
    "lon": 150.077,
    "subregion": "South Coast NSW",
    "timezone": "Australia/Sydney",
    "cameras": 0,
    "abilityLevels": [
      "BEGINNER",
      "INTERMEDIATE",
      "ADVANCED"
    ],
    "boardTypes": [
      "SHORTBOARD",
      "FUNBOARD",
      "LONGBOARD",
      "FISH"
    ]
  },
  {
    "id": "640b9420606c4504dcf2724d",
    "name": "Haywards Beach",
    "lat": -36.3985,
    "lon": 150.0679,
    "subregion": "South Coast NSW",
    "timezone": "Australia/Sydney",
    "cameras": 0,
    "abilityLevels": [],
    "boardTypes": []
  },
  {
    "id": "5dd6e41dccc44454b69f6e62",
    "name": "Bermagui",
    "lat": -36.4355116879448,
    "lon": 150.0784,
    "subregion": "South Coast NSW",
    "timezone": "Australia/Sydney",
    "cameras": 0,
    "abilityLevels": [],
    "boardTypes": []
  },
  {
    "id": "640b94149b6fab710d2e63cd",
    "name": "Cuttagee Beach",
    "lat": -36.4781,
    "lon": 150.0596,
    "subregion": "South Coast NSW",
    "timezone": "Australia/Sydney",
    "cameras": 0,
    "abilityLevels": [],
    "boardTypes": []
  },
  {
    "id": "584204204e65fad6a7709453",
    "name": "Bunga Beach",
    "lat": -36.539,
    "lon": 150.058,
    "subregion": "South Coast NSW",
    "timezone": "Australia/Sydney",
    "cameras": 0,
    "abilityLevels": [
      "ADVANCED"
    ],
    "boardTypes": [
      "SHORTBOARD",
      "GUN"
    ]
  },
  {
    "id": "640b93f0606c454183f26696",
    "name": "Aragunnu Beach",
    "lat": -36.5875,
    "lon": 150.0454,
    "subregion": "South Coast NSW",
    "timezone": "Australia/Sydney",
    "cameras": 0,
    "abilityLevels": [],
    "boardTypes": []
  },
  {
    "id": "584204204e65fad6a7709456",
    "name": "Picnic Point",
    "lat": -36.614,
    "lon": 150.03,
    "subregion": "South Coast NSW",
    "timezone": "Australia/Sydney",
    "cameras": 0,
    "abilityLevels": [
      "BEGINNER",
      "INTERMEDIATE"
    ],
    "boardTypes": [
      "SHORTBOARD",
      "FUNBOARD",
      "LONGBOARD",
      "FISH",
      "BODYBOARD",
      "SKIMMING",
      "BODYSURFING"
    ]
  },
  {
    "id": "640b94518284fe31d9af8bfd",
    "name": "Gillards Beach",
    "lat": -36.6617,
    "lon": 150.0022,
    "subregion": "South Coast NSW",
    "timezone": "Australia/Sydney",
    "cameras": 0,
    "abilityLevels": [],
    "boardTypes": []
  },
  {
    "id": "640b9444451905d7e2de8ab9",
    "name": "Cowdroys Beach",
    "lat": -36.673,
    "lon": 149.9963,
    "subregion": "South Coast NSW",
    "timezone": "Australia/Sydney",
    "cameras": 0,
    "abilityLevels": [],
    "boardTypes": []
  },
  {
    "id": "640b946f606c4578c6f2845b",
    "name": "Nelson Beach",
    "lat": -36.6877,
    "lon": 149.9931,
    "subregion": "South Coast NSW",
    "timezone": "Australia/Sydney",
    "cameras": 0,
    "abilityLevels": [],
    "boardTypes": []
  },
  {
    "id": "584204204e65fad6a7709455",
    "name": "Tathra Beach",
    "lat": -36.723,
    "lon": 149.982,
    "subregion": "South Coast NSW",
    "timezone": "Australia/Sydney",
    "cameras": 0,
    "abilityLevels": [
      "BEGINNER",
      "INTERMEDIATE",
      "ADVANCED"
    ],
    "boardTypes": [
      "SHORTBOARD",
      "FISH"
    ]
  },
  {
    "id": "640b945d4878eb2d731c44ee",
    "name": "Wallagoot Beach",
    "lat": -36.7985,
    "lon": 149.9512,
    "subregion": "South Coast NSW",
    "timezone": "Australia/Sydney",
    "cameras": 0,
    "abilityLevels": [],
    "boardTypes": []
  },
  {
    "id": "640b94024519058962de7aba",
    "name": "Bournda Beach",
    "lat": -36.8152,
    "lon": 149.9429,
    "subregion": "South Coast NSW",
    "timezone": "Australia/Sydney",
    "cameras": 0,
    "abilityLevels": [],
    "boardTypes": []
  },
  {
    "id": "640b94874519053608de99fe",
    "name": "Tura Beach",
    "lat": -36.8318,
    "lon": 149.9346,
    "subregion": "South Coast NSW",
    "timezone": "Australia/Sydney",
    "cameras": 0,
    "abilityLevels": [],
    "boardTypes": []
  },
  {
    "id": "584204204e65fad6a7709457",
    "name": "Short Point",
    "lat": -36.882,
    "lon": 149.934,
    "subregion": "South Coast NSW",
    "timezone": "Australia/Sydney",
    "cameras": 0,
    "abilityLevels": [
      "BEGINNER",
      "INTERMEDIATE"
    ],
    "boardTypes": [
      "SHORTBOARD",
      "FUNBOARD",
      "LONGBOARD",
      "FISH",
      "BODYBOARD",
      "SKIMMING",
      "BODYSURFING"
    ]
  },
  {
    "id": "5842041f4e65fad6a7708c01",
    "name": "Merimbula Bar",
    "lat": -36.89662778,
    "lon": 149.92144,
    "subregion": "South Coast NSW",
    "timezone": "Australia/Sydney",
    "cameras": 0,
    "abilityLevels": [
      "BEGINNER",
      "INTERMEDIATE",
      "ADVANCED"
    ],
    "boardTypes": [
      "SHORTBOARD",
      "FUNBOARD",
      "LONGBOARD",
      "FISH"
    ]
  },
  {
    "id": "640b94759b6fab087d2e79ce",
    "name": "Pambula Beach",
    "lat": -36.9304,
    "lon": 149.9049,
    "subregion": "South Coast NSW",
    "timezone": "Australia/Sydney",
    "cameras": 0,
    "abilityLevels": [],
    "boardTypes": []
  },
  {
    "id": "5842041f4e65fad6a7708bff",
    "name": "Pambula Rivermouth",
    "lat": -36.94544444,
    "lon": 149.9151111,
    "subregion": "South Coast NSW",
    "timezone": "Australia/Sydney",
    "cameras": 0,
    "abilityLevels": [
      "BEGINNER",
      "INTERMEDIATE",
      "ADVANCED"
    ],
    "boardTypes": [
      "SHORTBOARD",
      "BODYBOARD"
    ]
  },
  {
    "id": "640b94938284fe080caf9af4",
    "name": "Haycock Beach",
    "lat": -36.9522,
    "lon": 149.9383,
    "subregion": "South Coast NSW",
    "timezone": "Australia/Sydney",
    "cameras": 0,
    "abilityLevels": [],
    "boardTypes": []
  },
  {
    "id": "640b949fde81d5c16e0c44ec",
    "name": "Quondolo Beach",
    "lat": -36.9673,
    "lon": 149.9311,
    "subregion": "South Coast NSW",
    "timezone": "Australia/Sydney",
    "cameras": 0,
    "abilityLevels": [],
    "boardTypes": []
  },
  {
    "id": "640b9499e9203084f8dfc557",
    "name": "Pinnacles Beach",
    "lat": -36.9971,
    "lon": 149.9262,
    "subregion": "South Coast NSW",
    "timezone": "Australia/Sydney",
    "cameras": 0,
    "abilityLevels": [],
    "boardTypes": []
  },
  {
    "id": "584204204e65fad6a7709459",
    "name": "Leonard Island",
    "lat": -37.009,
    "lon": 149.939,
    "subregion": "South Coast NSW",
    "timezone": "Australia/Sydney",
    "cameras": 0,
    "abilityLevels": [
      "INTERMEDIATE",
      "ADVANCED"
    ],
    "boardTypes": [
      "SHORTBOARD"
    ]
  },
  {
    "id": "584204204e65fad6a7709458",
    "name": "Aslings Beach",
    "lat": -37.058,
    "lon": 149.911,
    "subregion": "South Coast NSW",
    "timezone": "Australia/Sydney",
    "cameras": 0,
    "abilityLevels": [
      "INTERMEDIATE",
      "ADVANCED"
    ],
    "boardTypes": [
      "SHORTBOARD",
      "LONGBOARD",
      "FISH"
    ]
  },
  {
    "id": "640b93d28284fe26ebaf6d32",
    "name": "Boydtown Beach",
    "lat": -37.0992,
    "lon": 149.8769,
    "subregion": "South Coast NSW",
    "timezone": "Australia/Sydney",
    "cameras": 0,
    "abilityLevels": [],
    "boardTypes": []
  },
  {
    "id": "640b9463606c457c73f281d3",
    "name": "Wonboyn Beach",
    "lat": -37.2652,
    "lon": 149.9512,
    "subregion": "South Coast NSW",
    "timezone": "Australia/Sydney",
    "cameras": 0,
    "abilityLevels": [],
    "boardTypes": []
  },
  {
    "id": "584204204e65fad6a770945a",
    "name": "Saltwater",
    "lat": -37.279,
    "lon": 149.945,
    "subregion": "South Coast NSW",
    "timezone": "Australia/Sydney",
    "cameras": 0,
    "abilityLevels": [
      "INTERMEDIATE",
      "ADVANCED"
    ],
    "boardTypes": [
      "SHORTBOARD"
    ]
  },
  {
    "id": "640b91924519054b7bddd80b",
    "name": "Jane Spiers Beach",
    "lat": -37.3485,
    "lon": 149.9512,
    "subregion": "South Coast NSW",
    "timezone": "Australia/Melbourne",
    "cameras": 0,
    "abilityLevels": [],
    "boardTypes": []
  },
  {
    "id": "640b9198de81d50ceb0b7f6c",
    "name": "Newtons Beach",
    "lat": -37.3652,
    "lon": 149.9512,
    "subregion": "South Coast NSW",
    "timezone": "Australia/Melbourne",
    "cameras": 0,
    "abilityLevels": [],
    "boardTypes": []
  },
  {
    "id": "584204204e65fad6a7709408",
    "name": "Coledale",
    "lat": -34.294,
    "lon": 150.946,
    "subregion": "Wollongong - Shoalhaven",
    "timezone": "Australia/Sydney",
    "cameras": 0,
    "abilityLevels": [
      "INTERMEDIATE",
      "ADVANCED"
    ],
    "boardTypes": [
      "SHORTBOARD",
      "FISH",
      "BODYBOARD"
    ]
  },
  {
    "id": "640b9517b6d7697380933bd0",
    "name": "Sharkies Beach",
    "lat": -34.296,
    "lon": 150.943,
    "subregion": "Wollongong - Shoalhaven",
    "timezone": "Australia/Sydney",
    "cameras": 0,
    "abilityLevels": [],
    "boardTypes": []
  },
  {
    "id": "584204204e65fad6a7709409",
    "name": "Austinmer",
    "lat": -34.305,
    "lon": 150.939,
    "subregion": "Wollongong - Shoalhaven",
    "timezone": "Australia/Sydney",
    "cameras": 0,
    "abilityLevels": [
      "BEGINNER",
      "INTERMEDIATE",
      "ADVANCED"
    ],
    "boardTypes": [
      "SHORTBOARD",
      "FUNBOARD",
      "LONGBOARD",
      "FISH",
      "BODYBOARD"
    ]
  },
  {
    "id": "584204204e65fad6a770940b",
    "name": "Thirroul",
    "lat": -34.32,
    "lon": 150.927,
    "subregion": "Wollongong - Shoalhaven",
    "timezone": "Australia/Sydney",
    "cameras": 1,
    "abilityLevels": [
      "BEGINNER",
      "INTERMEDIATE",
      "ADVANCED"
    ],
    "boardTypes": [
      "SHORTBOARD",
      "FUNBOARD",
      "LONGBOARD",
      "FISH",
      "BODYBOARD"
    ]
  },
  {
    "id": "640b951d45190546bbdeba44",
    "name": "McCauley\u2019s Beach",
    "lat": -34.3267,
    "lon": 150.9248,
    "subregion": "Wollongong - Shoalhaven",
    "timezone": "Australia/Sydney",
    "cameras": 0,
    "abilityLevels": [],
    "boardTypes": []
  },
  {
    "id": "5842041f4e65fad6a7708c0a",
    "name": "Sandon Point",
    "lat": -34.32977,
    "lon": 150.92931,
    "subregion": "Wollongong - Shoalhaven",
    "timezone": "Australia/Sydney",
    "cameras": 0,
    "abilityLevels": [
      "INTERMEDIATE",
      "ADVANCED"
    ],
    "boardTypes": [
      "SHORTBOARD",
      "GUN"
    ]
  },
  {
    "id": "584204204e65fad6a770940c",
    "name": "Peggys/Waniora Point",
    "lat": -34.339,
    "lon": 150.929,
    "subregion": "Wollongong - Shoalhaven",
    "timezone": "Australia/Sydney",
    "cameras": 0,
    "abilityLevels": [
      "INTERMEDIATE",
      "ADVANCED"
    ],
    "boardTypes": [
      "SHORTBOARD",
      "LONGBOARD",
      "FISH"
    ]
  },
  {
    "id": "584204204e65fad6a770940d",
    "name": "Bulli",
    "lat": -34.343,
    "lon": 150.924,
    "subregion": "Wollongong - Shoalhaven",
    "timezone": "Australia/Sydney",
    "cameras": 0,
    "abilityLevels": [
      "BEGINNER",
      "INTERMEDIATE",
      "ADVANCED"
    ],
    "boardTypes": [
      "SHORTBOARD",
      "FUNBOARD",
      "LONGBOARD",
      "FISH",
      "BODYBOARD"
    ]
  },
  {
    "id": "584204204e65fad6a770940a",
    "name": "Woonona",
    "lat": -34.357,
    "lon": 150.92,
    "subregion": "Wollongong - Shoalhaven",
    "timezone": "Australia/Sydney",
    "cameras": 0,
    "abilityLevels": [
      "INTERMEDIATE",
      "ADVANCED"
    ],
    "boardTypes": [
      "SHORTBOARD",
      "BODYBOARD"
    ]
  },
  {
    "id": "584204204e65fad6a770940e",
    "name": "Bellambi",
    "lat": -34.365,
    "lon": 150.924,
    "subregion": "Wollongong - Shoalhaven",
    "timezone": "Australia/Sydney",
    "cameras": 0,
    "abilityLevels": [
      "BEGINNER",
      "INTERMEDIATE",
      "ADVANCED"
    ],
    "boardTypes": [
      "SHORTBOARD",
      "BODYBOARD"
    ]
  },
  {
    "id": "584204204e65fad6a7709416",
    "name": "Corrimal",
    "lat": -34.379,
    "lon": 150.92,
    "subregion": "Wollongong - Shoalhaven",
    "timezone": "Australia/Sydney",
    "cameras": 0,
    "abilityLevels": [
      "BEGINNER",
      "INTERMEDIATE",
      "ADVANCED"
    ],
    "boardTypes": [
      "SHORTBOARD",
      "FISH",
      "BODYBOARD"
    ]
  },