[
  {
    "id": "584204214e65fad6a7709bbe",
    "name": "Banc de Pabos",
    "lat": 48.369,
    "lon": -64.59,
    "subregion": "New Brunswick",
    "timezone": "America/Montreal",
    "cameras": 0,
    "abilityLevels": [],
    "boardTypes": []
  },
  {
    "id": "584204204e65fad6a7709b6f",
    "name": "Dennis Beach",
    "lat": 45.629,
    "lon": -64.848,
    "subregion": "New Brunswick",
    "timezone": "America/Moncton",
    "cameras": 0,
    "abilityLevels": [],
    "boardTypes": []
  },
  {
    "id": "640a39604519054ed99b10c7",
    "name": "Black River",
    "lat": 45.2638,
    "lon": -65.7868,
    "subregion": "New Brunswick",
    "timezone": "America/Halifax",
    "cameras": 0,
    "abilityLevels": [],
    "boardTypes": []
  },
  {
    "id": "584204204e65fad6a7709b6e",
    "name": "Mispec Beach",
    "lat": 45.204,
    "lon": -65.964,
    "subregion": "New Brunswick",
    "timezone": "America/Moncton",
    "cameras": 0,
    "abilityLevels": [],
    "boardTypes": []
  },
  {
    "id": "640a3952606c458b58aefe14",
    "name": "Anthony's Cove",
    "lat": 45.2276,
    "lon": -66.0091,
    "subregion": "New Brunswick",
    "timezone": "America/Halifax",
    "cameras": 0,
    "abilityLevels": [],
    "boardTypes": []
  },
  {
    "id": "640a3954b6d769afd54f92b2",
    "name": "Checkers",
    "lat": 45.2496,
    "lon": -66.014,
    "subregion": "New Brunswick",
    "timezone": "America/Halifax",
    "cameras": 0,
    "abilityLevels": [],
    "boardTypes": []
  },
  {
    "id": "640a3956b6d769f0394f935d",
    "name": "The Pit",
    "lat": 45.254,
    "lon": -66.0213,
    "subregion": "New Brunswick",
    "timezone": "America/Halifax",
    "cameras": 0,
    "abilityLevels": [],
    "boardTypes": []
  },
  {
    "id": "640a395bb6d76922434f94af",
    "name": "Bayshore Beach",
    "lat": 45.2457,
    "lon": -66.0758,
    "subregion": "New Brunswick",
    "timezone": "America/Halifax",
    "cameras": 0,
    "abilityLevels": [],
    "boardTypes": []
  },
  {
    "id": "640a3958606c458147aeffa4",
    "name": "Breakwaters",
    "lat": 45.2582,
    "lon": -66.0183,
    "subregion": "New Brunswick",
    "timezone": "America/Halifax",
    "cameras": 0,
    "abilityLevels": [],
    "boardTypes": []
  },
  {
    "id": "640a395945190508fb9b0f07",
    "name": "Courtenay Bay",
    "lat": 45.2704,
    "lon": -66.0241,
    "subregion": "New Brunswick",
    "timezone": "America/Halifax",
    "cameras": 0,
    "abilityLevels": [],
    "boardTypes": []
  },
  {
    "id": "640a395db6d7691d594f951e",
    "name": "Saints Rest Beach",
    "lat": 45.2253,
    "lon": -66.1171,
    "subregion": "New Brunswick",
    "timezone": "America/Halifax",
    "cameras": 0,
    "abilityLevels": [],
    "boardTypes": []
  },
  {
    "id": "640a395e606c457ea6af0122",
    "name": "New River Beach",
    "lat": 45.1333,
    "lon": -66.5326,
    "subregion": "New Brunswick",
    "timezone": "America/Halifax",
    "cameras": 0,
    "abilityLevels": [],
    "boardTypes": []
  },
  {
    "id": "640a3963e920304ae99c3d18",
    "name": "Deep Cove Beach",
    "lat": 44.6154,
    "lon": -66.8754,
    "subregion": "New Brunswick",
    "timezone": "America/Halifax",
    "cameras": 0,
    "abilityLevels": [],
    "boardTypes": []
  },
  {
    "id": "640a394eb6d769d1114f90cf",
    "name": "Mavillette Beach",
    "lat": 44.0839,
    "lon": -66.1911,
    "subregion": "Nova Scotia",
    "timezone": "America/Halifax",
    "cameras": 0,
    "abilityLevels": [],
    "boardTypes": []
  },
  {
    "id": "584204204e65fad6a77094cc",
    "name": "Summerville",
    "lat": 43.9469,
    "lon": -64.8153,
    "subregion": "Nova Scotia",
    "timezone": "America/Halifax",
    "cameras": 0,
    "abilityLevels": [
      "INTERMEDIATE",
      "ADVANCED"
    ],
    "boardTypes": []
  },
  {
    "id": "640a3950b6d7691efa4f9198",
    "name": "Sandy Cove Beach",
    "lat": 44.4966,
    "lon": -66.103,
    "subregion": "Nova Scotia",
    "timezone": "America/Halifax",
    "cameras": 0,
    "abilityLevels": [],
    "boardTypes": []
  },
  {
    "id": "640a3948606c459c16aefb85",
    "name": "White Point",
    "lat": 43.9643,
    "lon": -64.7352,
    "subregion": "Nova Scotia",
    "timezone": "America/Halifax",
    "cameras": 0,
    "abilityLevels": [],
    "boardTypes": []
  },
  {
    "id": "584204204e65fad6a77094ce",
    "name": "Western Head",
    "lat": 43.985,
    "lon": -64.68,
    "subregion": "Nova Scotia",
    "timezone": "America/Halifax",
    "cameras": 0,
    "abilityLevels": [
      "ADVANCED"
    ],
    "boardTypes": [
      "SHORTBOARD"
    ]
  },
  {
    "id": "584204204e65fad6a7709abe",
    "name": "Cherry Hill",
    "lat": 44.139,
    "lon": -64.509,
    "subregion": "Nova Scotia",
    "timezone": "America/Halifax",
    "cameras": 0,
    "abilityLevels": [],
    "boardTypes": []
  },
  {
    "id": "640a394cb6d769299e4f9039",
    "name": "Broad Cove",
    "lat": 44.1775,
    "lon": -64.4743,
    "subregion": "Nova Scotia",
    "timezone": "America/Halifax",
    "cameras": 0,
    "abilityLevels": [],
    "boardTypes": []
  },
  {
    "id": "584204204e65fad6a7709abd",
    "name": "Hirtles",
    "lat": 44.261,
    "lon": -64.272,
    "subregion": "Nova Scotia",
    "timezone": "America/Halifax",
    "cameras": 0,
    "abilityLevels": [],
    "boardTypes": []
  },
  {
    "id": "584204204e65fad6a77094cb",
    "name": "The Moose",
    "lat": 44.61383,
    "lon": -63.43175,
    "subregion": "Nova Scotia",
    "timezone": "America/Halifax",
    "cameras": 0,
    "abilityLevels": [
      "BEGINNER",
      "INTERMEDIATE",
      "ADVANCED"
    ],
    "boardTypes": [
      "SHORTBOARD"
    ]
  },
  {
    "id": "5842041f4e65fad6a7708db2",
    "name": "Osbourne",
    "lat": 44.61774,
    "lon": -63.417031,
    "subregion": "Nova Scotia",
    "timezone": "America/Halifax",
    "cameras": 0,
    "abilityLevels": [
      "INTERMEDIATE",
      "ADVANCED"
    ],
    "boardTypes": [
      "SHORTBOARD"
    ]
  },
  {
    "id": "5842041f4e65fad6a7708dbb",
    "name": "Minutes",
    "lat": 44.632158,
    "lon": -63.415339,
    "subregion": "Nova Scotia",
    "timezone": "America/Halifax",
    "cameras": 0,
    "abilityLevels": [
      "INTERMEDIATE",
      "ADVANCED"
    ],
    "boardTypes": [
      "SHORTBOARD",
      "FUNBOARD",
      "FISH"
    ]
  },
  {
    "id": "584204204e65fad6a77096b0",
    "name": "Lawrencetown Point",
    "lat": 44.64182138045019,
    "lon": -63.35122,
    "subregion": "Nova Scotia",
    "timezone": "America/Halifax",
    "cameras": 0,
    "abilityLevels": [],
    "boardTypes": []
  },
  {
    "id": "584204204e65fad6a77094cf",
    "name": "Lawrencetown Beach",
    "lat": 44.643,
    "lon": -63.343,
    "subregion": "Nova Scotia",
    "timezone": "America/Halifax",
    "cameras": 0,
    "abilityLevels": [
      "INTERMEDIATE",
      "ADVANCED"
    ],
    "boardTypes": []
  },
  {
    "id": "584204204e65fad6a77096b5",
    "name": "Left Point",
    "lat": 44.639,
    "lon": -63.325,
    "subregion": "Nova Scotia",
    "timezone": "America/Halifax",
    "cameras": 0,
    "abilityLevels": [],
    "boardTypes": []
  },
  {
    "id": "5842041f4e65fad6a7708db1",
    "name": "Right Point",
    "lat": 44.657329,
    "lon": -63.25684,
    "subregion": "Nova Scotia",
    "timezone": "America/Halifax",
    "cameras": 0,
    "abilityLevels": [
      "INTERMEDIATE"
    ],
    "boardTypes": [
      "SHORTBOARD"
    ]
  },
  {
    "id": "5842041f4e65fad6a7708daf",
    "name": "The Cove",
    "lat": 44.66404,
    "lon": -63.25845,
    "subregion": "Nova Scotia",
    "timezone": "America/Halifax",
    "cameras": 0,
    "abilityLevels": [
      "INTERMEDIATE",
      "BEGINNER"
    ],
    "boardTypes": [
      "SHORTBOARD",
      "FISH",
      "FUNBOARD",
      "LONGBOARD"
    ]
  },
  {
    "id": "5842041f4e65fad6a7708db0",
    "name": "Martinique",
    "lat": 44.689901957432156,
    "lon": -63.13179,
    "subregion": "Nova Scotia",
    "timezone": "America/Halifax",
    "cameras": 0,
    "abilityLevels": [
      "BEGINNER",
      "INTERMEDIATE",
      "ADVANCED"
    ],
    "boardTypes": [
      "SHORTBOARD",
      "FUNBOARD",
      "FISH"
    ]
  },
  {
    "id": "640a394a99dd44e492018c12",
    "name": "Clam Harbour Beach",
    "lat": 44.721,
    "lon": -62.8856,
    "subregion": "Nova Scotia",
    "timezone": "America/Halifax",
    "cameras": 0,
    "abilityLevels": [],
    "boardTypes": []
  },
  {
    "id": "584204204e65fad6a77094d0",
    "name": "Point Michaud",
    "lat": 45.5846,
    "lon": -60.68454,
    "subregion": "Nova Scotia",
    "timezone": "America/Halifax",
    "cameras": 0,
    "abilityLevels": [
      "INTERMEDIATE",
      "ADVANCED"
    ],
    "boardTypes": []
  },
  {
    "id": "640a396b45190556929b147e",
    "name": "Cap Alright",
    "lat": 47.392219,
    "lon": -61.771,
    "subregion": "Magdalene Islands",
    "timezone": "America/Halifax",
    "cameras": 0,
    "abilityLevels": [],
    "boardTypes": []
  },
  {
    "id": "640a396de9203005de9c3fbe",
    "name": "Point Aux Loups",
    "lat": 47.52858,
    "lon": -61.71456,
    "subregion": "Magdalene Islands",
    "timezone": "America/Halifax",
    "cameras": 0,
    "abilityLevels": [],
    "boardTypes": []
  },
  {
    "id": "63769b6850c416a117c76686",
    "name": "Old Harry",
    "lat": 47.57842,
    "lon": -61.46951,
    "subregion": "Magdalene Islands",
    "timezone": "America/Halifax",
    "cameras": 0,
    "abilityLevels": [],
    "boardTypes": []
  },
  {
    "id": "640a3965451905e5b89b129d",
    "name": "Cape Ray",
    "lat": 47.625543,
    "lon": -59.27824,
    "subregion": "Newfoundland",
    "timezone": "America/Halifax",
    "cameras": 0,
    "abilityLevels": [],
    "boardTypes": []
  },
  {
    "id": "640a3968451905439a9b1385",
    "name": "Bears Cove",
    "lat": 49.838786,
    "lon": -56.57403,
    "subregion": "Newfoundland",
    "timezone": "America/Halifax",
    "cameras": 0,
    "abilityLevels": [],
    "boardTypes": []
  },
  {
    "id": "640a396699dd44790a0193fe",
    "name": "New Melbourne",
    "lat": 48.047486,
    "lon": -53.15149,
    "subregion": "Newfoundland",
    "timezone": "America/Halifax",
    "cameras": 0,
    "abilityLevels": [],
    "boardTypes": []
  },
  {
    "id": "63729c26fc401c6f89c7ab3b",
    "name": "St Vincent's Beach",
    "lat": 46.788778,
    "lon": -53.63767,
    "subregion": "Newfoundland",
    "timezone": "Etc/GMT-3",
    "cameras": 0,
    "abilityLevels": [],
    "boardTypes": []
  },
  {
    "id": "640a396ab6d7696c234f991a",
    "name": "Biscay Bay",
    "lat": 46.742703,
    "lon": -53.28798,
    "subregion": "Newfoundland",
    "timezone": "America/Halifax",
    "cameras": 0,
    "abilityLevels": [],
    "boardTypes": []
  },
  {
    "id": "640a443145190527e39dd5df",
    "name": "Harbor Beach",
    "lat": 43.1322,
    "lon": -70.6367,
    "subregion": "Maine",
    "timezone": "America/New_York",
    "cameras": 0,
    "abilityLevels": [],
    "boardTypes": []
  },
  {
    "id": "5842041f4e65fad6a77089e3",
    "name": "Long Sands Beach",
    "lat": 43.163135,
    "lon": -70.61689,
    "subregion": "Maine",
    "timezone": "America/New_York",
    "cameras": 2,
    "abilityLevels": [
      "BEGINNER",
      "INTERMEDIATE",
      "ADVANCED"
    ],
    "boardTypes": [
      "SHORTBOARD",
      "FUNBOARD",
      "LONGBOARD"
    ]
  },
  {
    "id": "5842041f4e65fad6a77089cf",
    "name": "Short Sands Beach",
    "lat": 43.175394,
    "lon": -70.606351,
    "subregion": "Maine",
    "timezone": "America/New_York",
    "cameras": 0,
    "abilityLevels": [],
    "boardTypes": []
  },
  {
    "id": "5842041f4e65fad6a77089ca",
    "name": "Ogunquit",
    "lat": 43.251076,
    "lon": -70.59144,
    "subregion": "Maine",
    "timezone": "America/New_York",
    "cameras": 1,
    "abilityLevels": [
      "BEGINNER",
      "INTERMEDIATE",
      "ADVANCED"
    ],
    "boardTypes": [
      "SHORTBOARD",
      "LONGBOARD",
      "FISH"
    ]
  },
  {
    "id": "640a4432e92030483f9f00cd",
    "name": "Footbridge Beach",
    "lat": 43.2629,
    "lon": -70.5867,
    "subregion": "Maine",
    "timezone": "America/New_York",
    "cameras": 0,
    "abilityLevels": [],
    "boardTypes": []
  },
  {
    "id": "5bda1f9f815c8500017022bf",
    "name": "Moody Point",
    "lat": 43.284112046429236,
    "lon": -70.56734,
    "subregion": "Maine",
    "timezone": "America/New_York",
    "cameras": 1,
    "abilityLevels": [],
    "boardTypes": []
  },
  {
    "id": "640a4434606c451546b1c6fc",
    "name": "Crescent Beach",
    "lat": 43.2938,
    "lon": -70.5676,
    "subregion": "Maine",
    "timezone": "America/New_York",
    "cameras": 0,
    "abilityLevels": [],
    "boardTypes": []
  },
  {
    "id": "5842041f4e65fad6a77089dd",
    "name": "Wells Beach",
    "lat": 43.302676,
    "lon": -70.5652,
    "subregion": "Maine",
    "timezone": "America/New_York",
    "cameras": 0,
    "abilityLevels": [
      "BEGINNER",
      "INTERMEDIATE",
      "ADVANCED"
    ],
    "boardTypes": [
      "SHORTBOARD",
      "LONGBOARD"
    ]
  },
  {
    "id": "640a442b451905e7249dd43f",
    "name": "Drakes Island",
    "lat": 43.3213,
    "lon": -70.5533,
    "subregion": "Maine",
    "timezone": "America/New_York",
    "cameras": 0,
    "abilityLevels": [],
    "boardTypes": []
  },
  {
    "id": "640a442e4eb375739695814e",
    "name": "Mother's Beach",
    "lat": 43.3434,
    "lon": -70.4984,
    "subregion": "Maine",
    "timezone": "America/New_York",
    "cameras": 0,
    "abilityLevels": [],
    "boardTypes": []
  },
  {
    "id": "5842041f4e65fad6a77089e0",
    "name": "Gooch's Beach",
    "lat": 43.34711,
    "lon": -70.48165,
    "subregion": "Maine",
    "timezone": "America/New_York",
    "cameras": 1,
    "abilityLevels": [
      "INTERMEDIATE",
      "ADVANCED"
    ],
    "boardTypes": [
      "SHORTBOARD",
      "FUNBOARD",
      "LONGBOARD",
      "FISH"
    ]
  },
  {
    "id": "584204214e65fad6a7709c6f",
    "name": "Fortunes Rock",
    "lat": 43.429,
    "lon": -70.372,
    "subregion": "Maine",
    "timezone": "America/New_York",
    "cameras": 0,
    "abilityLevels": [],
    "boardTypes": []
  },
  {
    "id": "5842041f4e65fad6a77089df",
    "name": "Old Orchard Beach",
    "lat": 43.514481,
    "lon": -70.37215,
    "subregion": "Maine",
    "timezone": "America/New_York",
    "cameras": 0,
    "abilityLevels": [
      "BEGINNER",
      "INTERMEDIATE",
      "ADVANCED"
    ],
    "boardTypes": [
      "SHORTBOARD",
      "FUNBOARD",
      "LONGBOARD",
      "FISH"
    ]
  },
  {
    "id": "640a442f451905324d9dd57e",
    "name": "Pine Point Beach",
    "lat": 43.5404,
    "lon": -70.3331,
    "subregion": "Maine",
    "timezone": "America/New_York",
    "cameras": 0,
    "abilityLevels": [],
    "boardTypes": []
  },
  {
    "id": "5842041f4e65fad6a77089de",
    "name": "Scarborough Beach State Park",
    "lat": 43.545359,
    "lon": -70.30479,
    "subregion": "Maine",
    "timezone": "America/New_York",
    "cameras": 0,
    "abilityLevels": [],
    "boardTypes": []
  },
  {
    "id": "5842041f4e65fad6a77089dc",
    "name": "Higgins Beach",
    "lat": 43.55902946610303,
    "lon": -70.27795,
    "subregion": "Maine",
    "timezone": "America/New_York",
    "cameras": 1,
    "abilityLevels": [
      "BEGINNER",
      "INTERMEDIATE",
      "ADVANCED"
    ],
    "boardTypes": [
      "SHORTBOARD",
      "FUNBOARD",
      "LONGBOARD",
      "FISH",
      "BODYBOARD",
      "SKIMMING",
      "BODYSURFING"
    ]
  },
  {
    "id": "60de448419d6ca0f4751428b",
    "name": "Kettle Kove",
    "lat": 43.561068973577115,
    "lon": -70.2178,
    "subregion": "Maine",
    "timezone": "America/New_York",
    "cameras": 0,
    "abilityLevels": [],
    "boardTypes": []
  },
  {
    "id": "584204204e65fad6a77099d6",
    "name": "Popham Beach",
    "lat": 43.729,
    "lon": -69.797,
    "subregion": "Maine",
    "timezone": "America/New_York",
    "cameras": 0,
    "abilityLevels": [],
    "boardTypes": []
  },
  {
    "id": "640a44294eb37563ad957fe3",
    "name": "Reid State Park",
    "lat": 43.7776,
    "lon": -69.7272,
    "subregion": "Maine",
    "timezone": "America/New_York",
    "cameras": 0,
    "abilityLevels": [],
    "boardTypes": []
  },
  {
    "id": "6418e4266478f0ce81fb1b22",
    "name": "Little Hunters Beach",
    "lat": 44.2979,
    "lon": -68.2116,
    "subregion": "Maine",
    "timezone": "America/New_York",
    "cameras": 0,
    "abilityLevels": [],
    "boardTypes": []
  },
  {
    "id": "584204204e65fad6a77099fc",
    "name": "Acadia National Park",
    "lat": 44.314,
    "lon": -68.183,
    "subregion": "Maine",
    "timezone": "America/New_York",
    "cameras": 0,
    "abilityLevels": [],
    "boardTypes": []
  },
  {
    "id": "66223818fda7c17e47cfed4a",
    "name": "Pirates Cove Beach",
    "lat": 43.0217304,
    "lon": -70.72945,
    "subregion": "New Hampshire",
    "timezone": "America/New_York",
    "cameras": 0,
    "abilityLevels": [],
    "boardTypes": []
  },
  {
    "id": "5842041f4e65fad6a77089d6",
    "name": "Straws Point",
    "lat": 42.991359,
    "lon": -70.75149,
    "subregion": "New Hampshire",
    "timezone": "America/New_York",
    "cameras": 0,
    "abilityLevels": [
      "INTERMEDIATE",
      "ADVANCED"
    ],
    "boardTypes": [
      "SHORTBOARD",
      "FISH",
      "FUNBOARD",
      "LONGBOARD"
    ]
  },
  {
    "id": "60492e85f79634ecb8e7b0fa",
    "name": "Jenness Beach",
    "lat": 42.9857,
    "lon": -70.7595,
    "subregion": "New Hampshire",
    "timezone": "America/New_York",
    "cameras": 0,
    "abilityLevels": [
      "BEGINNER",
      "INTERMEDIATE"
    ],
    "boardTypes": [
      "LONGBOARD"
    ]
  },
  {
    "id": "5842041f4e65fad6a77089da",
    "name": "Sawyer's Beach",
    "lat": 42.97583846220203,
    "lon": -70.764,
    "subregion": "New Hampshire",
    "timezone": "America/New_York",
    "cameras": 0,
    "abilityLevels": [
      "BEGINNER",
      "INTERMEDIATE"
    ],
    "boardTypes": [
      "SHORTBOARD"
    ]
  },
  {
    "id": "5842041f4e65fad6a77089db",
    "name": "Rye Rocks",
    "lat": 42.97,
    "lon": -70.77,
    "subregion": "New Hampshire",
    "timezone": "America/New_York",
    "cameras": 0,
    "abilityLevels": [],
    "boardTypes": []
  },
  {
    "id": "5842041f4e65fad6a77089d5",
    "name": "Fox Hill",
    "lat": 42.964,
    "lon": -70.769,
    "subregion": "New Hampshire",
    "timezone": "America/New_York",
    "cameras": 0,
    "abilityLevels": [
      "INTERMEDIATE",
      "ADVANCED"
    ],
    "boardTypes": [
      "SHORTBOARD",
      "GUN"
    ]
  },
  {
    "id": "640a4436b6d7697a67525c94",
    "name": "Costellos",
    "lat": 42.956,
    "lon": -70.7747,
    "subregion": "New Hampshire",
    "timezone": "America/New_York",
    "cameras": 0,
    "abilityLevels": [],
    "boardTypes": []
  },
  {
    "id": "5842041f4e65fad6a77089d7",
    "name": "Plaice Cove",
    "lat": 42.946,
    "lon": -70.786,
    "subregion": "New Hampshire",
    "timezone": "America/New_York",
    "cameras": 0,
    "abilityLevels": [
      "INTERMEDIATE",
      "ADVANCED"
    ],
    "boardTypes": [
      "SHORTBOARD",
      "GUN"
    ]
  },
  {
    "id": "5842041f4e65fad6a77089e9",
    "name": "The Wall",
    "lat": 42.9376373334092,
    "lon": -70.79141,
    "subregion": "New Hampshire",
    "timezone": "America/New_York",
    "cameras": 2,
    "abilityLevels": [
      "BEGINNER",
      "INTERMEDIATE",
      "ADVANCED"
    ],
    "boardTypes": [
      "SHORTBOARD",
      "FUNBOARD",
      "LONGBOARD",
      "FISH",
      "BODYBOARD"
    ]
  },
  {
    "id": "5842041f4e65fad6a77089d9",
    "name": "The Main Beach",
    "lat": 42.911574,
    "lon": -70.80831,
    "subregion": "New Hampshire",
    "timezone": "America/New_York",
    "cameras": 0,
    "abilityLevels": [
      "BEGINNER",
      "INTERMEDIATE",
      "ADVANCED"
    ],
    "boardTypes": [
      "SHORTBOARD",
      "FUNBOARD",
      "LONGBOARD",
      "FISH",
      "BODYBOARD"
    ]
  },
  {
    "id": "5842041f4e65fad6a770884a",
    "name": "Seabrook",
    "lat": 42.88678181061,
    "lon": -70.80843,
    "subregion": "New Hampshire",
    "timezone": "America/New_York",
    "cameras": 1,
    "abilityLevels": [
      "INTERMEDIATE",
      "ADVANCED"
    ],
    "boardTypes": [
      "SHORTBOARD",
      "FUNBOARD"
    ]
  },
  {
    "id": "640a4437606c458192b1c79b",
    "name": "Salisbury",
    "lat": 42.8421,
    "lon": -70.8149,
    "subregion": "Massachusetts North-South Shore",
    "timezone": "America/New_York",
    "cameras": 0,
    "abilityLevels": [],
    "boardTypes": []
  },
  {
    "id": "631ce9f7e2e1e48237c69b66",
    "name": "Plum Island Point",
    "lat": 42.7869,
    "lon": -70.80414,
    "subregion": "Massachusetts North-South Shore",
    "timezone": "America/New_York",
    "cameras": 0,
    "abilityLevels": [],
    "boardTypes": []
  },
  {
    "id": "640a443f4eb375e8089584fc",
    "name": "Crane Beach",
    "lat": 42.6862,
    "lon": -70.7662,
    "subregion": "Massachusetts North-South Shore",
    "timezone": "America/New_York",
    "cameras": 0,
    "abilityLevels": [],
    "boardTypes": []
  },
  {
    "id": "640a443c45190559f09dd82a",
    "name": "Wingaersheek Beach",
    "lat": 42.6501,
    "lon": -70.6842,
    "subregion": "Massachusetts North-South Shore",
    "timezone": "America/New_York",
    "cameras": 0,
    "abilityLevels": [],
    "boardTypes": []
  },
  {
    "id": "640a4439606c45f9e6b1c7ff",
    "name": "Devereux",
    "lat": 42.4911,
    "lon": -70.8569,
    "subregion": "Massachusetts North-South Shore",
    "timezone": "America/New_York",
    "cameras": 0,
    "abilityLevels": [],
    "boardTypes": []
  },
  {
    "id": "5a1f05fa0f87fe001a0c70da",
    "name": "Good Harbor Beach",
    "lat": 42.619686254291125,
    "lon": -70.63175,
    "subregion": "Massachusetts North-South Shore",
    "timezone": "America/New_York",
    "cameras": 1,
    "abilityLevels": [],
    "boardTypes": []
  },
  {
    "id": "60492d724fa375a2d2c902f0",
    "name": "Cape Ann",
    "lat": 42.6276,
    "lon": -70.617,
    "subregion": "Massachusetts North-South Shore",
    "timezone": "America/New_York",
    "cameras": 0,
    "abilityLevels": [
      "INTERMEDIATE",
      "ADVANCED"
    ],
    "boardTypes": [
      "SHORTBOARD",
      "FISH",
      "FUNBOARD",
      "LONGBOARD"
    ]
  },
  {
    "id": "5bda246253479f0001e1d7bb",
    "name": "Lynn Beach",
    "lat": 42.467182901529426,
    "lon": -70.92082329494508,
    "subregion": "Massachusetts North-South Shore",
    "timezone": "America/New_York",
    "cameras": 0,
    "abilityLevels": [],
    "boardTypes": []
  },
  {
    "id": "5a1ef708aa1aea001b27be37",
    "name": "Nahant Beach",
    "lat": 42.442841200072706,
    "lon": -70.93894,
    "subregion": "Massachusetts North-South Shore",
    "timezone": "America/New_York",
    "cameras": 1,
    "abilityLevels": [
      "INTERMEDIATE",
      "ADVANCED"
    ],
    "boardTypes": [
      "SHORTBOARD",
      "FISH",
      "FUNBOARD",
      "LONGBOARD",
      "KITEBOARD"
    ]
  },
  {
    "id": "640a443a99dd4448c804589b",
    "name": "Revere Beach",
    "lat": 42.4202,
    "lon": -70.9853,
    "subregion": "Massachusetts North-South Shore",
    "timezone": "America/New_York",
    "cameras": 1,
    "abilityLevels": [],
    "boardTypes": []
  },
  {
    "id": "59a5ee7d88c219001207e53a",
    "name": "Winthrop Jetty",
    "lat": 42.370846966800535,
    "lon": -70.9670877456665,
    "subregion": "Massachusetts North-South Shore",
    "timezone": "America/New_York",
    "cameras": 0,
    "abilityLevels": [],
    "boardTypes": []
  },
  {
    "id": "640a443d4eb37550f1958492",
    "name": "Yirrell Beach",
    "lat": 42.3626,
    "lon": -70.9695,
    "subregion": "Massachusetts North-South Shore",
    "timezone": "America/New_York",
    "cameras": 0,
    "abilityLevels": [],
    "boardTypes": []
  },
  {
    "id": "5842041f4e65fad6a77089d1",
    "name": "Nantasket Beach",
    "lat": 42.27916830233153,
    "lon": -70.86498,
    "subregion": "Massachusetts North-South Shore",
    "timezone": "America/New_York",
    "cameras": 1,
    "abilityLevels": [
      "BEGINNER",
      "INTERMEDIATE",
      "ADVANCED"
    ],
    "boardTypes": [
      "FUNBOARD",
      "LONGBOARD",
      "FISH"
    ]
  },
  {
    "id": "5842041f4e65fad6a77089d3",
    "name": "Egypt Beach",
    "lat": 42.22055448975661,
    "lon": -70.70634873403819,
    "subregion": "Massachusetts North-South Shore",
    "timezone": "America/New_York",
    "cameras": 0,
    "abilityLevels": [
      "BEGINNER",
      "INTERMEDIATE",
      "ADVANCED"
    ],
    "boardTypes": [
      "FUNBOARD",
      "LONGBOARD"
    ]
  },
  {
    "id": "640a4440b6d7695492525f07",
    "name": "Scituate",
    "lat": 42.1886,
    "lon": -70.715,
    "subregion": "Cape Cod",
    "timezone": "America/New_York",
    "cameras": 0,
    "abilityLevels": [],
    "boardTypes": []
  },
  {
    "id": "640a444e4eb375aa349588f3",
    "name": "Rexhame",
    "lat": 42.123718,
    "lon": -70.67765,
    "subregion": "Cape Cod",
    "timezone": "America/New_York",
    "cameras": 0,
    "abilityLevels": [],
    "boardTypes": []
  },
  {
    "id": "640a444245190598ad9dd9a9",
    "name": "Green Harbor",
    "lat": 42.0757,
    "lon": -70.645,
    "subregion": "Cape Cod",
    "timezone": "America/New_York",
    "cameras": 0,
    "abilityLevels": [],
    "boardTypes": []
  },
  {
    "id": "640a44454eb375972b9586a2",
    "name": "Plymouth Beach",
    "lat": 41.9435,
    "lon": -70.6243,
    "subregion": "Cape Cod",
    "timezone": "America/New_York",
    "cameras": 0,
    "abilityLevels": [],
    "boardTypes": []
  },
  {
    "id": "640a444a99dd447726045c7e",
    "name": "Keyes Memorial Beach",
    "lat": 41.6354,
    "lon": -70.2911,
    "subregion": "Cape Cod",
    "timezone": "America/New_York",
    "cameras": 0,
    "abilityLevels": [],
    "boardTypes": []
  },
  {
    "id": "61d73b2c925f8bda3d46c4ed",
    "name": "South Beach State Park",
    "lat": 41.349542,
    "lon": -70.53112,
    "subregion": "Cape Cod",
    "timezone": "America/New_York",
    "cameras": 0,
    "abilityLevels": [],
    "boardTypes": []
  },
  {
    "id": "61d644140522854ffeb51b55",
    "name": "Madaket",
    "lat": 41.270684,
    "lon": -70.20466,
    "subregion": "Cape Cod",
    "timezone": "America/New_York",
    "cameras": 0,
    "abilityLevels": [],
    "boardTypes": []
  },
  {
    "id": "584204204e65fad6a77099a0",
    "name": "Nauset Beach",
    "lat": 41.786593,
    "lon": -69.932929,
    "subregion": "Cape Cod",
    "timezone": "America/New_York",
    "cameras": 0,
    "abilityLevels": [
      "BEGINNER",
      "INTERMEDIATE",
      "ADVANCED"
    ],
    "boardTypes": [
      "SHORTBOARD",
      "FUNBOARD",
      "LONGBOARD",
      "FISH",
      "BODYBOARD",
      "SKIMMING",
      "BODYSURFING"
    ]
  },
  {
    "id": "5842041f4e65fad6a77089d2",
    "name": "Cape Cod",
    "lat": 41.817,
    "lon": -69.935,
    "subregion": "Cape Cod",
    "timezone": "America/New_York",
    "cameras": 0,
    "abilityLevels": [
      "BEGINNER",
      "INTERMEDIATE",
      "ADVANCED"
    ],
    "boardTypes": [
      "SHORTBOARD",
      "FUNBOARD",
      "LONGBOARD",
      "FISH"
    ]
  },
  {
    "id": "584204204e65fad6a770999f",
    "name": "Coast Guard Beach",
    "lat": 41.843765,
    "lon": -69.94229,
    "subregion": "Cape Cod",
    "timezone": "America/New_York",
    "cameras": 0,
    "abilityLevels": [
      "BEGINNER",
      "INTERMEDIATE",
      "ADVANCED"
    ],
    "boardTypes": [
      "SHORTBOARD",
      "FUNBOARD",
      "LONGBOARD",
      "FISH",
      "BODYBOARD",
      "SKIMMING",
      "BODYSURFING"
    ]
  },
  {
    "id": "584204204e65fad6a770999e",
    "name": "Nauset Light Beach",
    "lat": 41.859,
    "lon": -69.948927,
    "subregion": "Cape Cod",
    "timezone": "America/New_York",
    "cameras": 0,
    "abilityLevels": [
      "BEGINNER",
      "INTERMEDIATE",
      "ADVANCED"
    ],
    "boardTypes": [
      "SHORTBOARD",
      "FUNBOARD",
      "LONGBOARD",
      "FISH",
      "BODYBOARD",
      "SKIMMING",
      "BODYSURFING"
    ]
  },
  {
    "id": "584204204e65fad6a77099a1",
    "name": "Marconi Beach",
    "lat": 41.891853,
    "lon": -69.95944,
    "subregion": "Cape Cod",
    "timezone": "America/New_York",
    "cameras": 0,
    "abilityLevels": [
      "BEGINNER",
      "INTERMEDIATE",
      "ADVANCED"
    ],
    "boardTypes": [
      "SHORTBOARD",
      "FUNBOARD",
      "LONGBOARD",
      "FISH",
      "BODYBOARD",
      "SKIMMING",
      "BODYSURFING"
    ]
  },
  {
    "id": "640a4447606c4553d6b1cb3d",
    "name": "Maguire Landing Beach",
    "lat": 41.9217,
    "lon": -69.9733,
    "subregion": "Cape Cod",
    "timezone": "America/New_York",
    "cameras": 0,
    "abilityLevels": [],
    "boardTypes": []
  },
  {
    "id": "61ddc20189c49db1e4e6700a",
    "name": "Cahoon Hollow Beach",
    "lat": 41.944362,
    "lon": -69.9839,
    "subregion": "Cape Cod",
    "timezone": "America/New_York",
    "cameras": 0,
    "abilityLevels": [],
    "boardTypes": []
  },
  {
    "id": "5b294eab3e2942001a8a0b2a",
    "name": "Head of the Meadow Beach",
    "lat": 42.056216952255454,
    "lon": -70.08507916548956,
    "subregion": "Cape Cod",
    "timezone": "America/New_York",
    "cameras": 0,
    "abilityLevels": [],
    "boardTypes": []
  },
  {
    "id": "5842041f4e65fad6a7708e33",
    "name": "Long Point",
    "lat": 41.34805,
    "lon": -70.63315,
    "subregion": "Cape Cod",
    "timezone": "America/New_York",
    "cameras": 0,
    "abilityLevels": [],
    "boardTypes": []
  },
  {
    "id": "640a4443e92030d12d9f048c",
    "name": "Abels Hill",
    "lat": 41.3422,
    "lon": -70.7076,
    "subregion": "Cape Cod",
    "timezone": "America/New_York",
    "cameras": 0,
    "abilityLevels": [],
    "boardTypes": []
  },
  {
    "id": "61d73d1e59bcde7e237b4653",
    "name": "Lucy Vincent",
    "lat": 41.339007,
    "lon": -70.72429,
    "subregion": "Cape Cod",
    "timezone": "America/New_York",
    "cameras": 0,
    "abilityLevels": [],
    "boardTypes": []
  },
  {
    "id": "61d7420a5a373439bb747bea",
    "name": "Squibnocket",
    "lat": 41.315015,
    "lon": -70.76408,
    "subregion": "Cape Cod",
    "timezone": "America/New_York",
    "cameras": 0,
    "abilityLevels": [],
    "boardTypes": []
  },
  {
    "id": "640a444c451905ed699ddc2f",
    "name": "Chandy's",
    "lat": 41.495,
    "lon": -71.04,
    "subregion": "Cape Cod",
    "timezone": "America/New_York",
    "cameras": 0,
    "abilityLevels": [],
    "boardTypes": []
  },
  {
    "id": "61d6404c154e0ff2378bf9b5",
    "name": "Cisco",
    "lat": 41.251667,
    "lon": -70.15372,
    "subregion": "Cape Cod",
    "timezone": "America/New_York",
    "cameras": 0,
    "abilityLevels": [],
    "boardTypes": []
  },
  {
    "id": "640a44494eb375a470958784",
    "name": "Miacomet Rd.",
    "lat": 41.24292,
    "lon": -70.11844,
    "subregion": "Cape Cod",
    "timezone": "America/New_York",
    "cameras": 0,
    "abilityLevels": [],
    "boardTypes": []
  },
  {
    "id": "61d6421e39740602d9f571d5",
    "name": "Nobadeer",
    "lat": 41.243801,
    "lon": -70.06894,
    "subregion": "Cape Cod",
    "timezone": "America/New_York",
    "cameras": 1,
    "abilityLevels": [],
    "boardTypes": []
  },
  {
    "id": "5842041f4e65fad6a7708e34",
    "name": "Nantucket",
    "lat": 41.24374,
    "lon": -70.05947,
    "subregion": "Cape Cod",
    "timezone": "America/New_York",
    "cameras": 0,
    "abilityLevels": [
      "BEGINNER",
      "INTERMEDIATE",
      "ADVANCED"
    ],
    "boardTypes": [
      "SHORTBOARD",
      "FISH",
      "FUNBOARD",
      "LONGBOARD"
    ]
  },
  {
    "id": "61d63cc9bfe591ed32800605",
    "name": "Madaquecham",
    "lat": 41.242659,
    "lon": -70.04464,
    "subregion": "Cape Cod",
    "timezone": "America/New_York",
    "cameras": 0,
    "abilityLevels": [],
    "boardTypes": []
  },
  {
    "id": "5842041f4e65fad6a7708ddc",
    "name": "Misquamicut State Beach",
    "lat": 41.32227463715753,
    "lon": -71.80342,
    "subregion": "Rhode Island",
    "timezone": "America/New_York",
    "cameras": 1,
    "abilityLevels": [
      "INTERMEDIATE"
    ],
    "boardTypes": [
      "SHORTBOARD",
      "FISH",
      "FUNBOARD",
      "LONGBOARD"
    ]
  },
  {
    "id": "640a445d606c451bb8b1d11c",
    "name": "Dunes Park Beach",
    "lat": 41.3287,
    "lon": -71.765,
    "subregion": "Rhode Island",
    "timezone": "America/New_York",
    "cameras": 0,
    "abilityLevels": [],
    "boardTypes": []
  },
  {
    "id": "640a445645190595ee9ddf09",
    "name": "Weekapaug",
    "lat": 41.3284,
    "lon": -71.7617,
    "subregion": "Rhode Island",
    "timezone": "America/New_York",
    "cameras": 0,
    "abilityLevels": [],
    "boardTypes": []
  },
  {
    "id": "640a44584eb375dd11958ba2",
    "name": "East Beach",
    "lat": 41.3447,
    "lon": -71.681,
    "subregion": "Rhode Island",
    "timezone": "America/New_York",
    "cameras": 0,
    "abilityLevels": [],
    "boardTypes": []
  },
  {
    "id": "640a445345190525ac9dde13",
    "name": "Breachway",
    "lat": 41.3541,
    "lon": -71.6393,
    "subregion": "Rhode Island",
    "timezone": "America/New_York",
    "cameras": 0,
    "abilityLevels": [],
    "boardTypes": []
  },
  {
    "id": "61d89360292512a9ec939f8e",
    "name": "Mansion Beach",
    "lat": 41.201119,
    "lon": -71.56091,
    "subregion": "Rhode Island",
    "timezone": "America/New_York",
    "cameras": 0,
    "abilityLevels": [],
    "boardTypes": []
  },
  {
    "id": "61d4c5b258d4169d9b937806",
    "name": "Green Hill",
    "lat": 41.36425,
    "lon": -71.60114,
    "subregion": "Rhode Island",
    "timezone": "America/New_York",
    "cameras": 0,
    "abilityLevels": [],
    "boardTypes": []
  },
  {
    "id": "5842041f4e65fad6a7708e40",
    "name": "Matunuck",
    "lat": 41.373347,
    "lon": -71.53876,
    "subregion": "Rhode Island",
    "timezone": "America/New_York",
    "cameras": 2,
    "abilityLevels": [
      "INTERMEDIATE",
      "ADVANCED"
    ],
    "boardTypes": [
      "SHORTBOARD",
      "FISH",
      "FUNBOARD",
      "LONGBOARD"
    ]
  },
  {
    "id": "640a4459b6d7690016526562",
    "name": "Deep Hole",
    "lat": 41.3725,
    "lon": -71.5351,
    "subregion": "Rhode Island",
    "timezone": "America/New_York",
    "cameras": 0,
    "abilityLevels": [],
    "boardTypes": []
  },
  {
    "id": "640a445b99dd440b2d0460e4",
    "name": "Salty Brine State Beach",
    "lat": 41.3751,
    "lon": -71.5116,
    "subregion": "Rhode Island",
    "timezone": "America/New_York",
    "cameras": 0,
    "abilityLevels": [],
    "boardTypes": []
  },
  {
    "id": "640a4455b6d769837e526420",
    "name": "K38/39",
    "lat": 41.367,
    "lon": -71.4947,
    "subregion": "Rhode Island",
    "timezone": "America/New_York",
    "cameras": 0,
    "abilityLevels": [],
    "boardTypes": []
  },
  {
    "id": "5842041f4e65fad6a77089cb",
    "name": "Point Judith",
    "lat": 41.362631366305415,
    "lon": -71.48007,
    "subregion": "Rhode Island",
    "timezone": "America/New_York",
    "cameras": 1,
    "abilityLevels": [
      "INTERMEDIATE",
      "ADVANCED"
    ],
    "boardTypes": [
      "SHORTBOARD",
      "FISH",
      "FUNBOARD",
      "LONGBOARD",
      "SUP",
      "BODYBOARD"
    ]
  },
  {
    "id": "589a447b904aae00147f95e0",
    "name": "Point Judith North",
    "lat": 41.374592978501475,
    "lon": -71.48096465854906,
    "subregion": "Rhode Island",
    "timezone": "America/New_York",
    "cameras": 0,
    "abilityLevels": [],
    "boardTypes": []
  },
  {
    "id": "5fca8370b82226a61da839f2",
    "name": "Scarborough State Beach",
    "lat": 41.38988,
    "lon": -71.47133,
    "subregion": "Rhode Island",
    "timezone": "America/New_York",
    "cameras": 0,
    "abilityLevels": [],
    "boardTypes": []
  },
  {
    "id": "5842041f4e65fad6a77089cd",
    "name": "Monahan's - Narragansett",
    "lat": 41.422678090954726,
    "lon": -71.45413,
    "subregion": "Rhode Island",
    "timezone": "America/New_York",
    "cameras": 0,
    "abilityLevels": [
      "ADVANCED"
    ],
    "boardTypes": [
      "SHORTBOARD"
    ]
  },
  {
    "id": "5842041f4e65fad6a770884e",
    "name": "Narragansett",
    "lat": 41.434181432898335,
    "lon": -71.45312,
    "subregion": "Rhode Island",
    "timezone": "America/New_York",
    "cameras": 1,
    "abilityLevels": [
      "BEGINNER"
    ],
    "boardTypes": [
      "SHORTBOARD",
      "FISH",
      "FUNBOARD",
      "LONGBOARD",
      "BODYBOARD"
    ]
  },
  {
    "id": "640a444fe9203027939f0775",
    "name": "Bailey's Beach",
    "lat": 41.4557,
    "lon": -71.313,
    "subregion": "Rhode Island",
    "timezone": "America/New_York",
    "cameras": 0,
    "abilityLevels": [],
    "boardTypes": []
  },
  {
    "id": "5842041f4e65fad6a77089ce",
    "name": "Ruggles",
    "lat": 41.469,
    "lon": -71.293,
    "subregion": "Rhode Island",
    "timezone": "America/New_York",
    "cameras": 0,
    "abilityLevels": [
      "ADVANCED"
    ],
    "boardTypes": [
      "SHORTBOARD",
      "FISH",
      "BODYBOARD",
      "SUP",
      "GUN"
    ]
  },
  {
    "id": "5842041f4e65fad6a77089d0",
    "name": "First Beach",
    "lat": 41.487408,
    "lon": -71.29017,
    "subregion": "Rhode Island",
    "timezone": "America/New_York",
    "cameras": 2,
    "abilityLevels": [
      "BEGINNER",
      "INTERMEDIATE",
      "ADVANCED"
    ],
    "boardTypes": [
      "SHORTBOARD",
      "FISH",
      "FUNBOARD",
      "LONGBOARD",
      "BODYBOARD",
      "SUP",
      "SKIMMING",
      "BODYSURFING"
    ]
  },
  {
    "id": "5842041f4e65fad6a77089d4",
    "name": "Second Beach",
    "lat": 41.48739647744607,
    "lon": -71.25723,
    "subregion": "Rhode Island",
    "timezone": "America/New_York",
    "cameras": 3,
    "abilityLevels": [
      "BEGINNER",
      "INTERMEDIATE",
      "ADVANCED"
    ],
    "boardTypes": [
      "SHORTBOARD",
      "FISH",
      "FUNBOARD",
      "LONGBOARD",
      "BODYBOARD",
      "SUP"
    ]
  },
  {
    "id": "640a44514eb375711f9589c5",
    "name": "Sakonnet",
    "lat": 41.45971,
    "lon": -71.19669,
    "subregion": "Rhode Island",
    "timezone": "America/New_York",
    "cameras": 0,
    "abilityLevels": [],
    "boardTypes": []
  },
  {
    "id": "61d4c98b58d4169c0d944096",
    "name": "South Shore Beach",
    "lat": 41.4929,
    "lon": -71.1358,
    "subregion": "Rhode Island",
    "timezone": "America/New_York",
    "cameras": 0,
    "abilityLevels": [],
    "boardTypes": []
  },
  {
    "id": "61d88f4b59bcde3d99bb60e2",
    "name": "Black Rock Point",
    "lat": 41.145758,
    "lon": -71.59174,
    "subregion": "Rhode Island",
    "timezone": "America/New_York",
    "cameras": 0,
    "abilityLevels": [],
    "boardTypes": []
  },
  {
    "id": "5842041f4e65fad6a77089e4",
    "name": "Gilgo Beach",
    "lat": 40.61695351251805,
    "lon": -73.39376,
    "subregion": "Suffolk County",
    "timezone": "America/New_York",
    "cameras": 1,
    "abilityLevels": [
      "BEGINNER",
      "INTERMEDIATE",
      "ADVANCED"
    ],
    "boardTypes": [
      "SHORTBOARD",
      "FISH",
      "FUNBOARD",
      "LONGBOARD",
      "BODYBOARD"
    ]
  },
  {
    "id": "5842041f4e65fad6a77089e5",
    "name": "Robert Moses",
    "lat": 40.62530081928036,
    "lon": -73.23827,
    "subregion": "Suffolk County",
    "timezone": "America/New_York",
    "cameras": 0,
    "abilityLevels": [
      "BEGINNER",
      "INTERMEDIATE"
    ],
    "boardTypes": [
      "SHORTBOARD",
      "FISH",
      "FUNBOARD",
      "LONGBOARD",
      "BODYBOARD"
    ]
  },
  {
    "id": "5b2bd450dccc83001b2945d1",
    "name": "Fair Harbor",
    "lat": 40.63650785479496,
    "lon": -73.18305,
    "subregion": "Suffolk County",
    "timezone": "America/New_York",
    "cameras": 1,
    "abilityLevels": [],
    "boardTypes": []
  },
  {
    "id": "61dde4ddb4b2c3a4feaf631d",
    "name": "Atlantique Beach",
    "lat": 40.64036,
    "lon": -73.17109,
    "subregion": "Suffolk County",
    "timezone": "America/New_York",
    "cameras": 0,
    "abilityLevels": [],
    "boardTypes": []
  },
  {
    "id": "5842041f4e65fad6a77089e6",
    "name": "Fire Island",
    "lat": 40.64313317632791,
    "lon": -73.15727,
    "subregion": "Suffolk County",
    "timezone": "America/New_York",
    "cameras": 1,
    "abilityLevels": [
      "BEGINNER",
      "INTERMEDIATE",
      "ADVANCED"
    ],
    "boardTypes": [
      "SHORTBOARD",
      "FISH",
      "FUNBOARD",
      "LONGBOARD",
      "BODYBOARD"
    ]
  },
  {
    "id": "61ddc89c7c0a2277bc22e488",
    "name": "Ocean Beach",
    "lat": 40.643419,
    "lon": -73.15463,
    "subregion": "Suffolk County",
    "timezone": "America/New_York",
    "cameras": 0,
    "abilityLevels": [],
    "boardTypes": []
  },
  {
    "id": "630d15b94da1386a8cbcfefe",
    "name": "Ocean Bay Park",
    "lat": 40.647928,
    "lon": -73.13683,
    "subregion": "Suffolk County",
    "timezone": "America/New_York",
    "cameras": 1,
    "abilityLevels": [],
    "boardTypes": []
  },
  {
    "id": "61dde34e0d5ded2856fca851",
    "name": "Point O\u2019 Woods",
    "lat": 40.649379,
    "lon": -73.12779,
    "subregion": "Suffolk County",
    "timezone": "America/New_York",
    "cameras": 0,
    "abilityLevels": [],
    "boardTypes": []
  },
  {
    "id": "5943589de98ad90013191e1d",
    "name": "Davis Park",
    "lat": 40.684146289004,
    "lon": -73.00124,
    "subregion": "Suffolk County",
    "timezone": "America/New_York",
    "cameras": 3,
    "abilityLevels": [],
    "boardTypes": []
  },
  {
    "id": "5ff7a8655ee637576fdcb1c9",
    "name": "Smith Point County Park",
    "lat": 40.732939,
    "lon": -72.86227,
    "subregion": "Suffolk County",
    "timezone": "America/New_York",
    "cameras": 0,
    "abilityLevels": [],
    "boardTypes": []
  },
  {
    "id": "5842041f4e65fad6a77089e8",
    "name": "Cupsogue",
    "lat": 40.76653118828782,
    "lon": -72.7458,
    "subregion": "Suffolk County",
    "timezone": "America/New_York",
    "cameras": 0,
    "abilityLevels": [
      "BEGINNER",
      "INTERMEDIATE",
      "ADVANCED"
    ],
    "boardTypes": [
      "SHORTBOARD",
      "FISH",
      "FUNBOARD",
      "LONGBOARD",
      "BODYBOARD"
    ]
  },
  {
    "id": "584204214e65fad6a7709d07",
    "name": "Dune Rd. West",
    "lat": 40.776524,
    "lon": -72.7079,
    "subregion": "Suffolk County",
    "timezone": "America/New_York",
    "cameras": 0,
    "abilityLevels": [
      "BEGINNER",
      "INTERMEDIATE",
      "ADVANCED"
    ],
    "boardTypes": [
      "SHORTBOARD",
      "FISH",
      "FUNBOARD",
      "LONGBOARD",
      "BODYBOARD"
    ]
  },
  {
    "id": "5842041f4e65fad6a77089f7",
    "name": "K Road",
    "lat": 40.83372943645748,
    "lon": -72.50426173210144,
    "subregion": "Suffolk County",
    "timezone": "America/New_York",
    "cameras": 0,
    "abilityLevels": [
      "INTERMEDIATE",
      "ADVANCED"
    ],
    "boardTypes": [
      "SHORTBOARD",
      "FUNBOARD",
      "FISH",
      "BODYBOARD"
    ]
  },
  {
    "id": "5842041f4e65fad6a77089f3",
    "name": "The Bowl",
    "lat": 40.84077769766295,
    "lon": -72.47989493724765,
    "subregion": "Suffolk County",
    "timezone": "America/New_York",
    "cameras": 0,
    "abilityLevels": [
      "INTERMEDIATE",
      "ADVANCED"
    ],
    "boardTypes": [
      "SHORTBOARD",
      "FISH",
      "FUNBOARD",
      "LONGBOARD",
      "BODYBOARD"
    ]
  },
  {
    "id": "584204204e65fad6a770945d",
    "name": "Coopers Beach",
    "lat": 40.862803,
    "lon": -72.403986,
    "subregion": "Suffolk County",
    "timezone": "America/New_York",
    "cameras": 0,
    "abilityLevels": [],
    "boardTypes": []
  },
  {
    "id": "5842041f4e65fad6a77089ea",
    "name": "Flys",
    "lat": 40.887088,
    "lon": -72.33856,
    "subregion": "Suffolk County",
    "timezone": "America/New_York",
    "cameras": 0,
    "abilityLevels": [
      "INTERMEDIATE",
      "ADVANCED"
    ],
    "boardTypes": [
      "SHORTBOARD",
      "FISH",
      "FUNBOARD",
      "LONGBOARD",
      "BODYBOARD"
    ]
  },
  {
    "id": "630d4aa0b0a14577f1a09ec7",
    "name": "Georgica Beach",
    "lat": 40.9339739,
    "lon": -72.2166,
    "subregion": "Suffolk County",
    "timezone": "America/New_York",
    "cameras": 0,
    "abilityLevels": [],
    "boardTypes": []
  },
  {
    "id": "584204204e65fad6a7709682",
    "name": "East Hampton Beach",
    "lat": 40.94040868703374,
    "lon": -72.19686985015869,
    "subregion": "Suffolk County",
    "timezone": "America/New_York",
    "cameras": 0,
    "abilityLevels": [
      "BEGINNER",
      "INTERMEDIATE"
    ],
    "boardTypes": [
      "SHORTBOARD",
      "FISH",
      "FUNBOARD",
      "LONGBOARD",
      "BODYBOARD"
    ]
  },
  {
    "id": "5842041f4e65fad6a77089f4",
    "name": "Main Beach",
    "lat": 40.94235535243154,
    "lon": -72.19286,
    "subregion": "Suffolk County",
    "timezone": "America/New_York",
    "cameras": 1,
    "abilityLevels": [
      "INTERMEDIATE",
      "ADVANCED",
      "PRO"
    ],
    "boardTypes": [
      "SHORTBOARD",
      "FUNBOARD"
    ]
  },
  {
    "id": "61d730c3b7c0673101486233",
    "name": "Indian Wells Beach",
    "lat": 40.962199,
    "lon": -72.13652,
    "subregion": "Suffolk County",
    "timezone": "America/New_York",
    "cameras": 0,
    "abilityLevels": [],
    "boardTypes": []
  },
  {
    "id": "640a446845190541689de4a0",
    "name": "Napeague Beach",
    "lat": 40.9931,
    "lon": -72.0484,
    "subregion": "Suffolk County",
    "timezone": "America/New_York",
    "cameras": 0,
    "abilityLevels": [],
    "boardTypes": []
  },
  {
    "id": "59e4fcf7149cf2001b850f34",
    "name": "Hither Hills State Park",
    "lat": 41.00764478389438,
    "lon": -72.00916,
    "subregion": "Suffolk County",
    "timezone": "America/New_York",
    "cameras": 2,
    "abilityLevels": [
      "BEGINNER",
      "INTERMEDIATE",
      "ADVANCED"
    ],
    "boardTypes": [
      "SHORTBOARD",
      "FISH",
      "FUNBOARD",
      "LONGBOARD",
      "BODYBOARD"
    ]
  },
  {
    "id": "5842041f4e65fad6a77089f6",
    "name": "Terrace",
    "lat": 41.033752854071416,
    "lon": -71.93696,
    "subregion": "Suffolk County",
    "timezone": "America/New_York",
    "cameras": 1,
    "abilityLevels": [
      "BEGINNER",
      "INTERMEDIATE",
      "ADVANCED"
    ],
    "boardTypes": [
      "SHORTBOARD",
      "FISH"
    ]
  },
  {
    "id": "640a44634eb3751e8a958ea1",
    "name": "Fortress",
    "lat": 41.0347,
    "lon": -71.9286,
    "subregion": "Suffolk County",
    "timezone": "America/New_York",
    "cameras": 0,
    "abilityLevels": [],
    "boardTypes": []
  },
  {
    "id": "5842041f4e65fad6a77089f1",
    "name": "Poles",
    "lat": 41.038286691230795,
    "lon": -71.91991567611694,
    "subregion": "Suffolk County",
    "timezone": "America/New_York",
    "cameras": 0,
    "abilityLevels": [
      "BEGINNER",
      "INTERMEDIATE"
    ],
    "boardTypes": [
      "FISH",
      "LONGBOARD"
    ]
  },
  {
    "id": "5842041f4e65fad6a77089ec",
    "name": "Ditch Plains",
    "lat": 41.039505402729105,
    "lon": -71.9142,
    "subregion": "Suffolk County",
    "timezone": "America/New_York",
    "cameras": 0,
    "abilityLevels": [
      "BEGINNER",
      "INTERMEDIATE",
      "ADVANCED"
    ],
    "boardTypes": [
      "SHORTBOARD",
      "FISH",
      "FUNBOARD",
      "LONGBOARD"
    ]
  },
  {
    "id": "5842041f4e65fad6a77089eb",
    "name": "Trailer Park",
    "lat": 41.0389266436591,
    "lon": -71.91068529316958,
    "subregion": "Suffolk County",
    "timezone": "America/New_York",
    "cameras": 0,
    "abilityLevels": [
      "INTERMEDIATE",
      "ADVANCED"
    ],
    "boardTypes": [
      "FISH",
      "FUNBOARD",
      "LONGBOARD"
    ]
  },
  {
    "id": "62e83ee344826a2de65b2a47",
    "name": "Camp Hero",
    "lat": 41.05379,
    "lon": -71.87243,
    "subregion": "Suffolk County",
    "timezone": "America/New_York",
    "cameras": 0,
    "abilityLevels": [],
    "boardTypes": []
  },
  {
    "id": "640a446599dd44ecab046444",
    "name": "Turtle Cove",
    "lat": 41.0722,
    "lon": -71.8558,
    "subregion": "Suffolk County",
    "timezone": "America/New_York",
    "cameras": 0,
    "abilityLevels": [],
    "boardTypes": []
  },
  {
    "id": "640a446199dd442b2f04627f",
    "name": "North Bar",
    "lat": 41.0748,
    "lon": -71.8596,
    "subregion": "Suffolk County",
    "timezone": "America/New_York",
    "cameras": 0,
    "abilityLevels": [],
    "boardTypes": []
  },
  {
    "id": "6418e43893265b32e3190354",
    "name": "Meudon Beach",
    "lat": 40.902,
    "lon": -73.6034,
    "subregion": "Long Island Sound",
    "timezone": "America/New_York",
    "cameras": 0,
    "abilityLevels": [],
    "boardTypes": []
  },
  {
    "id": "6418e43d9702723cf8880d75",
    "name": "Historic Park Fishing Beach",
    "lat": 40.9409,
    "lon": -73.4745,
    "subregion": "Long Island Sound",
    "timezone": "America/New_York",
    "cameras": 0,
    "abilityLevels": [],
    "boardTypes": []
  },
  {
    "id": "5842041f4e65fad6a77089fb",
    "name": "Breezy Point",
    "lat": 40.54698301868125,
    "lon": -73.9268,
    "subregion": "Nassau - Queens County",
    "timezone": "America/New_York",
    "cameras": 0,
    "abilityLevels": [
      "INTERMEDIATE",
      "ADVANCED"
    ],
    "boardTypes": [
      "SHORTBOARD",
      "FISH",
      "FUNBOARD",
      "LONGBOARD",
      "BODYBOARD"
    ]
  },
  {
    "id": "5842041f4e65fad6a7708852",
    "name": "Rockaways",
    "lat": 40.58342841721757,
    "lon": -73.81182,
    "subregion": "Nassau - Queens County",
    "timezone": "America/New_York",
    "cameras": 6,
    "abilityLevels": [
      "BEGINNER",
      "INTERMEDIATE",
      "ADVANCED"
    ],
    "boardTypes": [
      "SHORTBOARD",
      "FISH",
      "FUNBOARD",
      "LONGBOARD",
      "BODYBOARD"
    ]
  },
  {
    "id": "5842041f4e65fad6a77089fd",
    "name": "30th - 39th Streets",
    "lat": 40.591277,
    "lon": -73.770792,
    "subregion": "Nassau - Queens County",
    "timezone": "America/New_York",
    "cameras": 0,
    "abilityLevels": [
      "BEGINNER",
      "INTERMEDIATE",
      "ADVANCED"
    ],
    "boardTypes": [
      "SHORTBOARD",
      "FISH",
      "FUNBOARD",
      "LONGBOARD",
      "BODYBOARD"
    ]
  },
  {
    "id": "584204214e65fad6a7709d21",
    "name": "West End, Long Beach",
    "lat": 40.58317888918512,
    "lon": -73.69179,
    "subregion": "Nassau - Queens County",
    "timezone": "America/New_York",
    "cameras": 0,
    "abilityLevels": [
      "BEGINNER",
      "INTERMEDIATE",
      "ADVANCED"
    ],
    "boardTypes": [
      "SHORTBOARD",
      "FISH",
      "FUNBOARD",
      "LONGBOARD",
      "BODYBOARD"
    ]
  },
  {
    "id": "5842041f4e65fad6a77089f5",
    "name": "Laurelton Blvd",
    "lat": 40.58270702399518,
    "lon": -73.67252,
    "subregion": "Nassau - Queens County",
    "timezone": "America/New_York",
    "cameras": 0,
    "abilityLevels": [],
    "boardTypes": []
  },
  {
    "id": "692730e3fdcb83ae81c6acf1",
    "name": "National Blvd",
    "lat": 40.58206,
    "lon": -73.66687,
    "subregion": "Nassau - Queens County",
    "timezone": "America/New_York",
    "cameras": 1,
    "abilityLevels": [],
    "boardTypes": []
  },
  {
    "id": "5842041f4e65fad6a7708850",
    "name": "Lincoln Blvd",
    "lat": 40.582703230722,
    "lon": -73.65247,
    "subregion": "Nassau - Queens County",
    "timezone": "America/New_York",
    "cameras": 2,
    "abilityLevels": [
      "INTERMEDIATE",
      "ADVANCED"
    ],
    "boardTypes": [
      "SHORTBOARD",
      "FISH",
      "LONGBOARD",
      "BODYBOARD"
    ]
  },
  {
    "id": "58dd748982d034001252e3dc",
    "name": "Pacific Blvd",
    "lat": 40.58281730569218,
    "lon": -73.6408,
    "subregion": "Nassau - Queens County",
    "timezone": "America/New_York",
    "cameras": 1,
    "abilityLevels": [],
    "boardTypes": []
  },
  {
    "id": "5842041f4e65fad6a77089e2",
    "name": "Lido Beach",
    "lat": 40.58433,
    "lon": -73.62953,
    "subregion": "Nassau - Queens County",
    "timezone": "America/New_York",
    "cameras": 1,
    "abilityLevels": [
      "INTERMEDIATE",
      "ADVANCED"
    ],
    "boardTypes": [
      "SHORTBOARD",
      "FISH"
    ]
  },
  {
    "id": "5842041f4e65fad6a77089ee",
    "name": "West End, Jones Beach",
    "lat": 40.57633275206492,
    "lon": -73.56895305108567,
    "subregion": "Nassau - Queens County",
    "timezone": "America/New_York",
    "cameras": 0,
    "abilityLevels": [
      "BEGINNER",
      "INTERMEDIATE",
      "ADVANCED"
    ],
    "boardTypes": [
      "SHORTBOARD",
      "FISH",
      "LONGBOARD",
      "BODYBOARD"
    ]
  },
  {
    "id": "640a446fe92030b9ae9f10a8",
    "name": "Jones Beach State Park",
    "lat": 40.59186,
    "lon": -73.50713,
    "subregion": "Nassau - Queens County",
    "timezone": "America/New_York",
    "cameras": 0,
    "abilityLevels": [],
    "boardTypes": []
  },
  {
    "id": "640a446c451905857f9de596",
    "name": "Tobay Beach",
    "lat": 40.6096,
    "lon": -73.4241,
    "subregion": "Nassau - Queens County",
    "timezone": "America/New_York",
    "cameras": 0,
    "abilityLevels": [],
    "boardTypes": []
  },
  {
    "id": "5842041f4e65fad6a7708a05",
    "name": "Sandy Hook",
    "lat": 40.41754,
    "lon": -73.97935,
    "subregion": "North New Jersey",
    "timezone": "America/New_York",
    "cameras": 1,
    "abilityLevels": [
      "INTERMEDIATE",
      "ADVANCED"
    ],
    "boardTypes": [
      "SHORTBOARD",
      "FISH",
      "FUNBOARD",
      "LONGBOARD",
      "BODYBOARD"
    ]
  },
  {
    "id": "5842041f4e65fad6a7708853",
    "name": "Monmouth Beach",
    "lat": 40.330474,
    "lon": -73.9734,
    "subregion": "North New Jersey",
    "timezone": "America/New_York",
    "cameras": 4,
    "abilityLevels": [
      "BEGINNER",
      "INTERMEDIATE",
      "ADVANCED"
    ],
    "boardTypes": [
      "SHORTBOARD",
      "FISH",
      "FUNBOARD",
      "LONGBOARD",
      "BODYBOARD"
    ]
  },
  {
    "id": "630d04654da1381c5cb8aeb7",
    "name": "Long Branch",
    "lat": 40.3048,
    "lon": -73.9767,
    "subregion": "North New Jersey",
    "timezone": "America/New_York",
    "cameras": 2,
    "abilityLevels": [],
    "boardTypes": []
  },
  {
    "id": "61d74f61620dd7a6afb318bc",
    "name": "Deal",
    "lat": 40.241,
    "lon": -73.9922,
    "subregion": "North New Jersey",
    "timezone": "America/New_York",
    "cameras": 0,
    "abilityLevels": [],
    "boardTypes": []
  },
  {
    "id": "5842041f4e65fad6a7708a03",
    "name": "Loch Arbour and Deal",
    "lat": 40.229841,
    "lon": -73.99678,
    "subregion": "North New Jersey",
    "timezone": "America/New_York",
    "cameras": 0,
    "abilityLevels": [
      "INTERMEDIATE",
      "ADVANCED",
      "BEGINNER"
    ],
    "boardTypes": [
      "SHORTBOARD",
      "FISH",
      "FUNBOARD",
      "LONGBOARD",
      "SUP"
    ]
  },
  {
    "id": "61d8c39b59bcde1454c75b7a",
    "name": "Dog Park",
    "lat": 40.22788,
    "lon": -73.99582,
    "subregion": "North New Jersey",
    "timezone": "America/New_York",
    "cameras": 0,
    "abilityLevels": [],
    "boardTypes": []
  },
  {
    "id": "61dcad87d8d80f5add72df95",
    "name": "Boardwalk",
    "lat": 40.22348,
    "lon": -73.99704,
    "subregion": "North New Jersey",
    "timezone": "America/New_York",
    "cameras": 0,
    "abilityLevels": [],
    "boardTypes": []
  },
  {
    "id": "61d8c5f96a05a5870dc4d0ba",
    "name": "Casino",
    "lat": 40.217315,
    "lon": -73.99912,
    "subregion": "North New Jersey",
    "timezone": "America/New_York",
    "cameras": 0,
    "abilityLevels": [],
    "boardTypes": []
  },
  {
    "id": "5842041f4e65fad6a7708a02",
    "name": "Asbury Park",
    "lat": 40.217443,
    "lon": -73.99982,
    "subregion": "North New Jersey",
    "timezone": "America/New_York",
    "cameras": 1,
    "abilityLevels": [
      "BEGINNER",
      "INTERMEDIATE",
      "ADVANCED"
    ],
    "boardTypes": [
      "SHORTBOARD",
      "FISH",
      "FUNBOARD",
      "LONGBOARD",
      "BODYBOARD"
    ]
  },
  {
    "id": "625611325cd9822674fe5031",
    "name": "Ocean Grove",
    "lat": 40.213,
    "lon": -74.0009,
    "subregion": "North New Jersey",
    "timezone": "America/New_York",
    "cameras": 1,
    "abilityLevels": [],
    "boardTypes": []
  },
  {
    "id": "5842041f4e65fad6a77089ff",
    "name": "Bradley Beach",
    "lat": 40.1974229100932,
    "lon": -74.00650533798255,
    "subregion": "North New Jersey",
    "timezone": "America/New_York",
    "cameras": 0,
    "abilityLevels": [
      "BEGINNER",
      "INTERMEDIATE",
      "ADVANCED"
    ],
    "boardTypes": [
      "SHORTBOARD",
      "FISH",
      "FUNBOARD",
      "LONGBOARD",
      "BODYBOARD"
    ]
  },
  {
    "id": "5842041f4e65fad6a77089fe",
    "name": "Avon",
    "lat": 40.18834955871439,
    "lon": -74.00860982500222,
    "subregion": "North New Jersey",
    "timezone": "America/New_York",
    "cameras": 0,
    "abilityLevels": [
      "BEGINNER",
      "INTERMEDIATE",
      "ADVANCED"
    ],
    "boardTypes": [
      "SHORTBOARD",
      "FISH",
      "FUNBOARD",
      "LONGBOARD",
      "BODYBOARD"
    ]
  },
  {
    "id": "5842041f4e65fad6a7708a01",
    "name": "16th Ave., Belmar",
    "lat": 40.17202,
    "lon": -74.01503,
    "subregion": "North New Jersey",
    "timezone": "America/New_York",
    "cameras": 2,
    "abilityLevels": [
      "BEGINNER",
      "INTERMEDIATE",
      "ADVANCED"
    ],
    "boardTypes": [
      "SHORTBOARD",
      "FISH",
      "FUNBOARD",
      "LONGBOARD",
      "BODYBOARD"
    ]
  },
  {
    "id": "5842041f4e65fad6a77089fc",
    "name": "Spring Lake",
    "lat": 40.152504,
    "lon": -74.02138,
    "subregion": "North New Jersey",
    "timezone": "America/New_York",
    "cameras": 0,
    "abilityLevels": [
      "BEGINNER",
      "INTERMEDIATE",
      "ADVANCED"
    ],
    "boardTypes": [
      "SHORTBOARD",
      "FISH",
      "LONGBOARD",
      "BODYBOARD",
      "FUNBOARD",
      "SUP",
      "SKIMMING",
      "BODYSURFING"
    ]
  },
  {
    "id": "5842041f4e65fad6a77089fa",
    "name": "Sea Girt",
    "lat": 40.1319,
    "lon": -74.02788,
    "subregion": "North New Jersey",
    "timezone": "America/New_York",
    "cameras": 0,
    "abilityLevels": [
      "INTERMEDIATE",
      "ADVANCED"
    ],
    "boardTypes": [
      "SHORTBOARD",
      "FISH",
      "FUNBOARD",
      "LONGBOARD",
      "BODYBOARD"
    ]
  },
  {
    "id": "5842041f4e65fad6a7708856",
    "name": "Manasquan Inlet",
    "lat": 40.113,
    "lon": -74.028,
    "subregion": "North New Jersey",
    "timezone": "America/New_York",
    "cameras": 3,
    "abilityLevels": [
      "INTERMEDIATE",
      "ADVANCED"
    ],
    "boardTypes": [
      "SHORTBOARD",
      "FISH",
      "LONGBOARD",
      "BODYBOARD"
    ]
  },
  {
    "id": "5842041f4e65fad6a7708a18",
    "name": "Jenkinson's",
    "lat": 40.094041,
    "lon": -74.034859,
    "subregion": "North New Jersey",
    "timezone": "America/New_York",
    "cameras": 0,
    "abilityLevels": [
      "ADVANCED"
    ],
    "boardTypes": [
      "SHORTBOARD",
      "BODYBOARD"
    ]
  },
  {
    "id": "5842041f4e65fad6a7708a17",
    "name": "Bay Head",
    "lat": 40.0699319967757,
    "lon": -74.04145,
    "subregion": "North New Jersey",
    "timezone": "America/New_York",
    "cameras": 0,
    "abilityLevels": [
      "INTERMEDIATE",
      "ADVANCED",
      "BEGINNER"
    ],
    "boardTypes": [
      "SHORTBOARD",
      "FISH",
      "LONGBOARD"
    ]
  },
  {
    "id": "5842041f4e65fad6a7708bed",
    "name": "Mantoloking",
    "lat": 40.028403115215,
    "lon": -74.04837,
    "subregion": "North New Jersey",
    "timezone": "America/New_York",
    "cameras": 1,
    "abilityLevels": [
      "BEGINNER",
      "INTERMEDIATE",
      "ADVANCED"
    ],
    "boardTypes": [
      "SHORTBOARD",
      "FISH",
      "FUNBOARD",
      "LONGBOARD",
      "BODYBOARD",
      "SUP",
      "SKIMMING",
      "BODYSURFING"
    ]
  },
  {
    "id": "5842041f4e65fad6a7708a16",
    "name": "Lavallette",
    "lat": 39.98313468342945,
    "lon": -74.06265685577506,
    "subregion": "North New Jersey",
    "timezone": "America/New_York",
    "cameras": 0,
    "abilityLevels": [
      "BEGINNER",
      "INTERMEDIATE",
      "ADVANCED"
    ],
    "boardTypes": [
      "SHORTBOARD",
      "FISH",
      "FUNBOARD",
      "LONGBOARD",
      "BODYBOARD"
    ]
  },
  {
    "id": "5842041f4e65fad6a7708a15",
    "name": "Ortley Beach",
    "lat": 39.95745637606704,
    "lon": -74.06736,
    "subregion": "North New Jersey",
    "timezone": "America/New_York",
    "cameras": 1,
    "abilityLevels": [
      "BEGINNER",
      "INTERMEDIATE",
      "ADVANCED"
    ],
    "boardTypes": [
      "SHORTBOARD",
      "FISH",
      "FUNBOARD",
      "LONGBOARD",
      "BODYBOARD"
    ]
  },
  {
    "id": "5842041f4e65fad6a7708857",
    "name": "Casino Pier",
    "lat": 39.941519877445664,
    "lon": -74.06829,
    "subregion": "North New Jersey",
    "timezone": "America/New_York",
    "cameras": 3,
    "abilityLevels": [
      "INTERMEDIATE",
      "ADVANCED"
    ],
    "boardTypes": [
      "SHORTBOARD",
      "FISH",
      "LONGBOARD"
    ]
  },
  {
    "id": "5842041f4e65fad6a7708a12",
    "name": "Seaside Park",
    "lat": 39.91813588078152,
    "lon": -74.07527,
    "subregion": "North New Jersey",
    "timezone": "America/New_York",
    "cameras": 1,
    "abilityLevels": [
      "BEGINNER",
      "INTERMEDIATE",
      "ADVANCED"
    ],
    "boardTypes": [
      "SHORTBOARD",
      "FISH",
      "FUNBOARD",
      "LONGBOARD",
      "BODYBOARD"
    ]
  },
  {
    "id": "5842041f4e65fad6a7708a11",
    "name": "Island Beach State Park",
    "lat": 39.79614,
    "lon": -74.09248,
    "subregion": "North New Jersey",
    "timezone": "America/New_York",
    "cameras": 0,
    "abilityLevels": [
      "INTERMEDIATE",
      "ADVANCED"
    ],
    "boardTypes": [
      "SHORTBOARD",
      "FISH",
      "FUNBOARD",
      "LONGBOARD",
      "BODYBOARD"
    ]
  },
  {
    "id": "640a445fb6d7693e975266df",
    "name": "Barnegat Light",
    "lat": 39.7506,
    "lon": -74.1005,
    "subregion": "South New Jersey",
    "timezone": "America/New_York",
    "cameras": 0,
    "abilityLevels": [],
    "boardTypes": []
  },
  {
    "id": "5842041f4e65fad6a7708a10",
    "name": "Hudson Ave.",
    "lat": 39.692364,
    "lon": -74.14068,
    "subregion": "South New Jersey",
    "timezone": "America/New_York",
    "cameras": 1,
    "abilityLevels": [
      "INTERMEDIATE",
      "ADVANCED"
    ],
    "boardTypes": [
      "SHORTBOARD",
      "BODYBOARD"
    ]
  },
  {
    "id": "5b18410acaa322001aacd67a",
    "name": "Surf City",
    "lat": 39.66170159321389,
    "lon": -74.16176,
    "subregion": "South New Jersey",
    "timezone": "America/New_York",
    "cameras": 1,
    "abilityLevels": [],
    "boardTypes": []
  },
  {
    "id": "5842041f4e65fad6a770885b",
    "name": "Ship Bottom",
    "lat": 39.65080599934257,
    "lon": -74.17146,
    "subregion": "South New Jersey",
    "timezone": "America/New_York",
    "cameras": 1,
    "abilityLevels": [
      "BEGINNER",
      "INTERMEDIATE",
      "ADVANCED"
    ],
    "boardTypes": [
      "SHORTBOARD",
      "FISH",
      "FUNBOARD",
      "LONGBOARD",
      "BODYBOARD"
    ]
  },
  {
    "id": "5b215f6d59c0e0001b0618a9",
    "name": "Long Beach Township",
    "lat": 39.576784061942895,
    "lon": -74.22471,
    "subregion": "South New Jersey",
    "timezone": "America/New_York",
    "cameras": 3,
    "abilityLevels": [],
    "boardTypes": []
  },
  {
    "id": "6642133e0ea431fbcfe96cdc",
    "name": "Beach Haven",
    "lat": 39.56140932482229,
    "lon": -74.23426,
    "subregion": "South New Jersey",
    "timezone": "America/New_York",
    "cameras": 3,
    "abilityLevels": [],
    "boardTypes": []
  },
  {
    "id": "5842041f4e65fad6a7708a0f",
    "name": "Holyoke",
    "lat": 39.552472,
    "lon": -74.24344,
    "subregion": "South New Jersey",
    "timezone": "America/New_York",
    "cameras": 1,
    "abilityLevels": [
      "INTERMEDIATE",
      "ADVANCED"
    ],
    "boardTypes": [
      "SHORTBOARD",
      "FISH",
      "LONGBOARD",
      "BODYBOARD"
    ]
  },
  {
    "id": "5842041f4e65fad6a7708a0e",
    "name": "The Wooden Jetty",
    "lat": 39.531319,
    "lon": -74.26325,
    "subregion": "South New Jersey",
    "timezone": "America/New_York",
    "cameras": 0,
    "abilityLevels": [],
    "boardTypes": []
  },
  {
    "id": "5842041f4e65fad6a7708a0d",
    "name": "14th Street North",
    "lat": 39.413485,
    "lon": -74.35476,
    "subregion": "South New Jersey",
    "timezone": "America/New_York",
    "cameras": 0,
    "abilityLevels": [
      "BEGINNER",
      "INTERMEDIATE",
      "ADVANCED"
    ],
    "boardTypes": [
      "SHORTBOARD",
      "FISH",
      "FUNBOARD",
      "LONGBOARD",
      "BODYBOARD"
    ]
  },
  {
    "id": "58bdecc682d034001252e3d3",
    "name": "Seaside Road",
    "lat": 39.37854673852825,
    "lon": -74.39923,
    "subregion": "South New Jersey",
    "timezone": "America/New_York",
    "cameras": 1,
    "abilityLevels": [],
    "boardTypes": []
  },
  {
    "id": "5842041f4e65fad6a7708a0b",
    "name": "Brigantine Jetty",
    "lat": 39.37274173278517,
    "lon": -74.40454,
    "subregion": "South New Jersey",
    "timezone": "America/New_York",
    "cameras": 0,
    "abilityLevels": [
      "INTERMEDIATE",
      "ADVANCED"
    ],
    "boardTypes": [
      "SHORTBOARD",
      "FISH",
      "FUNBOARD",
      "LONGBOARD",
      "BODYBOARD"
    ]
  },
  {
    "id": "5842041f4e65fad6a7708a06",
    "name": "Crystals",
    "lat": 39.36353,
    "lon": -74.40873,
    "subregion": "South New Jersey",
    "timezone": "America/New_York",
    "cameras": 0,
    "abilityLevels": [
      "INTERMEDIATE",
      "ADVANCED"
    ],
    "boardTypes": [
      "SHORTBOARD",
      "BODYBOARD"
    ]
  },
  {
    "id": "5842041f4e65fad6a7708a0a",
    "name": "New Jersey Avenue",
    "lat": 39.35916,
    "lon": -74.41563,
    "subregion": "South New Jersey",
    "timezone": "America/New_York",
    "cameras": 0,
    "abilityLevels": [
      "BEGINNER",
      "INTERMEDIATE",
      "ADVANCED"
    ],
    "boardTypes": [
      "SHORTBOARD",
      "FISH",
      "FUNBOARD",
      "LONGBOARD",
      "BODYBOARD"
    ]
  },
  {
    "id": "5842041f4e65fad6a7708a0c",
    "name": "South Carolina Avenue",
    "lat": 39.356505,
    "lon": -74.42263,
    "subregion": "South New Jersey",
    "timezone": "America/New_York",
    "cameras": 0,
    "abilityLevels": [
      "BEGINNER",
      "INTERMEDIATE",
      "ADVANCED"
    ],
    "boardTypes": [
      "SHORTBOARD",
      "FISH",
      "FUNBOARD",
      "LONGBOARD",
      "BODYBOARD"
    ]
  },
  {
    "id": "6418e42c93265bdb781900d7",
    "name": "New York Avenue",
    "lat": 39.35534,
    "lon": -74.42509,
    "subregion": "South New Jersey",
    "timezone": "America/New_York",
    "cameras": 0,
    "abilityLevels": [],
    "boardTypes": []
  },
  {
    "id": "666c747b362196018cbc7e12",
    "name": "Caesars Pier",
    "lat": 39.3518,
    "lon": -74.43537,
    "subregion": "South New Jersey",
    "timezone": "America/New_York",
    "cameras": 0,
    "abilityLevels": [],
    "boardTypes": []
  },
  {
    "id": "5842041f4e65fad6a7708a09",
    "name": "Ventnor Pier",
    "lat": 39.336276,
    "lon": -74.47782,
    "subregion": "South New Jersey",
    "timezone": "America/New_York",
    "cameras": 2,
    "abilityLevels": [
      "INTERMEDIATE",
      "ADVANCED",
      "BEGINNER"
    ],
    "boardTypes": [
      "SHORTBOARD",
      "FISH",
      "FUNBOARD",
      "LONGBOARD",
      "BODYBOARD"
    ]
  },
  {
    "id": "5842041f4e65fad6a7708a08",
    "name": "Margate Pier",
    "lat": 39.327688,
    "lon": -74.49524,
    "subregion": "South New Jersey",
    "timezone": "America/New_York",
    "cameras": 1,
    "abilityLevels": [
      "INTERMEDIATE",
      "ADVANCED",
      "BEGINNER"
    ],
    "boardTypes": [
      "SHORTBOARD",
      "FISH",
      "BODYBOARD",
      "FUNBOARD",
      "LONGBOARD",
      "SUP"
    ]
  },
  {
    "id": "5842041f4e65fad6a7708b5d",
    "name": "Quincy Avenue",
    "lat": 39.32193,
    "lon": -74.5045,
    "subregion": "South New Jersey",
    "timezone": "America/New_York",
    "cameras": 0,
    "abilityLevels": [
      "BEGINNER",
      "INTERMEDIATE",
      "ADVANCED"
    ],
    "boardTypes": [
      "SHORTBOARD",
      "FISH",
      "FUNBOARD",
      "LONGBOARD",
      "BODYBOARD"
    ]
  },
  {
    "id": "5842041f4e65fad6a7708a07",
    "name": "32nd Street",
    "lat": 39.31443,
    "lon": -74.51863,
    "subregion": "South New Jersey",
    "timezone": "America/New_York",
    "cameras": 0,
    "abilityLevels": [
      "BEGINNER",
      "INTERMEDIATE",
      "ADVANCED"
    ],
    "boardTypes": [
      "SHORTBOARD",
      "FISH",
      "FUNBOARD",
      "LONGBOARD",
      "BODYBOARD"
    ]
  },
  {
    "id": "667da9ff4c55b85a9a5ab1e7",
    "name": "Waverly",
    "lat": 39.28853,
    "lon": -74.54976,
    "subregion": "South New Jersey",
    "timezone": "America/New_York",
    "cameras": 0,
    "abilityLevels": [],
    "boardTypes": []
  },
  {
    "id": "5842041f4e65fad6a7708858",
    "name": "1st Street",
    "lat": 39.28159,
    "lon": -74.55646,
    "subregion": "South New Jersey",
    "timezone": "America/New_York",
    "cameras": 2,
    "abilityLevels": [
      "BEGINNER",
      "INTERMEDIATE",
      "ADVANCED"
    ],
    "boardTypes": [
      "SHORTBOARD",
      "FISH",
      "BODYBOARD"
    ]
  },
  {
    "id": "5aff31a7f7fc66001bd15a34",
    "name": "5th Street",
    "lat": 39.27701,
    "lon": -74.56203,
    "subregion": "South New Jersey",
    "timezone": "America/New_York",
    "cameras": 0,
    "abilityLevels": [],
    "boardTypes": []
  },
  {
    "id": "5842041f4e65fad6a7708b5b",
    "name": "7th Street",
    "lat": 39.2754,
    "lon": -74.56589,
    "subregion": "South New Jersey",
    "timezone": "America/New_York",
    "cameras": 0,
    "abilityLevels": [
      "INTERMEDIATE",
      "ADVANCED",
      "BEGINNER"
    ],
    "boardTypes": [
      "SHORTBOARD",
      "FISH",
      "FUNBOARD",
      "LONGBOARD",
      "BODYBOARD"
    ]
  },
  {
    "id": "5b02fe338bd590001bf55485",
    "name": "8th Street",
    "lat": 39.27482,
    "lon": -74.56697,
    "subregion": "South New Jersey",
    "timezone": "America/New_York",
    "cameras": 0,
    "abilityLevels": [],
    "boardTypes": []
  },
  {
    "id": "5b02ff07b383ab001aa8cff3",
    "name": "11th Street",
    "lat": 39.27228,
    "lon": -74.57326,
    "subregion": "South New Jersey",
    "timezone": "America/New_York",
    "cameras": 0,
    "abilityLevels": [],
    "boardTypes": []
  },
  {
    "id": "5b0336df824315001a1c2931",
    "name": "South End",
    "lat": 39.22202,
    "lon": -74.63317,
    "subregion": "South New Jersey",
    "timezone": "America/New_York",
    "cameras": 1,
    "abilityLevels": [
      "BEGINNER",
      "INTERMEDIATE",
      "ADVANCED"
    ],
    "boardTypes": [
      "SHORTBOARD",
      "FISH",
      "FUNBOARD",
      "LONGBOARD",
      "BODYBOARD",
      "BODYSURFING"
    ]
  },
  {
    "id": "5b0347809f631f001a00f0d9",
    "name": "Strathmere",
    "lat": 39.19832,
    "lon": -74.64976,
    "subregion": "South New Jersey",
    "timezone": "America/New_York",
    "cameras": 0,
    "abilityLevels": [],
    "boardTypes": []
  },
  {
    "id": "5b03095ee967b4001b33027f",
    "name": "Sea Isle City",
    "lat": 39.15734,
    "lon": -74.68605,
    "subregion": "South New Jersey",
    "timezone": "America/New_York",
    "cameras": 0,
    "abilityLevels": [],
    "boardTypes": []
  },
  {
    "id": "5b030e7c7853b7001a901b2c",
    "name": "57th Street",
    "lat": 39.1434,
    "lon": -74.69599,
    "subregion": "South New Jersey",
    "timezone": "America/New_York",
    "cameras": 0,
    "abilityLevels": [],
    "boardTypes": []
  },
  {
    "id": "584204214e65fad6a7709c84",
    "name": "Avalon Jetty",
    "lat": 39.10524,
    "lon": -74.70501,
    "subregion": "South New Jersey",
    "timezone": "America/New_York",
    "cameras": 1,
    "abilityLevels": [],
    "boardTypes": []
  },
  {
    "id": "5842041f4e65fad6a7708b5e",
    "name": "30th Street Pier",
    "lat": 39.09228,
    "lon": -74.71587,
    "subregion": "South New Jersey",
    "timezone": "America/New_York",
    "cameras": 0,
    "abilityLevels": [
      "BEGINNER",
      "INTERMEDIATE",
      "ADVANCED"
    ],
    "boardTypes": [
      "SHORTBOARD",
      "FISH",
      "FUNBOARD",
      "LONGBOARD",
      "BODYBOARD"
    ]
  },
  {
    "id": "5842041f4e65fad6a7708b5f",
    "name": "Nun's Beach",
    "lat": 39.04172,
    "lon": -74.76183,
    "subregion": "South New Jersey",
    "timezone": "America/New_York",
    "cameras": 0,
    "abilityLevels": [
      "BEGINNER",
      "INTERMEDIATE",
      "ADVANCED"
    ],
    "boardTypes": [
      "SHORTBOARD",
      "FISH",
      "FUNBOARD",
      "LONGBOARD",
      "BODYBOARD"
    ]
  },
  {
    "id": "5842041f4e65fad6a7708b61",
    "name": "10th Street",
    "lat": 38.99641,
    "lon": -74.7907,
    "subregion": "South New Jersey",
    "timezone": "America/New_York",
    "cameras": 0,
    "abilityLevels": [
      "BEGINNER",
      "INTERMEDIATE",
      "ADVANCED"
    ],
    "boardTypes": [
      "SHORTBOARD",
      "FISH",
      "FUNBOARD",
      "LONGBOARD",
      "BODYBOARD"
    ]
  },
  {
    "id": "5842041f4e65fad6a7708b60",
    "name": "Rambler Road",
    "lat": 38.9656,
    "lon": -74.83038,
    "subregion": "South New Jersey",
    "timezone": "America/New_York",
    "cameras": 0,
    "abilityLevels": [
      "INTERMEDIATE",
      "ADVANCED"
    ],
    "boardTypes": [
      "SHORTBOARD",
      "FISH",
      "FUNBOARD",
      "LONGBOARD",
      "BODYBOARD"
    ]
  },
  {
    "id": "5b0335c7e967b4001b33028f",
    "name": "Diamond Beach",
    "lat": 38.95419,
    "lon": -74.8463,
    "subregion": "South New Jersey",
    "timezone": "America/New_York",
    "cameras": 0,
    "abilityLevels": [],
    "boardTypes": []
  },
  {
    "id": "5842041f4e65fad6a7708b63",
    "name": "The Rocks",
    "lat": 38.94104,
    "lon": -74.86127,
    "subregion": "South New Jersey",
    "timezone": "America/New_York",
    "cameras": 0,
    "abilityLevels": [
      "BEGINNER",
      "INTERMEDIATE",
      "ADVANCED"
    ],
    "boardTypes": [
      "SHORTBOARD",
      "FISH",
      "FUNBOARD",
      "LONGBOARD",
      "BODYBOARD"
    ]
  },
  {
    "id": "5842041f4e65fad6a7708b65",
    "name": "Poverty Beach",
    "lat": 38.94169,
    "lon": -74.88067,
    "subregion": "South New Jersey",
    "timezone": "America/New_York",
    "cameras": 0,
    "abilityLevels": [
      "BEGINNER",
      "INTERMEDIATE",
      "ADVANCED"
    ],
    "boardTypes": [
      "SHORTBOARD",
      "FISH",
      "FUNBOARD",
      "LONGBOARD",
      "BODYBOARD"
    ]
  },
  {
    "id": "5842041f4e65fad6a7708b64",
    "name": "Queen Street",
    "lat": 38.92938,
    "lon": -74.91282,
    "subregion": "South New Jersey",
    "timezone": "America/New_York",
    "cameras": 0,
    "abilityLevels": [
      "BEGINNER",
      "INTERMEDIATE",
      "ADVANCED"
    ],
    "boardTypes": [
      "SHORTBOARD",
      "FISH",
      "FUNBOARD",
      "LONGBOARD",
      "BODYBOARD"
    ]
  },
  {
    "id": "5842041f4e65fad6a7708b62",
    "name": "Stockton Avenue",
    "lat": 38.9288,
    "lon": -74.9175,
    "subregion": "South New Jersey",
    "timezone": "America/New_York",
    "cameras": 0,
    "abilityLevels": [
      "BEGINNER",
      "INTERMEDIATE",
      "ADVANCED"
    ],
    "boardTypes": [
      "SHORTBOARD",
      "FISH",
      "LONGBOARD",
      "BODYBOARD"
    ]
  },
  {
    "id": "5842041f4e65fad6a7708b67",
    "name": "Grant Street Beach",
    "lat": 38.92849,
    "lon": -74.92205,
    "subregion": "South New Jersey",
    "timezone": "America/New_York",
    "cameras": 0,
    "abilityLevels": [
      "INTERMEDIATE",
      "ADVANCED"
    ],
    "boardTypes": [
      "SHORTBOARD",
      "FISH",
      "FUNBOARD",
      "LONGBOARD",
      "BODYBOARD"
    ]
  },
  {
    "id": "5842041f4e65fad6a7708b66",
    "name": "Broadway Beach",
    "lat": 38.92849,
    "lon": -74.93032,
    "subregion": "South New Jersey",
    "timezone": "America/New_York",
    "cameras": 0,
    "abilityLevels": [
      "BEGINNER",
      "INTERMEDIATE",
      "ADVANCED"
    ],
    "boardTypes": [
      "SHORTBOARD",
      "FISH",
      "FUNBOARD",
      "LONGBOARD",
      "BODYBOARD"
    ]
  },
  {
    "id": "5842041f4e65fad6a7708b68",
    "name": "The Cove",
    "lat": 38.928934874358276,
    "lon": -74.93582,
    "subregion": "South New Jersey",
    "timezone": "America/New_York",
    "cameras": 2,
    "abilityLevels": [
      "INTERMEDIATE",
      "ADVANCED"
    ],
    "boardTypes": [
      "SHORTBOARD",
      "FISH",
      "LONGBOARD",
      "BODYBOARD"
    ]
  },
  {
    "id": "5842041f4e65fad6a7708a21",
    "name": "Naval Jetties",
    "lat": 38.767837,
    "lon": -75.08284,
    "subregion": "Delaware",
    "timezone": "America/New_York",
    "cameras": 0,
    "abilityLevels": [
      "INTERMEDIATE",
      "ADVANCED"
    ],
    "boardTypes": [
      "SHORTBOARD",
      "FUNBOARD",
      "LONGBOARD",
      "FISH"
    ]
  },
  {
    "id": "5842041f4e65fad6a7708a20",
    "name": "Gordons Pond",
    "lat": 38.75034741676525,
    "lon": -75.08194,
    "subregion": "Delaware",
    "timezone": "America/New_York",
    "cameras": 0,
    "abilityLevels": [
      "INTERMEDIATE",
      "ADVANCED"
    ],
    "boardTypes": [
      "SHORTBOARD",
      "FUNBOARD",
      "LONGBOARD",
      "FISH",
      "BODYBOARD"
    ]
  },
  {
    "id": "640a447199dd44513a0467ca",
    "name": "Rehoboth Beach",
    "lat": 38.7225,
    "lon": -75.0757,
    "subregion": "Delaware",
    "timezone": "America/New_York",
    "cameras": 0,
    "abilityLevels": [],
    "boardTypes": []
  },
  {
    "id": "5842041f4e65fad6a7708a1f",
    "name": "Dewey Beach",
    "lat": 38.697657,
    "lon": -75.07595,
    "subregion": "Delaware",
    "timezone": "America/New_York",
    "cameras": 0,
    "abilityLevels": [
      "BEGINNER",
      "INTERMEDIATE",
      "ADVANCED"
    ],
    "boardTypes": [
      "SHORTBOARD",
      "FISH",
      "FUNBOARD",
      "LONGBOARD",
      "SUP",
      "SKIMMING",
      "BODYBOARD",
      "BODYSURFING",
      "KITEBOARD"
    ]
  },
  {
    "id": "5842041f4e65fad6a7708a1c",
    "name": "Indian River Inlet",
    "lat": 38.603993,
    "lon": -75.06271,
    "subregion": "Delaware",
    "timezone": "America/New_York",
    "cameras": 0,
    "abilityLevels": [
      "INTERMEDIATE",
      "ADVANCED"
    ],
    "boardTypes": [
      "SHORTBOARD",
      "FUNBOARD",
      "LONGBOARD",
      "FISH",
      "BODYBOARD",
      "SKIMMING",
      "BODYSURFING"
    ]
  },
  {
    "id": "5842041f4e65fad6a7708a1e",
    "name": "Bethany Beach",
    "lat": 38.538767,
    "lon": -75.05619,
    "subregion": "Delaware",
    "timezone": "America/New_York",
    "cameras": 0,
    "abilityLevels": [
      "BEGINNER",
      "INTERMEDIATE",
      "ADVANCED"
    ],
    "boardTypes": [
      "SHORTBOARD",
      "FISH",
      "FUNBOARD",
      "LONGBOARD",
      "SUP",
      "SKIMMING",
      "BODYBOARD",
      "BODYSURFING",
      "KITEBOARD"
    ]
  },
  {
    "id": "5842041f4e65fad6a7708a1d",
    "name": "Fenwick Island",
    "lat": 38.460477,
    "lon": -75.05207,
    "subregion": "Delaware",
    "timezone": "America/New_York",
    "cameras": 0,
    "abilityLevels": [
      "BEGINNER",
      "INTERMEDIATE",
      "ADVANCED"
    ],
    "boardTypes": [
      "SHORTBOARD",
      "FISH",
      "FUNBOARD",
      "LONGBOARD",
      "SUP",
      "SKIMMING",
      "BODYBOARD",
      "BODYSURFING",
      "KITEBOARD"
    ]
  },
  {
    "id": "6307df22782926254d3d5210",
    "name": "Midtown",
    "lat": 38.365050614750835,
    "lon": -75.07013,
    "subregion": "Maryland",
    "timezone": "America/New_York",
    "cameras": 0,
    "abilityLevels": [],
    "boardTypes": []
  },
  {
    "id": "5842041f4e65fad6a7708a1b",
    "name": "North End to Ocean City Inlet",
    "lat": 38.33889038664497,
    "lon": -75.08018,
    "subregion": "Maryland",
    "timezone": "America/New_York",
    "cameras": 0,
    "abilityLevels": [
      "BEGINNER",
      "INTERMEDIATE",
      "ADVANCED"
    ],
    "boardTypes": [
      "SHORTBOARD",
      "FUNBOARD",
      "LONGBOARD",
      "FISH",
      "BODYBOARD",
      "SKIMMING"
    ]
  },
  {
    "id": "5842041f4e65fad6a770886d",
    "name": "Ocean City Boardwalk",
    "lat": 38.338461,
    "lon": -75.08117,
    "subregion": "Maryland",
    "timezone": "America/New_York",
    "cameras": 2,
    "abilityLevels": [
      "BEGINNER",
      "INTERMEDIATE",
      "ADVANCED"
    ],
    "boardTypes": [
      "SHORTBOARD",
      "FUNBOARD",
      "LONGBOARD",
      "FISH",
      "BODYBOARD",
      "SKIMMING"
    ]
  },
  {
    "id": "5842041f4e65fad6a7708a1a",
    "name": "Assateague",
    "lat": 38.148058,
    "lon": -75.17704,
    "subregion": "Maryland",
    "timezone": "America/New_York",
    "cameras": 0,
    "abilityLevels": [
      "BEGINNER",
      "INTERMEDIATE"
    ],
    "boardTypes": [
      "SHORTBOARD",
      "FUNBOARD",
      "LONGBOARD",
      "FISH",
      "BODYBOARD"
    ]
  },
  {
    "id": "640a4473606c456797b1d7d7",
    "name": " Assateague Beach",
    "lat": 37.8882,
    "lon": -75.3393,
    "subregion": "Virginia",
    "timezone": "America/New_York",
    "cameras": 0,
    "abilityLevels": [],
    "boardTypes": []
  },
  {
    "id": "5842041f4e65fad6a7708a28",
    "name": "Fishermans Island",
    "lat": 37.08612627584661,
    "lon": -75.976121638199,
    "subregion": "Virginia",
    "timezone": "America/New_York",
    "cameras": 0,
    "abilityLevels": [
      "ADVANCED"
    ],
    "boardTypes": [
      "SHORTBOARD",
      "FISH",
      "FUNBOARD",
      "LONGBOARD",
      "SUP"
    ]
  },
  {
    "id": "5842041f4e65fad6a7708a23",
    "name": "North End",
    "lat": 36.9102212316428,
    "lon": -75.98732471466064,
    "subregion": "Virginia",
    "timezone": "America/New_York",
    "cameras": 3,
    "abilityLevels": [
      "BEGINNER",
      "INTERMEDIATE",
      "ADVANCED"
    ],
    "boardTypes": [
      "SHORTBOARD",
      "FUNBOARD",
      "LONGBOARD",
      "FISH",
      "BODYBOARD",
      "SKIMMING"
    ]
  },
  {
    "id": "5842041f4e65fad6a7708a27",
    "name": "South End",
    "lat": 36.84318777204769,
    "lon": -75.9719,
    "subregion": "Virginia",
    "timezone": "America/New_York",
    "cameras": 2,
    "abilityLevels": [
      "BEGINNER",
      "INTERMEDIATE",
      "ADVANCED"
    ],
    "boardTypes": [
      "SHORTBOARD",
      "FISH",
      "FUNBOARD",
      "LONGBOARD",
      "SUP",
      "SKIMMING",
      "BODYBOARD",
      "BODYSURFING",
      "KITEBOARD"
    ]
  },
  {
    "id": "584204214e65fad6a7709ce7",
    "name": "1st Street Jetty",
    "lat": 36.83036135089083,
    "lon": -75.96648,
    "subregion": "Virginia",
    "timezone": "America/New_York",
    "cameras": 3,
    "abilityLevels": [
      "BEGINNER",
      "INTERMEDIATE",
      "ADVANCED"
    ],
    "boardTypes": [
      "SHORTBOARD",
      "FUNBOARD",
      "LONGBOARD",
      "FISH",
      "SUP",
      "KITEBOARD",
      "BODYSURFING",
      "BODYBOARD",
      "SKIMMING"
    ]
  },
  {
    "id": "584204214e65fad6a7709ce9",
    "name": "Croatan Jetty",
    "lat": 36.82852360193767,
    "lon": -75.96877,
    "subregion": "Virginia",
    "timezone": "America/New_York",
    "cameras": 1,
    "abilityLevels": [
      "BEGINNER",
      "INTERMEDIATE"
    ],
    "boardTypes": [
      "SHORTBOARD",
      "FISH",
      "FUNBOARD",
      "LONGBOARD",
      "SUP",
      "SKIMMING",
      "BODYBOARD",
      "BODYSURFING",
      "KITEBOARD"
    ]
  },
  {
    "id": "5842041f4e65fad6a7708a26",
    "name": "Croatan to Pendleton",
    "lat": 36.818257440557794,
    "lon": -75.96666,
    "subregion": "Virginia",
    "timezone": "America/New_York",
    "cameras": 1,
    "abilityLevels": [
      "BEGINNER",
      "INTERMEDIATE"
    ],
    "boardTypes": [
      "SHORTBOARD",
      "FISH",
      "FUNBOARD",
      "LONGBOARD",
      "SUP",
      "SKIMMING",
      "BODYBOARD",
      "BODYSURFING",
      "KITEBOARD"
    ]
  },
  {
    "id": "5842041f4e65fad6a7708a22",
    "name": "Camp Pendleton",
    "lat": 36.81735875786576,
    "lon": -75.96624,
    "subregion": "Virginia",
    "timezone": "America/New_York",
    "cameras": 0,
    "abilityLevels": [
      "BEGINNER",
      "INTERMEDIATE"
    ],
    "boardTypes": [
      "SHORTBOARD",
      "FISH",
      "FUNBOARD",
      "LONGBOARD",
      "SUP",
      "SKIMMING",
      "BODYBOARD",
      "BODYSURFING",
      "KITEBOARD"
    ]
  },
  {
    "id": "5842041f4e65fad6a7708a24",
    "name": "Sandbridge Beach",
    "lat": 36.737117517621314,
    "lon": -75.93924,
    "subregion": "Virginia",
    "timezone": "America/New_York",
    "cameras": 1,
    "abilityLevels": [
      "BEGINNER",
      "INTERMEDIATE",
      "ADVANCED"
    ],
    "boardTypes": [
      "SHORTBOARD",
      "FISH",
      "FUNBOARD",
      "LONGBOARD",
      "SUP",
      "SKIMMING",
      "BODYBOARD",
      "BODYSURFING",
      "KITEBOARD"
    ]
  },
  {
    "id": "600b1f97b6558f622e14c0da",
    "name": "Little Island Fishing Pier",
    "lat": 36.6941363,
    "lon": -75.92274,
    "subregion": "Virginia",
    "timezone": "America/New_York",
    "cameras": 0,
    "abilityLevels": [],
    "boardTypes": []
  },
  {
    "id": "5842041f4e65fad6a7708a46",
    "name": "Corolla",
    "lat": 36.37660668125033,
    "lon": -75.8241,
    "subregion": "Northern Outer Banks",
    "timezone": "America/New_York",
    "cameras": 0,
    "abilityLevels": [
      "BEGINNER",
      "INTERMEDIATE"
    ],
    "boardTypes": [
      "SHORTBOARD",
      "FISH",
      "FUNBOARD",
      "LONGBOARD",
      "SUP",
      "SKIMMING",
      "BODYBOARD",
      "BODYSURFING",
      "KITEBOARD"
    ]
  },
  {
    "id": "5842041f4e65fad6a7708a45",
    "name": "Duck Pier",
    "lat": 36.18220630068973,
    "lon": -75.75014,
    "subregion": "Northern Outer Banks",
    "timezone": "America/New_York",
    "cameras": 0,
    "abilityLevels": [
      "INTERMEDIATE",
      "ADVANCED"
    ],
    "boardTypes": [
      "SHORTBOARD",
      "FISH",
      "FUNBOARD",
      "LONGBOARD",
      "SUP",
      "SKIMMING",
      "BODYBOARD",
      "BODYSURFING",
      "KITEBOARD"
    ]
  },
  {
    "id": "5d1bc8d1a2d2120001291e9b",
    "name": "Southern Duck",
    "lat": 36.158422247301424,
    "lon": -75.74011,
    "subregion": "Northern Outer Banks",
    "timezone": "America/New_York",
    "cameras": 1,
    "abilityLevels": [
      "INTERMEDIATE",
      "ADVANCED"
    ],
    "boardTypes": [
      "SHORTBOARD"
    ]
  },
  {
    "id": "5842041f4e65fad6a7708a44",
    "name": "Kitty Hawk Pier",
    "lat": 36.10126676607491,
    "lon": -75.71107,
    "subregion": "Northern Outer Banks",
    "timezone": "America/New_York",
    "cameras": 1,
    "abilityLevels": [
      "INTERMEDIATE",
      "ADVANCED",
      "BEGINNER"
    ],
    "boardTypes": [
      "SHORTBOARD",
      "FUNBOARD",
      "FISH",
      "LONGBOARD",
      "BODYSURFING",
      "BODYBOARD"
    ]
  },
  {
    "id": "5d9ba5cad154fd00019c2361",
    "name": "Bennett St, Kitty Hawk",
    "lat": 36.092008339061884,
    "lon": -75.70527,
    "subregion": "Northern Outer Banks",
    "timezone": "America/New_York",
    "cameras": 1,
    "abilityLevels": [
      "INTERMEDIATE",
      "ADVANCED"
    ],
    "boardTypes": [
      "SHORTBOARD",
      "FISH",
      "FUNBOARD"
    ]
  },
  {
    "id": "584204204e65fad6a7709990",
    "name": "Eckner Street",
    "lat": 36.08823160433465,
    "lon": -75.70172309875488,
    "subregion": "Northern Outer Banks",
    "timezone": "America/New_York",
    "cameras": 1,
    "abilityLevels": [
      "BEGINNER",
      "INTERMEDIATE",
      "ADVANCED"
    ],
    "boardTypes": [
      "SHORTBOARD",
      "FISH",
      "FUNBOARD",
      "LONGBOARD",
      "SUP",
      "SKIMMING",
      "BODYBOARD",
      "BODYSURFING",
      "KITEBOARD"
    ]
  },
  {
    "id": "5842041f4e65fad6a7708a43",
    "name": "Old Station/Laundromats",
    "lat": 36.06829910590498,
    "lon": -75.6899,
    "subregion": "Northern Outer Banks",
    "timezone": "America/New_York",
    "cameras": 1,
    "abilityLevels": [
      "BEGINNER",
      "INTERMEDIATE",
      "ADVANCED"
    ],
    "boardTypes": [
      "SHORTBOARD",
      "FISH",
      "FUNBOARD",
      "LONGBOARD",
      "SUP",
      "SKIMMING",
      "BODYBOARD",
      "BODYSURFING",
      "KITEBOARD"
    ]
  },
  {
    "id": "5c8c13f0635df600015e2785",
    "name": "Black Pelican",
    "lat": 36.065420513718614,
    "lon": -75.68848,
    "subregion": "Northern Outer Banks",
    "timezone": "America/New_York",
    "cameras": 1,
    "abilityLevels": [
      "BEGINNER",
      "INTERMEDIATE",
      "ADVANCED"
    ],
    "boardTypes": [
      "SHORTBOARD"
    ]
  },
  {
    "id": "600b286a17b9a7bc362c6037",
    "name": "Hayman Blvd",
    "lat": 36.04860288,
    "lon": -75.6765,
    "subregion": "Northern Outer Banks",
    "timezone": "America/New_York",
    "cameras": 0,
    "abilityLevels": [],
    "boardTypes": []
  },
  {
    "id": "5842041f4e65fad6a7708a41",
    "name": "Avalon Pier",
    "lat": 36.0439998039079,
    "lon": -75.67288,
    "subregion": "Northern Outer Banks",
    "timezone": "America/New_York",
    "cameras": 2,
    "abilityLevels": [
      "BEGINNER",
      "INTERMEDIATE",
      "ADVANCED"
    ],
    "boardTypes": [
      "SHORTBOARD",
      "FUNBOARD",
      "LONGBOARD",
      "FISH"
    ]
  },
  {
    "id": "600b2b8f2e8c2ae34a367771",
    "name": "Fifth Street",
    "lat": 36.03995021,
    "lon": -75.67115,
    "subregion": "Northern Outer Banks",
    "timezone": "America/New_York",
    "cameras": 1,
    "abilityLevels": [],
    "boardTypes": []
  },
  {
    "id": "5842041f4e65fad6a7708863",
    "name": "Third Street",
    "lat": 36.034151543144,
    "lon": -75.66791,
    "subregion": "Northern Outer Banks",
    "timezone": "America/New_York",
    "cameras": 1,
    "abilityLevels": [
      "BEGINNER",
      "INTERMEDIATE",
      "ADVANCED"
    ],
    "boardTypes": [
      "SHORTBOARD",
      "FISH",
      "FUNBOARD",
      "LONGBOARD",
      "SUP",
      "SKIMMING",
      "BODYBOARD",
      "BODYSURFING",
      "KITEBOARD"
    ]
  },
  {
    "id": "600b3c34033373013938e293",
    "name": "Second Street",
    "lat": 36.03282161,
    "lon": -75.66643,
    "subregion": "Northern Outer Banks",
    "timezone": "America/New_York",
    "cameras": 0,
    "abilityLevels": [],
    "boardTypes": []
  },
  {
    "id": "5842041f4e65fad6a7708a42",
    "name": "First Street",
    "lat": 36.03043116489792,
    "lon": -75.66413,
    "subregion": "Northern Outer Banks",
    "timezone": "America/New_York",
    "cameras": 2,
    "abilityLevels": [
      "INTERMEDIATE",
      "ADVANCED"
    ],
    "boardTypes": [
      "SHORTBOARD",
      "FUNBOARD",
      "LONGBOARD",
      "FISH",
      "BODYBOARD"
    ]
  },
  {
    "id": "584204204e65fad6a7709464",
    "name": "Bath House",
    "lat": 36.01599221232585,
    "lon": -75.65344,
    "subregion": "Northern Outer Banks",
    "timezone": "America/New_York",
    "cameras": 1,
    "abilityLevels": [],
    "boardTypes": []
  },
  {
    "id": "600b485717b9a78b1f2c6042",
    "name": "Martin St.",
    "lat": 36.00662665,
    "lon": -75.65028,
    "subregion": "Northern Outer Banks",
    "timezone": "America/New_York",
    "cameras": 0,
    "abilityLevels": [],
    "boardTypes": []
  },
  {
    "id": "600b4a3374e32428653a1c3f",
    "name": "Eighth Street",
    "lat": 35.99500972,
    "lon": -75.64372,
    "subregion": "Northern Outer Banks",
    "timezone": "America/New_York",
    "cameras": 0,
    "abilityLevels": [],
    "boardTypes": []
  },
  {
    "id": "584204214e65fad6a7709ce8",
    "name": "Abalone St.",
    "lat": 35.987343,
    "lon": -75.63862,
    "subregion": "Northern Outer Banks",
    "timezone": "America/New_York",
    "cameras": 1,
    "abilityLevels": [
      "BEGINNER",
      "INTERMEDIATE",
      "ADVANCED"
    ],
    "boardTypes": [
      "SHORTBOARD",
      "FUNBOARD",
      "LONGBOARD"
    ]
  },
  {
    "id": "600b4c329dfc94bdbaf577d0",
    "name": "Bonnett St.",
    "lat": 35.97991227,
    "lon": -75.63485,
    "subregion": "Northern Outer Banks",
    "timezone": "America/New_York",
    "cameras": 0,
    "abilityLevels": [],
    "boardTypes": []
  },
  {
    "id": "5842041f4e65fad6a7708a40",
    "name": "Nags Head Pier",
    "lat": 35.97427620657821,
    "lon": -75.62984,
    "subregion": "Northern Outer Banks",
    "timezone": "America/New_York",
    "cameras": 3,
    "abilityLevels": [
      "BEGINNER",
      "INTERMEDIATE",
      "ADVANCED"
    ],
    "boardTypes": [
      "SHORTBOARD",
      "FISH",
      "FUNBOARD",
      "LONGBOARD",
      "SUP",
      "SKIMMING",
      "BODYBOARD",
      "BODYSURFING",
      "KITEBOARD"
    ]
  },
  {
    "id": "600b4dd0127c757fc86564f1",
    "name": "Loggerhead St.",
    "lat": 35.94173501,
    "lon": -75.61366,
    "subregion": "Northern Outer Banks",
    "timezone": "America/New_York",
    "cameras": 0,
    "abilityLevels": [],
    "boardTypes": []
  },
  {
    "id": "584204204e65fad6a7709a9e",
    "name": "Jennette's Pier, Northside",
    "lat": 35.91081086393117,
    "lon": -75.59549,
    "subregion": "Northern Outer Banks",
    "timezone": "America/New_York",
    "cameras": 1,
    "abilityLevels": [
      "BEGINNER",
      "INTERMEDIATE",
      "ADVANCED"
    ],
    "boardTypes": [
      "SHORTBOARD",
      "FUNBOARD",
      "LONGBOARD"
    ]
  },
  {
    "id": "584204204e65fad6a7709981",
    "name": "Jennette's Pier, Southside",
    "lat": 35.90992900115943,
    "lon": -75.59298,
    "subregion": "Northern Outer Banks",
    "timezone": "America/New_York",
    "cameras": 3,
    "abilityLevels": [
      "BEGINNER",
      "INTERMEDIATE",
      "ADVANCED"
    ],
    "boardTypes": [
      "SHORTBOARD",
      "FUNBOARD",
      "LONGBOARD"
    ]
  },
  {
    "id": "600b4ef298b10187a83401e0",
    "name": "Outer Banks Fishing Pier",
    "lat": 35.8854511,
    "lon": -75.58156,
    "subregion": "Northern Outer Banks",
    "timezone": "America/New_York",
    "cameras": 0,
    "abilityLevels": [],
    "boardTypes": []
  },
  {
    "id": "5842041f4e65fad6a7708a3f",
    "name": "Pea Island",
    "lat": 35.71680821253768,
    "lon": -75.49243,
    "subregion": "Hatteras Island",
    "timezone": "America/New_York",
    "cameras": 0,
    "abilityLevels": [
      "BEGINNER",
      "INTERMEDIATE",
      "ADVANCED"
    ],
    "boardTypes": [
      "SHORTBOARD",
      "GUN"
    ]
  },
  {
    "id": "5842041f4e65fad6a7708867",
    "name": "S-Turns",
    "lat": 35.605833221351425,
    "lon": -75.46303,
    "subregion": "Hatteras Island",
    "timezone": "America/New_York",
    "cameras": 1,
    "abilityLevels": [
      "INTERMEDIATE",
      "ADVANCED"
    ],
    "boardTypes": [
      "SHORTBOARD",
      "FISH"
    ]
  },
  {
    "id": "600b60d837bb761420e6522d",
    "name": "Sea Haven",
    "lat": 35.59275191,
    "lon": -75.46229,
    "subregion": "Hatteras Island",
    "timezone": "America/New_York",
    "cameras": 0,
    "abilityLevels": [],
    "boardTypes": []
  },
  {
    "id": "584204214e65fad6a7709d1b",
    "name": "Rodanthe Pier",
    "lat": 35.585,
    "lon": -75.461,
    "subregion": "Hatteras Island",
    "timezone": "America/New_York",
    "cameras": 2,
    "abilityLevels": [
      "INTERMEDIATE",
      "ADVANCED"
    ],
    "boardTypes": [
      "SHORTBOARD",
      "LONGBOARD"
    ]
  },
  {
    "id": "600b62e6033373353938e2b4",
    "name": "Sea Isle Hills",
    "lat": 35.56738186,
    "lon": -75.4606,
    "subregion": "Hatteras Island",
    "timezone": "America/New_York",
    "cameras": 0,
    "abilityLevels": [],
    "boardTypes": []
  },
  {
    "id": "5842041f4e65fad6a7708a3a",
    "name": "Waves and Salvo",
    "lat": 35.54572934093336,
    "lon": -75.46477,
    "subregion": "Hatteras Island",
    "timezone": "America/New_York",
    "cameras": 0,
    "abilityLevels": [
      "BEGINNER",
      "INTERMEDIATE",
      "ADVANCED"
    ],
    "boardTypes": [
      "SHORTBOARD",
      "FUNBOARD",
      "LONGBOARD"
    ]
  },
  {
    "id": "5842041f4e65fad6a7708a3d",
    "name": "Avon Pier",
    "lat": 35.34721340158342,
    "lon": -75.50084,
    "subregion": "Hatteras Island",
    "timezone": "America/New_York",
    "cameras": 4,
    "abilityLevels": [
      "BEGINNER",
      "INTERMEDIATE",
      "ADVANCED"
    ],
    "boardTypes": [
      "SHORTBOARD",
      "FUNBOARD",
      "LONGBOARD",
      "FISH"
    ]
  },
  {
    "id": "600b646920c3778405a2aeeb",
    "name": "Askins Creek",
    "lat": 35.32217425,
    "lon": -75.50646,
    "subregion": "Hatteras Island",
    "timezone": "America/New_York",
    "cameras": 0,
    "abilityLevels": [],
    "boardTypes": []
  },
  {
    "id": "600b66662c5fa85df2e3042e",
    "name": "Kite Point",
    "lat": 35.292582,
    "lon": -75.5169,
    "subregion": "Hatteras Island",
    "timezone": "America/New_York",
    "cameras": 1,
    "abilityLevels": [],
    "boardTypes": []
  },
  {
    "id": "600b67a4104f3cdf8edfecb9",
    "name": "Canadian Hole",
    "lat": 35.27680881,
    "lon": -75.5163,
    "subregion": "Hatteras Island",
    "timezone": "America/New_York",
    "cameras": 0,
    "abilityLevels": [],
    "boardTypes": []
  },
  {
    "id": "5a1c8af1fa245a001a43d45a",
    "name": "North Buxton",
    "lat": 35.26673297347769,
    "lon": -75.51781,
    "subregion": "Hatteras Island",
    "timezone": "America/New_York",
    "cameras": 2,
    "abilityLevels": [],
    "boardTypes": []
  },
  {
    "id": "5842041f4e65fad6a7708a38",
    "name": "Cape Hatteras Lighthouse",
    "lat": 35.25461941822903,
    "lon": -75.52074,
    "subregion": "Hatteras Island",
    "timezone": "America/New_York",
    "cameras": 2,
    "abilityLevels": [
      "BEGINNER",
      "INTERMEDIATE",
      "ADVANCED"
    ],
    "boardTypes": [
      "SHORTBOARD"
    ]
  },
  {
    "id": "5842041f4e65fad6a7708a3b",
    "name": "Frisco",
    "lat": 35.22565892751075,
    "lon": -75.63606,
    "subregion": "Hatteras Island",
    "timezone": "America/New_York",
    "cameras": 2,
    "abilityLevels": [
      "BEGINNER",
      "INTERMEDIATE",
      "ADVANCED"
    ],
    "boardTypes": [
      "SHORTBOARD",
      "GUN"
    ]
  },
  {
    "id": "600b69829dfc94309cf577ef",
    "name": "Hatteras Ferry Docks",
    "lat": 35.20391351,
    "lon": -75.70381,
    "subregion": "Hatteras Island",
    "timezone": "America/New_York",
    "cameras": 0,
    "abilityLevels": [],
    "boardTypes": []
  },
  {
    "id": "5842041f4e65fad6a7708a3c",
    "name": "Ocracoke",
    "lat": 35.13086,
    "lon": -75.90591,
    "subregion": "Hatteras Island",
    "timezone": "America/New_York",
    "cameras": 0,
    "abilityLevels": [
      "BEGINNER",
      "INTERMEDIATE"
    ],
    "boardTypes": [
      "SHORTBOARD"
    ]
  },
  {
    "id": "584204204e65fad6a770997f",
    "name": "Bogue Inlet Pier",
    "lat": 34.65844440987143,
    "lon": -77.03417,
    "subregion": "Crystal Coast",
    "timezone": "America/New_York",
    "cameras": 1,
    "abilityLevels": [
      "BEGINNER",
      "INTERMEDIATE",
      "ADVANCED"
    ],
    "boardTypes": [
      "SHORTBOARD",
      "FISH",
      "FUNBOARD",
      "LONGBOARD",
      "SUP",
      "SKIMMING",
      "BODYBOARD",
      "BODYSURFING",
      "KITEBOARD"
    ]
  },
  {
    "id": "5842041f4e65fad6a7708a4c",
    "name": "Iron Steamer",
    "lat": 34.69270354752445,
    "lon": -76.82854854446575,
    "subregion": "Crystal Coast",
    "timezone": "America/New_York",
    "cameras": 0,
    "abilityLevels": [
      "BEGINNER",
      "INTERMEDIATE",
      "ADVANCED"
    ],
    "boardTypes": [
      "SHORTBOARD",
      "FISH",
      "FUNBOARD",
      "LONGBOARD",
      "SUP",
      "SKIMMING",
      "BODYBOARD",
      "BODYSURFING",
      "KITEBOARD"
    ]
  },