[
  {
    "id": "584204214e65fad6a7709c57",
    "name": "Bouka (Peloponnisos)",
    "lat": 36.992,
    "lon": 21.648,
    "subregion": "Greece (Ionian Sea)",
    "timezone": "Europe/Athens",
    "cameras": 0,
    "abilityLevels": [],
    "boardTypes": []
  },
  {
    "id": "640b97788284fe5e41b03e1e",
    "name": "Voidokilia",
    "lat": 36.9636,
    "lon": 21.6627,
    "subregion": "Greece (Ionian Sea)",
    "timezone": "Europe/Athens",
    "cameras": 0,
    "abilityLevels": [],
    "boardTypes": []
  },
  {
    "id": "645585c2e343fdfa177f251b",
    "name": "Kouloura",
    "lat": 36.80700590749242,
    "lon": 21.72142,
    "subregion": "Greece (Ionian Sea)",
    "timezone": "Europe/Athens",
    "cameras": 0,
    "abilityLevels": [],
    "boardTypes": []
  },
  {
    "id": "640b97478284fe1540b03385",
    "name": "Krokala",
    "lat": 36.8012,
    "lon": 21.7383,
    "subregion": "Greece (Ionian Sea)",
    "timezone": "Europe/Athens",
    "cameras": 0,
    "abilityLevels": [],
    "boardTypes": []
  },
  {
    "id": "640b9740de81d53e090cd920",
    "name": "Fenekounta",
    "lat": 36.8079,
    "lon": 21.8075,
    "subregion": "Greece (Ionian Sea)",
    "timezone": "Europe/Athens",
    "cameras": 0,
    "abilityLevels": [],
    "boardTypes": []
  },
  {
    "id": "640b973b606c45908df322b3",
    "name": "Zagka",
    "lat": 36.7827,
    "lon": 21.9382,
    "subregion": "Greece (Ionian Sea)",
    "timezone": "Europe/Athens",
    "cameras": 0,
    "abilityLevels": [],
    "boardTypes": []
  },
  {
    "id": "640b9753451905b38fdf379d",
    "name": "Rizomilos",
    "lat": 36.8776,
    "lon": 21.9252,
    "subregion": "Greece (Ionian Sea)",
    "timezone": "Europe/Athens",
    "cameras": 0,
    "abilityLevels": [],
    "boardTypes": []
  },
  {
    "id": "640b9797de81d5c3d90cec02",
    "name": "Santova beach",
    "lat": 36.9478,
    "lon": 22.1448,
    "subregion": "Greece (Ionian Sea)",
    "timezone": "Europe/Athens",
    "cameras": 0,
    "abilityLevels": [],
    "boardTypes": []
  },
  {
    "id": "640b978ade81d55d930ce92e",
    "name": "Ritsa beach",
    "lat": 36.8945,
    "lon": 22.2248,
    "subregion": "Greece (Ionian Sea)",
    "timezone": "Europe/Athens",
    "cameras": 0,
    "abilityLevels": [],
    "boardTypes": []
  },
  {
    "id": "640b9791b6d769166a93c7d4",
    "name": "Akrogiali beach",
    "lat": 36.9536,
    "lon": 22.1446,
    "subregion": "Greece (Ionian Sea)",
    "timezone": "Europe/Athens",
    "cameras": 0,
    "abilityLevels": [],
    "boardTypes": []
  },
  {
    "id": "640b974d9b6faba0fe2f1b47",
    "name": "Kardamyli",
    "lat": 36.8892,
    "lon": 22.2317,
    "subregion": "Greece (Ionian Sea)",
    "timezone": "Europe/Athens",
    "cameras": 0,
    "abilityLevels": [],
    "boardTypes": []
  },
  {
    "id": "640b976c451905db75df3cc1",
    "name": "Agios Nicholas",
    "lat": 36.8206,
    "lon": 22.2868,
    "subregion": "Greece (Ionian Sea)",
    "timezone": "Europe/Athens",
    "cameras": 0,
    "abilityLevels": [],
    "boardTypes": []
  },
  {
    "id": "640b97664878eb8df71cefe0",
    "name": "Oitylo",
    "lat": 36.6967,
    "lon": 22.3833,
    "subregion": "Greece (Ionian Sea)",
    "timezone": "Europe/Athens",
    "cameras": 0,
    "abilityLevels": [],
    "boardTypes": []
  },
  {
    "id": "640b975a451905a780df38f8",
    "name": "Marmari",
    "lat": 36.4259,
    "lon": 22.4759,
    "subregion": "Greece (Ionian Sea)",
    "timezone": "Europe/Athens",
    "cameras": 0,
    "abilityLevels": [],
    "boardTypes": []
  },
  {
    "id": "640b97728284fe1300b03ccd",
    "name": "Mavrovouni",
    "lat": 36.7284,
    "lon": 22.5533,
    "subregion": "Greece (Ionian Sea)",
    "timezone": "Europe/Athens",
    "cameras": 0,
    "abilityLevels": [],
    "boardTypes": []
  },
  {
    "id": "63225df53a522d0f38b8ed0d",
    "name": "Shipwreck",
    "lat": 36.788508,
    "lon": 22.58295,
    "subregion": "Greece (Ionian Sea)",
    "timezone": "Europe/Rome",
    "cameras": 0,
    "abilityLevels": [],
    "boardTypes": []
  },
  {
    "id": "640b977ede81d529720ce631",
    "name": "Pori",
    "lat": 36.7208,
    "lon": 23.0239,
    "subregion": "Greece (Ionian Sea)",
    "timezone": "Europe/Athens",
    "cameras": 0,
    "abilityLevels": [],
    "boardTypes": []
  },
  {
    "id": "640b9784e920306858e068a4",
    "name": "Monemvasia",
    "lat": 36.6309,
    "lon": 23.0324,
    "subregion": "Greece (Ionian Sea)",
    "timezone": "Europe/Athens",
    "cameras": 0,
    "abilityLevels": [],
    "boardTypes": []
  },
  {
    "id": "648ce002f420ae6df5e1df5f",
    "name": "Simos beach",
    "lat": 36.473933,
    "lon": 22.97084,
    "subregion": "Greece (Ionian Sea)",
    "timezone": "Europe/Athens",
    "cameras": 0,
    "abilityLevels": [],
    "boardTypes": []
  },
  {
    "id": "648ce0a959a14e49ea2fc582",
    "name": "Fragos Beach",
    "lat": 36.466333,
    "lon": 22.98025,
    "subregion": "Greece (Ionian Sea)",
    "timezone": "Europe/Athens",
    "cameras": 0,
    "abilityLevels": [],
    "boardTypes": []
  },
  {
    "id": "640b99469b6fab8e9e2f87f8",
    "name": "Pyrgaki",
    "lat": 36.9769,
    "lon": 25.4008,
    "subregion": "Greece (Aegean sea)",
    "timezone": "Europe/Athens",
    "cameras": 0,
    "abilityLevels": [],
    "boardTypes": []
  },
  {
    "id": "640b994cde81d57cf10d4ac9",
    "name": "Kalantos Beach",
    "lat": 36.9369,
    "lon": 25.472,
    "subregion": "Greece (Aegean sea)",
    "timezone": "Europe/Athens",
    "cameras": 0,
    "abilityLevels": [],
    "boardTypes": []
  },
  {
    "id": "584204214e65fad6a7709c65",
    "name": "Plakoto (Ios)",
    "lat": 36.786,
    "lon": 25.29,
    "subregion": "Greece (Aegean sea)",
    "timezone": "Europe/Athens",
    "cameras": 0,
    "abilityLevels": [],
    "boardTypes": []
  },
  {
    "id": "640b9983606c459be2f3a1c3",
    "name": "Kampaki",
    "lat": 36.7769,
    "lon": 25.2697,
    "subregion": "Greece (Aegean sea)",
    "timezone": "Europe/Athens",
    "cameras": 0,
    "abilityLevels": [],
    "boardTypes": []
  },
  {
    "id": "640b98ec4519058f33df8f6d",
    "name": "Ammoudi",
    "lat": 36.4608,
    "lon": 25.3696,
    "subregion": "Greece (Aegean sea)",
    "timezone": "Europe/Athens",
    "cameras": 0,
    "abilityLevels": [],
    "boardTypes": []
  },
  {
    "id": "640b99648284fe443ab0a911",
    "name": "Tria Pigadia",
    "lat": 36.73,
    "lon": 24.5364,
    "subregion": "Greece (Aegean sea)",
    "timezone": "Europe/Athens",
    "cameras": 0,
    "abilityLevels": [],
    "boardTypes": []
  },
  {
    "id": "640b995ede81d51cbd0d4f09",
    "name": "Agia Eirini Beach",
    "lat": 36.748,
    "lon": 24.4867,
    "subregion": "Greece (Aegean sea)",
    "timezone": "Europe/Athens",
    "cameras": 0,
    "abilityLevels": [],
    "boardTypes": []
  },
  {
    "id": "640b996ade81d51d510d5215",
    "name": "Agkali",
    "lat": 36.7171,
    "lon": 24.5407,
    "subregion": "Greece (Aegean sea)",
    "timezone": "Europe/Athens",
    "cameras": 0,
    "abilityLevels": [],
    "boardTypes": []
  },
  {
    "id": "640b992d4878eba4151d527e",
    "name": "Lagkada",
    "lat": 36.7249,
    "lon": 24.4419,
    "subregion": "Greece (Aegean sea)",
    "timezone": "Europe/Athens",
    "cameras": 0,
    "abilityLevels": [],
    "boardTypes": []
  },
  {
    "id": "640b9927e920305fe7e0c31e",
    "name": "Agios Ioannis",
    "lat": 36.6778,
    "lon": 24.3318,
    "subregion": "Greece (Aegean sea)",
    "timezone": "Europe/Athens",
    "cameras": 0,
    "abilityLevels": [],
    "boardTypes": []
  },
  {
    "id": "640b98e64878eb49321d42ed",
    "name": "Fyriplaka",
    "lat": 36.6664,
    "lon": 24.4647,
    "subregion": "Greece (Aegean sea)",
    "timezone": "Europe/Athens",
    "cameras": 0,
    "abilityLevels": [],
    "boardTypes": []
  },
  {
    "id": "640b9959de81d5ed030d4daa",
    "name": "Nerodafni",
    "lat": 36.7679,
    "lon": 24.4123,
    "subregion": "Greece (Aegean sea)",
    "timezone": "Europe/Athens",
    "cameras": 0,
    "abilityLevels": [],
    "boardTypes": []
  },
  {
    "id": "640b991b606c45176df389fa",
    "name": "Kampanes",
    "lat": 36.7694,
    "lon": 24.4138,
    "subregion": "Greece (Aegean sea)",
    "timezone": "Europe/Athens",
    "cameras": 0,
    "abilityLevels": [],
    "boardTypes": []
  },
  {
    "id": "640b9921606c45addbf38b48",
    "name": "Tsigkrado",
    "lat": 36.6619,
    "lon": 24.4693,
    "subregion": "Greece (Aegean sea)",
    "timezone": "Europe/Athens",
    "cameras": 0,
    "abilityLevels": [],
    "boardTypes": []
  },
  {
    "id": "640b98f24519055442df915e",
    "name": "Vourvoulos",
    "lat": 36.4445,
    "lon": 25.4487,
    "subregion": "Greece (Aegean sea)",
    "timezone": "Europe/Athens",
    "cameras": 0,
    "abilityLevels": [],
    "boardTypes": []
  },
  {
    "id": "640b98f8451905184edf92a3",
    "name": "Karteradou",
    "lat": 36.4204,
    "lon": 25.472,
    "subregion": "Greece (Aegean sea)",
    "timezone": "Europe/Athens",
    "cameras": 0,
    "abilityLevels": [],
    "boardTypes": []
  },
  {
    "id": "640b98cf4878ebb2861d3e43",
    "name": "Tetarti",
    "lat": 36.4076,
    "lon": 25.4865,
    "subregion": "Greece (Aegean sea)",
    "timezone": "Europe/Athens",
    "cameras": 0,
    "abilityLevels": [],
    "boardTypes": []
  },
  {
    "id": "650486ea339af13015aaf6a2",
    "name": "Kleisidi Beach",
    "lat": 36.34488,
    "lon": 25.77643,
    "subregion": "Greece (Aegean sea)",
    "timezone": "Europe/Athens",
    "cameras": 0,
    "abilityLevels": [],
    "boardTypes": []
  },
  {
    "id": "640b98fede81d512030d397a",
    "name": "Perissa",
    "lat": 36.3536,
    "lon": 25.4735,
    "subregion": "Greece (Aegean sea)",
    "timezone": "Europe/Athens",
    "cameras": 0,
    "abilityLevels": [],
    "boardTypes": []
  },
  {
    "id": "640b997de92030d472e0d766",
    "name": "Agios Georgios",
    "lat": 36.3379,
    "lon": 25.4518,
    "subregion": "Greece (Aegean sea)",
    "timezone": "Europe/Athens",
    "cameras": 0,
    "abilityLevels": [],
    "boardTypes": []
  },
  {
    "id": "640b98d5b6d769e445940d88",
    "name": "Blixada",
    "lat": 36.3385,
    "lon": 25.4323,
    "subregion": "Greece (Aegean sea)",
    "timezone": "Europe/Athens",
    "cameras": 0,
    "abilityLevels": [],
    "boardTypes": []
  },
  {
    "id": "640b9915de81d5d93b0d3e7c",
    "name": "Almyra",
    "lat": 36.3477,
    "lon": 25.4143,
    "subregion": "Greece (Aegean sea)",
    "timezone": "Europe/Athens",
    "cameras": 0,
    "abilityLevels": [],
    "boardTypes": []
  },
  {
    "id": "640b990f8284fe05b3b09627",
    "name": "Red Beach",
    "lat": 36.3485,
    "lon": 25.3947,
    "subregion": "Greece (Aegean sea)",
    "timezone": "Europe/Athens",
    "cameras": 0,
    "abilityLevels": [],
    "boardTypes": []
  },
  {
    "id": "640b990ab6d769babc94188c",
    "name": "Kambia",
    "lat": 36.3481,
    "lon": 25.3874,
    "subregion": "Greece (Aegean sea)",
    "timezone": "Europe/Athens",
    "cameras": 0,
    "abilityLevels": [],
    "boardTypes": []
  },
  {
    "id": "640b99044519056ff9df94cf",
    "name": "Mesa Pigadia",
    "lat": 36.3544,
    "lon": 25.376,
    "subregion": "Greece (Aegean sea)",
    "timezone": "Europe/Athens",
    "cameras": 0,
    "abilityLevels": [],
    "boardTypes": []
  },
  {
    "id": "640b98c34878ebd9ed1d3be3",
    "name": "Theologos",
    "lat": 36.7133,
    "lon": 26.9204,
    "subregion": "Greece (Aegean sea)",
    "timezone": "Europe/Athens",
    "cameras": 0,
    "abilityLevels": [],
    "boardTypes": []
  },
  {
    "id": "640b98c9b6d76959c9940b31",
    "name": "Agios Theologis",
    "lat": 36.7227,
    "lon": 26.9185,
    "subregion": "Greece (Aegean sea)",
    "timezone": "Europe/Athens",
    "cameras": 0,
    "abilityLevels": [],
    "boardTypes": []
  },
  {
    "id": "6080ad91bc46aba4727beebb",
    "name": "Paradise Beach",
    "lat": 36.759026,
    "lon": 27.00567,
    "subregion": "Greece (Aegean sea)",
    "timezone": "Europe/Athens",
    "cameras": 0,
    "abilityLevels": [],
    "boardTypes": []
  },
  {
    "id": "6418e3fd970272069e880029",
    "name": "Kameiros",
    "lat": 36.2884,
    "lon": 27.8502,
    "subregion": "Greece (Aegean sea)",
    "timezone": "Europe/Rome",
    "cameras": 0,
    "abilityLevels": [],
    "boardTypes": []
  },
  {
    "id": "584204214e65fad6a7709c69",
    "name": "Acropolis (Rhodes)",
    "lat": 36.097,
    "lon": 28.087,
    "subregion": "Greece (Aegean sea)",
    "timezone": "Europe/Athens",
    "cameras": 0,
    "abilityLevels": [],
    "boardTypes": []
  },
  {
    "id": "640b98bd606c455e59f3761b",
    "name": "Irakleidis",
    "lat": 36.7775,
    "lon": 27.0003,
    "subregion": "Greece (Aegean sea)",
    "timezone": "Europe/Athens",
    "cameras": 0,
    "abilityLevels": [],
    "boardTypes": []
  },
  {
    "id": "584204214e65fad6a7709c67",
    "name": "Mircos Point (Rhodes)",
    "lat": 36.384,
    "lon": 28.021,
    "subregion": "Greece (Aegean sea)",
    "timezone": "Europe/Athens",
    "cameras": 0,
    "abilityLevels": [],
    "boardTypes": []
  },
  {
    "id": "6418e4099a43c41eb8388786",
    "name": "Zephyros",
    "lat": 36.4285,
    "lon": 28.2353,
    "subregion": "Greece (Aegean sea)",
    "timezone": "Europe/Rome",
    "cameras": 0,
    "abilityLevels": [],
    "boardTypes": []
  },
  {
    "id": "6418e403e072f883f30319d6",
    "name": "Gennadi",
    "lat": 36.0189,
    "lon": 27.9291,
    "subregion": "Greece (Aegean sea)",
    "timezone": "Europe/Rome",
    "cameras": 0,
    "abilityLevels": [],
    "boardTypes": []
  },
  {
    "id": "6418e3ef970272ed3887fd74",
    "name": "Prasonisi West",
    "lat": 35.89,
    "lon": 27.7703,
    "subregion": "Greece (Aegean sea)",
    "timezone": "Europe/Rome",
    "cameras": 0,
    "abilityLevels": [],
    "boardTypes": []
  },
  {
    "id": "6418e3f793265b030f18f5ac",
    "name": "Prasonisi East",
    "lat": 35.8863,
    "lon": 27.7717,
    "subregion": "Greece (Aegean sea)",
    "timezone": "Europe/Rome",
    "cameras": 0,
    "abilityLevels": [],
    "boardTypes": []
  },
  {
    "id": "640b9bbcde81d58efc0dda71",
    "name": "Patara",
    "lat": 36.253,
    "lon": 29.312,
    "subregion": "Mediterranean Turkey",
    "timezone": "Europe/Istanbul",
    "cameras": 0,
    "abilityLevels": [],
    "boardTypes": []
  },
  {
    "id": "640b9bec606c458e6ef42ff1",
    "name": "Beymelek",
    "lat": 36.258165,
    "lon": 30.06677,
    "subregion": "Mediterranean Turkey",
    "timezone": "Europe/Istanbul",
    "cameras": 0,
    "abilityLevels": [],
    "boardTypes": []
  },
  {
    "id": "640b9be69b6fab3d9a30235d",
    "name": "Hasyurt 75. y\u0131l",
    "lat": 36.315656,
    "lon": 30.23027,
    "subregion": "Mediterranean Turkey",
    "timezone": "Europe/Istanbul",
    "cameras": 0,
    "abilityLevels": [],
    "boardTypes": []
  },
  {
    "id": "640b9be04878eb14591df219",
    "name": "Kumluca Plaji",
    "lat": 36.314384,
    "lon": 30.27277,
    "subregion": "Mediterranean Turkey",
    "timezone": "Europe/Istanbul",
    "cameras": 0,
    "abilityLevels": [],
    "boardTypes": []
  },
  {
    "id": "640b9bdae920306a6ae16295",
    "name": "Beykonak",
    "lat": 36.310944,
    "lon": 30.29387,
    "subregion": "Mediterranean Turkey",
    "timezone": "Europe/Istanbul",
    "cameras": 0,
    "abilityLevels": [],
    "boardTypes": []
  },
  {
    "id": "640b9bd4de81d563440de01b",
    "name": "\u015eah Inn",
    "lat": 36.299971,
    "lon": 30.31976,
    "subregion": "Mediterranean Turkey",
    "timezone": "Europe/Istanbul",
    "cameras": 0,
    "abilityLevels": [],
    "boardTypes": []
  },
  {
    "id": "640b9bce606c4572acf42931",
    "name": "Karaoz",
    "lat": 36.274679,
    "lon": 30.40801,
    "subregion": "Mediterranean Turkey",
    "timezone": "Europe/Istanbul",
    "cameras": 0,
    "abilityLevels": [],
    "boardTypes": []
  },
  {
    "id": "640b9b93b6d769129694aeb2",
    "name": "Olympos Beach",
    "lat": 36.4084,
    "lon": 30.48,
    "subregion": "Mediterranean Turkey",
    "timezone": "Europe/Istanbul",
    "cameras": 0,
    "abilityLevels": [],
    "boardTypes": []
  },
  {
    "id": "640b9b8c9b6fab47ba300f33",
    "name": "Kemer",
    "lat": 36.6044,
    "lon": 30.5667,
    "subregion": "Mediterranean Turkey",
    "timezone": "Europe/Istanbul",
    "cameras": 0,
    "abilityLevels": [],
    "boardTypes": []
  },
  {
    "id": "640b9b86606c4529ebf41865",
    "name": "Antalya",
    "lat": 36.8774,
    "lon": 30.6649,
    "subregion": "Mediterranean Turkey",
    "timezone": "Europe/Istanbul",
    "cameras": 0,
    "abilityLevels": [],
    "boardTypes": []
  },
  {
    "id": "640b9b9eb6d769a18894b14e",
    "name": "Kundu",
    "lat": 36.8534,
    "lon": 30.8871,
    "subregion": "Mediterranean Turkey",
    "timezone": "Europe/Istanbul",
    "cameras": 0,
    "abilityLevels": [],
    "boardTypes": []
  },
  {
    "id": "640b9b80b6d769664994aa23",
    "name": "Side",
    "lat": 36.765,
    "lon": 31.3958,
    "subregion": "Mediterranean Turkey",
    "timezone": "Europe/Istanbul",
    "cameras": 0,
    "abilityLevels": [],
    "boardTypes": []
  },
  {
    "id": "640b9b7a9b6fab645a300ad2",
    "name": "Alanya",
    "lat": 36.5489,
    "lon": 31.979,
    "subregion": "Mediterranean Turkey",
    "timezone": "Europe/Istanbul",
    "cameras": 0,
    "abilityLevels": [],
    "boardTypes": []
  },
  {
    "id": "640b9ba58284fec2deb12e60",
    "name": "Damlatas",
    "lat": 36.5443,
    "lon": 31.9849,
    "subregion": "Mediterranean Turkey",
    "timezone": "Europe/Istanbul",
    "cameras": 0,
    "abilityLevels": [],
    "boardTypes": []
  },
  {
    "id": "640b9bc3451905e9d7e036bf",
    "name": "Kahyalar",
    "lat": 36.290369,
    "lon": 32.27349,
    "subregion": "Mediterranean Turkey",
    "timezone": "Europe/Istanbul",
    "cameras": 0,
    "abilityLevels": [],
    "boardTypes": []
  },
  {
    "id": "640b9bf2451905d5dfe04168",
    "name": "Mersin",
    "lat": 36.730472,
    "lon": 34.51358,
    "subregion": "Mediterranean Turkey",
    "timezone": "Europe/Istanbul",
    "cameras": 0,
    "abilityLevels": [],
    "boardTypes": []
  },
  {
    "id": "640b9bc9606c459dc0f427e0",
    "name": "Gazipasa Halk Plaji",
    "lat": 36.267002,
    "lon": 32.27962,
    "subregion": "Mediterranean Turkey",
    "timezone": "Europe/Istanbul",
    "cameras": 0,
    "abilityLevels": [],
    "boardTypes": []
  },
  {
    "id": "640b9bb6606c450efff42366",
    "name": "Mezili",
    "lat": 36.7512,
    "lon": 34.5496,
    "subregion": "Mediterranean Turkey",
    "timezone": "Europe/Istanbul",
    "cameras": 0,
    "abilityLevels": [],
    "boardTypes": []
  },
  {
    "id": "640b9bb1606c45c17ef4220c",
    "name": "Samandag",
    "lat": 36.0809,
    "lon": 35.9454,
    "subregion": "Mediterranean Turkey",
    "timezone": "Europe/Istanbul",
    "cameras": 0,
    "abilityLevels": [],
    "boardTypes": []
  },
  {
    "id": "584204214e65fad6a7709c8d",
    "name": "Chekka (Heri)",
    "lat": 34.311,
    "lon": 35.714,
    "subregion": "Lebanon",
    "timezone": "Asia/Beirut",
    "cameras": 0,
    "abilityLevels": [],
    "boardTypes": []
  },
  {
    "id": "640a5e1e99dd44c1b20a9b8d",
    "name": "Colonel",
    "lat": 34.2439,
    "lon": 35.6596,
    "subregion": "Lebanon",
    "timezone": "Asia/Beirut",
    "cameras": 0,
    "abilityLevels": [],
    "boardTypes": []
  },
  {
    "id": "584204214e65fad6a7709c8e",
    "name": "Batroun",
    "lat": 34.243,
    "lon": 35.659,
    "subregion": "Lebanon",
    "timezone": "Asia/Beirut",
    "cameras": 0,
    "abilityLevels": [],
    "boardTypes": []
  },
  {
    "id": "640a5e3545190544f9a41f4c",
    "name": "White Beach",
    "lat": 34.2144985,
    "lon": 35.64984,
    "subregion": "Lebanon",
    "timezone": "Asia/Beirut",
    "cameras": 0,
    "abilityLevels": [],
    "boardTypes": []
  },
  {
    "id": "640a5e2299dd4441580a9c88",
    "name": "Pierre and Friends",
    "lat": 34.2125,
    "lon": 35.649,
    "subregion": "Lebanon",
    "timezone": "Asia/Beirut",
    "cameras": 0,
    "abilityLevels": [],
    "boardTypes": []
  },
  {
    "id": "584204214e65fad6a7709c8c",
    "name": "Tam Tam Beach",
    "lat": 34.114,
    "lon": 35.648,
    "subregion": "Lebanon",
    "timezone": "Asia/Beirut",
    "cameras": 0,
    "abilityLevels": [],
    "boardTypes": []
  },
  {
    "id": "584204214e65fad6a7709c90",
    "name": "Nahr Brahim",
    "lat": 34.061,
    "lon": 35.642,
    "subregion": "Lebanon",
    "timezone": "Asia/Beirut",
    "cameras": 0,
    "abilityLevels": [],
    "boardTypes": []
  },
  {
    "id": "584204214e65fad6a7709c8f",
    "name": "Yours",
    "lat": 34.013,
    "lon": 35.634,
    "subregion": "Lebanon",
    "timezone": "Asia/Beirut",
    "cameras": 0,
    "abilityLevels": [],
    "boardTypes": []
  },
  {
    "id": "640a5e2799dd44dc490a9d9c",
    "name": "Ramlet al Bayhda",
    "lat": 33.8791,
    "lon": 35.4792,
    "subregion": "Lebanon",
    "timezone": "Asia/Beirut",
    "cameras": 0,
    "abilityLevels": [],
    "boardTypes": []
  },
  {
    "id": "584204214e65fad6a7709c92",
    "name": "Casinos",
    "lat": 34.012,
    "lon": 35.642,
    "subregion": "Lebanon",
    "timezone": "Asia/Beirut",
    "cameras": 0,
    "abilityLevels": [],
    "boardTypes": []
  },
  {
    "id": "640a5e2c99dd44b2b40a9ebd",
    "name": "Damour",
    "lat": 33.702,
    "lon": 35.4378,
    "subregion": "Lebanon",
    "timezone": "Asia/Beirut",
    "cameras": 0,
    "abilityLevels": [],
    "boardTypes": []
  },
  {
    "id": "584204214e65fad6a7709c91",
    "name": "Mustafas",
    "lat": 33.666,
    "lon": 35.417,
    "subregion": "Lebanon",
    "timezone": "Asia/Beirut",
    "cameras": 0,
    "abilityLevels": [],
    "boardTypes": []
  },
  {
    "id": "640a5e31451905e242a41e53",
    "name": "Aabbasiyyeh",
    "lat": 33.2942,
    "lon": 35.22,
    "subregion": "Lebanon",
    "timezone": "Asia/Beirut",
    "cameras": 0,
    "abilityLevels": [],
    "boardTypes": []
  },
  {
    "id": "58dd720e45792b001324d859",
    "name": "Betset Beach",
    "lat": 33.08053879967027,
    "lon": 35.10573,
    "subregion": "Northern Israel",
    "timezone": "Asia/Jerusalem",
    "cameras": 0,
    "abilityLevels": [],
    "boardTypes": []
  },
  {
    "id": "640a66a699dd4463e90c9a66",
    "name": "Achziv Beach",
    "lat": 33.044378,
    "lon": 35.10014,
    "subregion": "Northern Israel",
    "timezone": "Asia/Jerusalem",
    "cameras": 0,
    "abilityLevels": [],
    "boardTypes": []
  },
  {
    "id": "6050cd187206175b80080835",
    "name": "Sokolov Beach",
    "lat": 33.0047,
    "lon": 35.0864,
    "subregion": "Northern Israel",
    "timezone": "Asia/Jerusalem",
    "cameras": 0,
    "abilityLevels": [
      "INTERMEDIATE",
      "ADVANCED"
    ],
    "boardTypes": [
      "SHORTBOARD"
    ]
  },
  {
    "id": "640a66ac45190526f3a6194e",
    "name": "Shavei Tzion",
    "lat": 32.9800691,
    "lon": 35.07928,
    "subregion": "Northern Israel",
    "timezone": "Asia/Jerusalem",
    "cameras": 0,
    "abilityLevels": [],
    "boardTypes": []
  },
  {
    "id": "640a66914eb375590f9dbe14",
    "name": "Argaman Beach",
    "lat": 32.9171,
    "lon": 35.0796,
    "subregion": "Northern Israel",
    "timezone": "Asia/Jerusalem",
    "cameras": 0,
    "abilityLevels": [],
    "boardTypes": []
  },
  {
    "id": "640a667e99dd4467ab0c9195",
    "name": "Kiriat Yam",
    "lat": 32.8537,
    "lon": 35.0591,
    "subregion": "Northern Israel",
    "timezone": "Asia/Jerusalem",
    "cameras": 0,
    "abilityLevels": [],
    "boardTypes": []
  },
  {
    "id": "584204204e65fad6a7709139",
    "name": "Bat Galim",
    "lat": 32.8376,
    "lon": 34.982,
    "subregion": "Northern Israel",
    "timezone": "Asia/Jerusalem",
    "cameras": 0,
    "abilityLevels": [
      "BEGINNER",
      "INTERMEDIATE"
    ],
    "boardTypes": []
  },
  {
    "id": "640a6677606c4529b9b9fe18",
    "name": "Backdoor Haifa",
    "lat": 32.8366,
    "lon": 34.9816,
    "subregion": "Northern Israel",
    "timezone": "Asia/Jerusalem",
    "cameras": 0,
    "abilityLevels": [],
    "boardTypes": []
  },
  {
    "id": "584204204e65fad6a7709aa2",
    "name": "The Peak",
    "lat": 32.807,
    "lon": 34.955,
    "subregion": "Northern Israel",
    "timezone": "Asia/Jerusalem",
    "cameras": 0,
    "abilityLevels": [
      "ADVANCED"
    ],
    "boardTypes": [
      "SHORTBOARD",
      "BODYBOARD"
    ]
  },
  {
    "id": "584204204e65fad6a7709aa3",
    "name": "Nirvana Beach",
    "lat": 32.796,
    "lon": 34.955,
    "subregion": "Northern Israel",
    "timezone": "Asia/Jerusalem",
    "cameras": 1,
    "abilityLevels": [],
    "boardTypes": []
  },
  {
    "id": "640a6684e9203045c5a73a74",
    "name": "Kadarim",
    "lat": 32.7955,
    "lon": 34.9556,
    "subregion": "Northern Israel",
    "timezone": "Asia/Jerusalem",
    "cameras": 0,
    "abilityLevels": [],
    "boardTypes": []
  },
  {
    "id": "640a6699451905095aa61467",
    "name": "Atlit Beach",
    "lat": 32.7095,
    "lon": 34.9413,
    "subregion": "Northern Israel",
    "timezone": "Asia/Jerusalem",
    "cameras": 0,
    "abilityLevels": [],
    "boardTypes": []
  },
  {
    "id": "584204204e65fad6a7709aa4",
    "name": "Stalbeach",
    "lat": 32.675,
    "lon": 34.926,
    "subregion": "Northern Israel",
    "timezone": "Asia/Jerusalem",
    "cameras": 0,
    "abilityLevels": [],
    "boardTypes": []
  },
  {
    "id": "640a668b4519052578a61175",
    "name": "Nahsholim",
    "lat": 32.6144,
    "lon": 34.9156,
    "subregion": "Northern Israel",
    "timezone": "Asia/Jerusalem",
    "cameras": 0,
    "abilityLevels": [],
    "boardTypes": []
  },
  {
    "id": "640a667199dd4438060c8edf",
    "name": "Maagan Michael",
    "lat": 32.5581,
    "lon": 34.9068,
    "subregion": "Northern Israel",
    "timezone": "Asia/Jerusalem",
    "cameras": 0,
    "abilityLevels": [],
    "boardTypes": []
  },
  {
    "id": "584204214e65fad6a7709d04",
    "name": "Israel Rovercam",
    "lat": 32.558,
    "lon": 34.906,
    "subregion": "Northern Israel",
    "timezone": "Asia/Jerusalem",
    "cameras": 0,
    "abilityLevels": [],
    "boardTypes": []
  },
  {
    "id": "584204204e65fad6a7709aa6",
    "name": "Jisr az-zarqa",
    "lat": 32.538,
    "lon": 34.9,
    "subregion": "Northern Israel",
    "timezone": "Asia/Jerusalem",
    "cameras": 0,
    "abilityLevels": [],
    "boardTypes": []
  },
  {
    "id": "584204204e65fad6a7709aa5",
    "name": "Caesarea",
    "lat": 32.529,
    "lon": 34.899,
    "subregion": "Northern Israel",
    "timezone": "Asia/Jerusalem",
    "cameras": 0,
    "abilityLevels": [],
    "boardTypes": []
  },
  {
    "id": "584204204e65fad6a7709aa7",
    "name": "Sdot Yam",
    "lat": 32.476,
    "lon": 34.882,
    "subregion": "Northern Israel",
    "timezone": "Asia/Jerusalem",
    "cameras": 0,
    "abilityLevels": [
      "BEGINNER",
      "INTERMEDIATE",
      "ADVANCED"
    ],
    "boardTypes": [
      "LONGBOARD"
    ]
  },
  {
    "id": "640a669f606c459780ba0701",
    "name": "Olga Beach",
    "lat": 32.4393,
    "lon": 34.8775,
    "subregion": "Northern Israel",
    "timezone": "Asia/Jerusalem",
    "cameras": 0,
    "abilityLevels": [],
    "boardTypes": []
  },
  {
    "id": "584204204e65fad6a7709aa8",
    "name": "Beit Yanai",
    "lat": 32.391,
    "lon": 34.862,
    "subregion": "Northern Israel",
    "timezone": "Asia/Jerusalem",
    "cameras": 1,
    "abilityLevels": [
      "BEGINNER",
      "INTERMEDIATE",
      "ADVANCED"
    ],
    "boardTypes": [
      "SHORTBOARD",
      "FISH",
      "FUNBOARD",
      "LONGBOARD"
    ]
  },
  {
    "id": "584204204e65fad6a7709aab",
    "name": "Sironit Beach",
    "lat": 32.323,
    "lon": 34.846,
    "subregion": "Northern Israel",
    "timezone": "Asia/Jerusalem",
    "cameras": 0,
    "abilityLevels": [],
    "boardTypes": []
  },
  {
    "id": "584204204e65fad6a7709aa9",
    "name": "Argamans Beach",
    "lat": 32.302,
    "lon": 34.839,
    "subregion": "Northern Israel",
    "timezone": "Asia/Jerusalem",
    "cameras": 0,
    "abilityLevels": [],
    "boardTypes": []
  },
  {
    "id": "6050cbc86566772761b1a3df",
    "name": "Netanya",
    "lat": 32.2736,
    "lon": 34.8328,
    "subregion": "Northern Israel",
    "timezone": "Asia/Jerusalem",
    "cameras": 0,
    "abilityLevels": [
      "BEGINNER",
      "INTERMEDIATE",
      "ADVANCED"
    ],
    "boardTypes": [
      "SHORTBOARD",
      "FISH",
      "FUNBOARD",
      "LONGBOARD"
    ]
  },
  {
    "id": "584204204e65fad6a7709aaa",
    "name": "Sidna Ali",
    "lat": 32.188,
    "lon": 34.803,
    "subregion": "Northern Israel",
    "timezone": "Asia/Jerusalem",
    "cameras": 0,
    "abilityLevels": [],
    "boardTypes": []
  },
  {
    "id": "584204214e65fad6a7709d03",
    "name": "Gazebbo Beach",
    "lat": 32.178,
    "lon": 34.801,
    "subregion": "Northern Israel",
    "timezone": "Asia/Jerusalem",
    "cameras": 0,
    "abilityLevels": [
      "BEGINNER",
      "INTERMEDIATE",
      "ADVANCED"
    ],
    "boardTypes": [
      "SHORTBOARD"
    ]
  },
  {
    "id": "584204204e65fad6a7709aac",
    "name": "Zvulun",
    "lat": 32.176,
    "lon": 34.8,
    "subregion": "Northern Israel",
    "timezone": "Asia/Jerusalem",
    "cameras": 0,
    "abilityLevels": [
      "BEGINNER",
      "INTERMEDIATE",
      "ADVANCED"
    ],
    "boardTypes": [
      "SHORTBOARD",
      "FISH",
      "FUNBOARD"
    ]
  },
  {
    "id": "584204204e65fad6a7709aad",
    "name": "Marina",
    "lat": 32.166,
    "lon": 34.795,
    "subregion": "Northern Israel",
    "timezone": "Asia/Jerusalem",
    "cameras": 0,
    "abilityLevels": [
      "INTERMEDIATE",
      "ADVANCED"
    ],
    "boardTypes": [
      "SHORTBOARD",
      "FISH",
      "FUNBOARD",
      "LONGBOARD"
    ]
  },
  {
    "id": "584204204e65fad6a7709ab7",
    "name": "Dromi - Herzlyia Marina",
    "lat": 32.156073,
    "lon": 34.79196,
    "subregion": "Northern Israel",
    "timezone": "Asia/Jerusalem",
    "cameras": 0,
    "abilityLevels": [
      "BEGINNER",
      "INTERMEDIATE",
      "ADVANCED"
    ],
    "boardTypes": [
      "SHORTBOARD",
      "FISH",
      "FUNBOARD",
      "LONGBOARD"
    ]
  },
  {
    "id": "584204204e65fad6a7709aaf",
    "name": "Hazuk Beach",
    "lat": 32.144,
    "lon": 34.79,
    "subregion": "Northern Israel",
    "timezone": "Asia/Jerusalem",
    "cameras": 0,
    "abilityLevels": [
      "BEGINNER",
      "INTERMEDIATE",
      "ADVANCED"
    ],
    "boardTypes": [
      "SHORTBOARD",
      "FISH",
      "FUNBOARD",
      "LONGBOARD"
    ]
  },
  {
    "id": "640a665099dd44685c0c8778",
    "name": "Ha-Rama Beach",
    "lat": 32.345,
    "lon": 34.8529,
    "subregion": "Southern Israel",
    "timezone": "Asia/Jerusalem",
    "cameras": 0,
    "abilityLevels": [],
    "boardTypes": []
  },
  {
    "id": "640a665799dd44dd3d0c88df",
    "name": "Poleg Beach",
    "lat": 32.2734,
    "lon": 34.8329,
    "subregion": "Southern Israel",
    "timezone": "Asia/Jerusalem",
    "cameras": 0,
    "abilityLevels": [],
    "boardTypes": []
  },
  {
    "id": "5ff89a13956aa8cbc947c5aa",
    "name": "Marina Dan Acadia",
    "lat": 32.167949,
    "lon": 34.79758,
    "subregion": "Southern Israel",
    "timezone": "Asia/Jerusalem",
    "cameras": 1,
    "abilityLevels": [],
    "boardTypes": []
  },
  {
    "id": "600a0c4bf969dc0bde5a1dba",
    "name": "Tel Baruch North",
    "lat": 32.1229,
    "lon": 34.7834,
    "subregion": "Southern Israel",
    "timezone": "Asia/Jerusalem",
    "cameras": 0,
    "abilityLevels": [],
    "boardTypes": []
  },
  {
    "id": "584204204e65fad6a7709aae",
    "name": "Topsy",
    "lat": 32.093,
    "lon": 34.768,
    "subregion": "Southern Israel",
    "timezone": "Asia/Jerusalem",
    "cameras": 0,
    "abilityLevels": [
      "INTERMEDIATE",
      "ADVANCED"
    ],
    "boardTypes": [
      "SHORTBOARD"
    ]
  },
  {
    "id": "584204204e65fad6a770913b",
    "name": "Hilton Beach",
    "lat": 32.089,
    "lon": 34.7668,
    "subregion": "Southern Israel",
    "timezone": "Asia/Jerusalem",
    "cameras": 1,
    "abilityLevels": [
      "BEGINNER",
      "INTERMEDIATE",
      "ADVANCED"
    ],
    "boardTypes": [
      "SHORTBOARD",
      "LONGBOARD"
    ]
  },
  {
    "id": "640a665d606c4534c5b9f814",
    "name": "Gordon Beach",
    "lat": 32.08269,
    "lon": 34.76706,
    "subregion": "Southern Israel",
    "timezone": "Asia/Jerusalem",
    "cameras": 0,
    "abilityLevels": [],
    "boardTypes": []
  },
  {
    "id": "5955788e31d48a00128db927",
    "name": "Manta Ray",
    "lat": 32.0616279575,
    "lon": 34.75955,
    "subregion": "Southern Israel",
    "timezone": "Asia/Jerusalem",
    "cameras": 0,
    "abilityLevels": [],
    "boardTypes": []
  },
  {
    "id": "584204204e65fad6a7709ab1",
    "name": "Dolphinarium",
    "lat": 32.061,
    "lon": 34.753,
    "subregion": "Southern Israel",
    "timezone": "Asia/Jerusalem",
    "cameras": 0,
    "abilityLevels": [
      "BEGINNER",
      "INTERMEDIATE",
      "ADVANCED"
    ],
    "boardTypes": [
      "SHORTBOARD"
    ]
  },
  {
    "id": "595579ac31d48a00128db928",
    "name": "Maaravi",
    "lat": 32.0561359538,
    "lon": 34.75484,
    "subregion": "Southern Israel",
    "timezone": "Asia/Jerusalem",
    "cameras": 0,
    "abilityLevels": [
      "BEGINNER",
      "INTERMEDIATE",
      "ADVANCED"
    ],
    "boardTypes": [
      "SHORTBOARD",
      "FISH",
      "FUNBOARD",
      "LONGBOARD"
    ]
  },
  {
    "id": "584204204e65fad6a7709ab0",
    "name": "Bat Yam",
    "lat": 32.015,
    "lon": 34.735,
    "subregion": "Southern Israel",
    "timezone": "Asia/Jerusalem",
    "cameras": 0,
    "abilityLevels": [
      "BEGINNER",
      "INTERMEDIATE",
      "ADVANCED"
    ],
    "boardTypes": [
      "SHORTBOARD",
      "FISH",
      "FUNBOARD",
      "LONGBOARD"
    ]
  },
  {
    "id": "584204204e65fad6a7709ab2",
    "name": "Rishon",
    "lat": 32.003,
    "lon": 34.73,
    "subregion": "Southern Israel",
    "timezone": "Asia/Jerusalem",
    "cameras": 0,
    "abilityLevels": [],
    "boardTypes": []
  },
  {
    "id": "584204204e65fad6a7709ab4",
    "name": "Palmachim",
    "lat": 31.934,
    "lon": 34.701,
    "subregion": "Southern Israel",
    "timezone": "Asia/Jerusalem",
    "cameras": 0,
    "abilityLevels": [
      "BEGINNER",
      "INTERMEDIATE",
      "ADVANCED"
    ],
    "boardTypes": [
      "SHORTBOARD",
      "FISH",
      "FUNBOARD",
      "LONGBOARD"
    ]
  },
  {
    "id": "584204204e65fad6a7709ab5",
    "name": "Ashdod",
    "lat": 31.815,
    "lon": 34.637,
    "subregion": "Southern Israel",
    "timezone": "Asia/Jerusalem",
    "cameras": 0,
    "abilityLevels": [
      "BEGINNER",
      "INTERMEDIATE",
      "ADVANCED"
    ],
    "boardTypes": [
      "SHORTBOARD",
      "FISH",
      "FUNBOARD",
      "LONGBOARD"
    ]
  },
  {
    "id": "584204204e65fad6a7709ab3",
    "name": "Hakshatot",
    "lat": 31.799,
    "lon": 34.629,
    "subregion": "Southern Israel",
    "timezone": "Asia/Jerusalem",
    "cameras": 0,
    "abilityLevels": [],
    "boardTypes": []
  },
  {
    "id": "640a6664e920308afda733a8",
    "name": "Nachal Yarkon St.",
    "lat": 31.7881,
    "lon": 34.6257,
    "subregion": "Southern Israel",
    "timezone": "Asia/Jerusalem",
    "cameras": 0,
    "abilityLevels": [],
    "boardTypes": []
  },
  {
    "id": "640a666a4519052553a60ab2",
    "name": "Foxes Point",
    "lat": 31.695611,
    "lon": 34.56792,
    "subregion": "Southern Israel",
    "timezone": "Asia/Jerusalem",
    "cameras": 0,
    "abilityLevels": [],
    "boardTypes": []
  },
  {
    "id": "58dd6fec45792b001324d858",
    "name": "Gute Beach",
    "lat": 31.69472550210355,
    "lon": 34.56702,
    "subregion": "Southern Israel",
    "timezone": "Asia/Jerusalem",
    "cameras": 0,
    "abilityLevels": [],
    "boardTypes": []
  },
  {
    "id": "584204204e65fad6a7709ab6",
    "name": "Ashkelon",
    "lat": 31.674,
    "lon": 34.548,
    "subregion": "Southern Israel",
    "timezone": "Asia/Jerusalem",
    "cameras": 0,
    "abilityLevels": [
      "BEGINNER",
      "INTERMEDIATE",
      "ADVANCED"
    ],
    "boardTypes": [
      "SHORTBOARD",
      "FISH",
      "FUNBOARD",
      "LONGBOARD"
    ]
  },
  {
    "id": "584204204e65fad6a7709aa0",
    "name": "Zikim",
    "lat": 31.612,
    "lon": 34.503,
    "subregion": "Southern Israel",
    "timezone": "Asia/Jerusalem",
    "cameras": 0,
    "abilityLevels": [],
    "boardTypes": []
  },
  {
    "id": "640a5e9cb6d76991d058bb61",
    "name": "Gaza",
    "lat": 31.5202,
    "lon": 34.4284,
    "subregion": "Southern Israel",
    "timezone": "Asia/Gaza",
    "cameras": 0,
    "abilityLevels": [],
    "boardTypes": []
  },
  {
    "id": "6372a7a9e4553b6290851bbf",
    "name": "Eilat",
    "lat": 29.54784,
    "lon": 34.96444,
    "subregion": "Red Sea",
    "timezone": "Asia/Jerusalem",
    "cameras": 0,
    "abilityLevels": [],
    "boardTypes": []
  },
  {
    "id": "640b9c104519050dc7e04888",
    "name": "Lara Bay",
    "lat": 34.96,
    "lon": 32.3115,
    "subregion": "Cyprus",
    "timezone": "Europe/Istanbul",
    "cameras": 0,
    "abilityLevels": [],
    "boardTypes": []
  },
  {
    "id": "640a7138e92030fdd7a993c6",
    "name": "Pomos",
    "lat": 35.1643726,
    "lon": 32.54456,
    "subregion": "Cyprus",
    "timezone": "Asia/Nicosia",
    "cameras": 0,
    "abilityLevels": [],
    "boardTypes": []
  },
  {
    "id": "640b9c1b4878eb45dd1dfffb",
    "name": "Toxeftra Beach",
    "lat": 34.9213,
    "lon": 32.3269,
    "subregion": "Cyprus",
    "timezone": "Europe/Istanbul",
    "cameras": 0,
    "abilityLevels": [],
    "boardTypes": []
  },
  {
    "id": "5b9065db3568aa0001d69dda",
    "name": "Potima Bay",
    "lat": 34.840900013164536,
    "lon": 32.38697,
    "subregion": "Cyprus",
    "timezone": "Asia/Nicosia",
    "cameras": 0,
    "abilityLevels": [],
    "boardTypes": []
  },
  {
    "id": "5b906738738e26000199c73b",
    "name": "Helios Beach",
    "lat": 34.81201583485952,
    "lon": 32.39261,
    "subregion": "Cyprus",
    "timezone": "Asia/Nicosia",
    "cameras": 0,
    "abilityLevels": [],
    "boardTypes": []
  },
  {
    "id": "640b9c0ab6d769172094c9f1",
    "name": "Sandy Beach",
    "lat": 34.8121,
    "lon": 32.3943,
    "subregion": "Cyprus",
    "timezone": "Europe/Istanbul",
    "cameras": 0,
    "abilityLevels": [],
    "boardTypes": []
  },
  {
    "id": "640b9c04de81d54a0f0deb94",
    "name": "Paphos",
    "lat": 34.7101,
    "lon": 32.4792,
    "subregion": "Cyprus",
    "timezone": "Europe/Istanbul",
    "cameras": 0,
    "abilityLevels": [],
    "boardTypes": []
  },
  {
    "id": "640a7111e920306892a98a6a",
    "name": "Pissouri Bay",
    "lat": 34.6492,
    "lon": 32.7202,
    "subregion": "Cyprus",
    "timezone": "Asia/Nicosia",
    "cameras": 0,
    "abilityLevels": [],
    "boardTypes": []
  },
  {
    "id": "5b90692725d37d00013ef583",
    "name": "Curium Bay",
    "lat": 34.66020893342363,
    "lon": 32.88398,
    "subregion": "Cyprus",
    "timezone": "Asia/Nicosia",
    "cameras": 0,
    "abilityLevels": [],
    "boardTypes": []
  },
  {
    "id": "640b9bf88284fedb49b14116",
    "name": "Akrotri",
    "lat": 34.5927,
    "lon": 32.935,
    "subregion": "Cyprus",
    "timezone": "Europe/Istanbul",
    "cameras": 0,
    "abilityLevels": [],
    "boardTypes": []
  },
  {
    "id": "640b9c21b6d7691b3f94cf40",
    "name": "Lady's Mile Beach",
    "lat": 34.6144,
    "lon": 33.0057,
    "subregion": "Cyprus",
    "timezone": "Europe/Istanbul",
    "cameras": 0,
    "abilityLevels": [],
    "boardTypes": []
  },
  {
    "id": "640a711845190508e0a862b7",
    "name": "Malindi Beach",
    "lat": 34.7119,
    "lon": 33.1654,
    "subregion": "Cyprus",
    "timezone": "Asia/Nicosia",
    "cameras": 0,
    "abilityLevels": [],
    "boardTypes": []
  },
  {
    "id": "640b9c1645190533b9e049f1",
    "name": "Governor Beach",
    "lat": 34.7158,
    "lon": 33.2736,
    "subregion": "Cyprus",
    "timezone": "Europe/Istanbul",
    "cameras": 0,
    "abilityLevels": [],
    "boardTypes": []
  },
  {
    "id": "640a711e4eb3757687a00f31",
    "name": "Softades Beach",
    "lat": 34.8087518,
    "lon": 33.53644,
    "subregion": "Cyprus",
    "timezone": "Asia/Nicosia",
    "cameras": 0,
    "abilityLevels": [],
    "boardTypes": []
  },
  {
    "id": "640a7125451905733ea865a4",
    "name": "Queen Victoria",
    "lat": 34.9619713,
    "lon": 33.66214,
    "subregion": "Cyprus",
    "timezone": "Asia/Nicosia",
    "cameras": 0,
    "abilityLevels": [],
    "boardTypes": []
  },
  {
    "id": "640a712b99dd44136a0ee8f7",
    "name": "Fig Tree Bay",
    "lat": 35.0124,
    "lon": 34.0587,
    "subregion": "Cyprus",
    "timezone": "Asia/Nicosia",
    "cameras": 0,
    "abilityLevels": [],
    "boardTypes": []
  },
  {
    "id": "640a713245190579c1a86914",
    "name": "Polis",
    "lat": 35.043532,
    "lon": 32.40507,
    "subregion": "Cyprus",
    "timezone": "Asia/Nicosia",
    "cameras": 0,
    "abilityLevels": [],
    "boardTypes": []
  },
  {
    "id": "640b982d4519050e08df6648",
    "name": "Zakros",
    "lat": 35.0973,
    "lon": 26.2635,
    "subregion": "Greece (Southern Islands)",
    "timezone": "Europe/Athens",
    "cameras": 0,
    "abilityLevels": [],
    "boardTypes": []
  },
  {
    "id": "640b9833606c453a86f357aa",
    "name": "Petras",
    "lat": 35.1994,
    "lon": 26.1229,
    "subregion": "Greece (Southern Islands)",
    "timezone": "Europe/Athens",
    "cameras": 0,
    "abilityLevels": [],
    "boardTypes": []
  },
  {
    "id": "640b986e4878eb94d01d28e5",
    "name": "Xerokampos",
    "lat": 35.0353,
    "lon": 26.2189,
    "subregion": "Greece (Southern Islands)",
    "timezone": "Europe/Athens",
    "cameras": 0,
    "abilityLevels": [],
    "boardTypes": []
  },
  {
    "id": "640b9827de81d50f980d0b2c",
    "name": "Makry Gialos",
    "lat": 35.0393,
    "lon": 25.9779,
    "subregion": "Greece (Southern Islands)",
    "timezone": "Europe/Athens",
    "cameras": 0,
    "abilityLevels": [],
    "boardTypes": []
  },
  {
    "id": "631bc035097cd6c416d74647",
    "name": "Kakos Bay",
    "lat": 35.013797,
    "lon": 25.84354,
    "subregion": "Greece (Southern Islands)",
    "timezone": "Europe/Rome",
    "cameras": 0,
    "abilityLevels": [],
    "boardTypes": []
  },
  {
    "id": "640b987be92030fbb7e09e65",
    "name": "Voulisma",
    "lat": 35.1264,
    "lon": 25.7444,
    "subregion": "Greece (Southern Islands)",
    "timezone": "Europe/Athens",
    "cameras": 0,
    "abilityLevels": [],
    "boardTypes": []
  },
  {
    "id": "640b9875de81d55cf30d1bbb",
    "name": "Almiros",
    "lat": 35.1766,
    "lon": 25.7102,
    "subregion": "Greece (Southern Islands)",
    "timezone": "Europe/Athens",
    "cameras": 0,
    "abilityLevels": [],
    "boardTypes": []
  },
  {
    "id": "584204214e65fad6a7709c68",
    "name": "Stalida Beach (Crete)",
    "lat": 35.295,
    "lon": 25.429,
    "subregion": "Greece (Southern Islands)",
    "timezone": "Europe/Athens",
    "cameras": 0,
    "abilityLevels": [],
    "boardTypes": []
  },
  {
    "id": "640b9821606c45ffb3f3542f",
    "name": "Stalibu",
    "lat": 35.2969,
    "lon": 25.4247,
    "subregion": "Greece (Southern Islands)",
    "timezone": "Europe/Athens",
    "cameras": 0,
    "abilityLevels": [],
    "boardTypes": []
  },
  {
    "id": "640b985c8284fea2ecb06f97",
    "name": "Konaki Beach",
    "lat": 35.332,
    "lon": 25.2505,
    "subregion": "Greece (Southern Islands)",
    "timezone": "Europe/Athens",
    "cameras": 0,
    "abilityLevels": [],
    "boardTypes": []
  },
  {
    "id": "640b98569b6fab76df2f53dd",
    "name": "Arina Beach",
    "lat": 35.3321,
    "lon": 25.2377,
    "subregion": "Greece (Southern Islands)",
    "timezone": "Europe/Athens",
    "cameras": 0,
    "abilityLevels": [],
    "boardTypes": []
  },
  {
    "id": "640b9893e92030b5f5e0a3da",
    "name": "Fodele Beach",
    "lat": 35.4022,
    "lon": 24.9546,
    "subregion": "Greece (Southern Islands)",
    "timezone": "Europe/Athens",
    "cameras": 0,
    "abilityLevels": [],
    "boardTypes": []
  },
  {
    "id": "640b9887de81d55cc30d2042",
    "name": "Skaleta",
    "lat": 35.3931,
    "lon": 24.6098,
    "subregion": "Greece (Southern Islands)",
    "timezone": "Europe/Athens",
    "cameras": 0,
    "abilityLevels": [],
    "boardTypes": []
  },
  {
    "id": "6658ca5a4130b3a53c5edb1e",
    "name": "Rethymnon Beach",
    "lat": 35.3679415,
    "lon": 24.49138,
    "subregion": "Greece (Southern Islands)",
    "timezone": "Europe/Athens",
    "cameras": 0,
    "abilityLevels": [],
    "boardTypes": []
  },
  {
    "id": "584204214e65fad6a7709c6b",
    "name": "Preveli (Crete)",
    "lat": 35.152,
    "lon": 24.478,
    "subregion": "Greece (Southern Islands)",
    "timezone": "Europe/Athens",
    "cameras": 0,
    "abilityLevels": [],
    "boardTypes": []
  },
  {
    "id": "631bd295d923ff43820dcd89",
    "name": "Trypiti",
    "lat": 34.803758,
    "lon": 24.12363,
    "subregion": "Greece (Southern Islands)",
    "timezone": "Europe/Rome",
    "cameras": 0,
    "abilityLevels": [],
    "boardTypes": []
  },
  {
    "id": "640b986245190568eadf719e",
    "name": "Kokkinos Pyrgos",
    "lat": 35.0798,
    "lon": 24.7398,
    "subregion": "Greece (Southern Islands)",
    "timezone": "Europe/Athens",
    "cameras": 0,
    "abilityLevels": [],
    "boardTypes": []
  },
  {
    "id": "640b9868606c453b4ef36313",
    "name": "Komos Beach",
    "lat": 35.0092,
    "lon": 24.7577,
    "subregion": "Greece (Southern Islands)",
    "timezone": "Europe/Athens",
    "cameras": 0,
    "abilityLevels": [],
    "boardTypes": []
  },
  {
    "id": "640b9881451905f2a4df78c4",
    "name": "Keratokampos",
    "lat": 34.9984,
    "lon": 25.3783,
    "subregion": "Greece (Southern Islands)",
    "timezone": "Europe/Athens",
    "cameras": 0,
    "abilityLevels": [],
    "boardTypes": []
  },
  {
    "id": "631bc1104850ab9472dea06c",
    "name": "Korfos Beach",
    "lat": 34.830556,
    "lon": 24.11169,
    "subregion": "Greece (Southern Islands)",
    "timezone": "Europe/Rome",
    "cameras": 0,
    "abilityLevels": [],
    "boardTypes": []
  },
  {
    "id": "631bd486d923ffd69c0e371f",
    "name": "Sarakiniko",
    "lat": 34.860072,
    "lon": 24.11016,
    "subregion": "Greece (Southern Islands)",
    "timezone": "Europe/Rome",
    "cameras": 0,
    "abilityLevels": [],
    "boardTypes": []
  },
  {
    "id": "631bd346097cd682c6db6c57",
    "name": "Potamos",
    "lat": 34.859144,
    "lon": 24.06077,
    "subregion": "Greece (Southern Islands)",
    "timezone": "Europe/Rome",
    "cameras": 0,
    "abilityLevels": [],
    "boardTypes": []
  },
  {
    "id": "631bbee3097cd6d863d6fa5b",
    "name": "Agios Paulos",
    "lat": 35.220008,
    "lon": 24.00048,
    "subregion": "Greece (Southern Islands)",
    "timezone": "Europe/Rome",
    "cameras": 0,
    "abilityLevels": [],
    "boardTypes": []
  },
  {
    "id": "640b981ade81d57fea0d0897",
    "name": "Palaiochora",
    "lat": 35.2324,
    "lon": 23.6773,
    "subregion": "Greece (Southern Islands)",
    "timezone": "Europe/Athens",
    "cameras": 0,
    "abilityLevels": [],
    "boardTypes": []
  },
  {
    "id": "640b98ac9b6fab51782f6660",
    "name": "Kountoura Beach",
    "lat": 35.231944,
    "lon": 23.62322,
    "subregion": "Greece (Southern Islands)",
    "timezone": "Europe/Athens",
    "cameras": 0,
    "abilityLevels": [],
    "boardTypes": []
  },
  {
    "id": "640b989a606c4547b8f36e54",
    "name": "Afrotolaki",
    "lat": 35.3965,
    "lon": 23.5511,
    "subregion": "Greece (Southern Islands)",
    "timezone": "Europe/Athens",
    "cameras": 0,
    "abilityLevels": [],
    "boardTypes": []
  },
  {
    "id": "640b9839606c4570dff3590a",
    "name": "Sfinari",
    "lat": 35.4217,
    "lon": 23.5659,
    "subregion": "Greece (Southern Islands)",
    "timezone": "Europe/Athens",
    "cameras": 0,
    "abilityLevels": [],
    "boardTypes": []
  },
  {
    "id": "640b98b18284fe442eb0821d",
    "name": "Falasarna Reef",
    "lat": 35.477583,
    "lon": 23.56378,
    "subregion": "Greece (Southern Islands)",
    "timezone": "Europe/Athens",
    "cameras": 0,
    "abilityLevels": [],
    "boardTypes": []
  },
  {
    "id": "640b98144519050862df6157",
    "name": "Falasarna",
    "lat": 35.4925,
    "lon": 23.58,
    "subregion": "Greece (Southern Islands)",
    "timezone": "Europe/Athens",
    "cameras": 0,
    "abilityLevels": [],
    "boardTypes": []
  },
  {
    "id": "640b98a08284fe34ffb07ea2",
    "name": "Mavros Molos",
    "lat": 35.5002,
    "lon": 23.6486,
    "subregion": "Greece (Southern Islands)",
    "timezone": "Europe/Athens",
    "cameras": 0,
    "abilityLevels": [],
    "boardTypes": []
  },
  {
    "id": "640b984a4878eb66c01d2182",
    "name": "Kissamos",
    "lat": 35.5009,
    "lon": 23.6581,
    "subregion": "Greece (Southern Islands)",
    "timezone": "Europe/Athens",
    "cameras": 0,
    "abilityLevels": [],
    "boardTypes": []
  },
  {
    "id": "640b98a6e920308c6fe0a7ad",
    "name": "Telonio Beach",
    "lat": 35.4992,
    "lon": 23.6676,
    "subregion": "Greece (Southern Islands)",
    "timezone": "Europe/Athens",
    "cameras": 0,
    "abilityLevels": [],
    "boardTypes": []
  },
  {
    "id": "640b983fb6d769749593ed3a",
    "name": "Platanias",
    "lat": 35.5217,
    "lon": 23.9134,
    "subregion": "Greece (Southern Islands)",
    "timezone": "Europe/Athens",
    "cameras": 0,
    "abilityLevels": [],
    "boardTypes": []
  },
  {
    "id": "640b98454878eb865f1d2052",
    "name": "Strofi",
    "lat": 35.5157,
    "lon": 23.9452,
    "subregion": "Greece (Southern Islands)",
    "timezone": "Europe/Athens",
    "cameras": 0,
    "abilityLevels": [],
    "boardTypes": []
  },
  {
    "id": "640b988d8284fe5955b07a9a",
    "name": "Hrissi Akti",
    "lat": 35.5119,
    "lon": 23.9889,
    "subregion": "Greece (Southern Islands)",
    "timezone": "Europe/Athens",
    "cameras": 0,
    "abilityLevels": [],
    "boardTypes": []
  },
  {
    "id": "640b98504878eb00541d22b2",
    "name": "Kalyves",
    "lat": 35.4522,
    "lon": 24.178,
    "subregion": "Greece (Southern Islands)",
    "timezone": "Europe/Athens",
    "cameras": 0,
    "abilityLevels": [],
    "boardTypes": []
  },
  {
    "id": "603ff0d8e531e58d088fec14",
    "name": "Marsa Matrouh",
    "lat": 31.37548,
    "lon": 27.17863,
    "subregion": "Lower Egypt ",
    "timezone": "Africa/Cairo",
    "cameras": 0,
    "abilityLevels": [],
    "boardTypes": []
  },
  {
    "id": "603fecd5c487aa27ce6387f1",
    "name": "Alexandria",
    "lat": 31.21054,
    "lon": 29.91045,
    "subregion": "Lower Egypt ",
    "timezone": "Africa/Cairo",
    "cameras": 0,
    "abilityLevels": [],
    "boardTypes": []
  },
  {
    "id": "584204204e65fad6a7709b42",
    "name": "Morghella",
    "lat": 36.701,
    "lon": 15.125,
    "subregion": "Sicily",
    "timezone": "Europe/Rome",
    "cameras": 0,
    "abilityLevels": [],
    "boardTypes": []
  },
  {
    "id": "6418e1566478f0305afa82eb",
    "name": "Portopalo",
    "lat": 36.6669,
    "lon": 15.1291,
    "subregion": "Sicily",
    "timezone": "Europe/Rome",
    "cameras": 0,
    "abilityLevels": [],
    "boardTypes": []
  },
  {
    "id": "6418e15b9a43c4c68237f685",
    "name": "Il Reef Dell'Isola",
    "lat": 36.6511,
    "lon": 15.0759,
    "subregion": "Sicily",
    "timezone": "Europe/Rome",
    "cameras": 0,
    "abilityLevels": [],
    "boardTypes": []
  },
  {
    "id": "6418df4f93265bfdf717fd89",
    "name": "Marina di Modica",
    "lat": 36.7105,
    "lon": 14.7755,
    "subregion": "Sicily",
    "timezone": "Europe/Rome",
    "cameras": 0,
    "abilityLevels": [],
    "boardTypes": []
  },
  {
    "id": "663a28aa033aad1ea08228a7",
    "name": "Punta Braccetto",
    "lat": 36.8153698,
    "lon": 14.46339,
    "subregion": "Sicily",
    "timezone": "Europe/Rome",
    "cameras": 0,
    "abilityLevels": [],
    "boardTypes": []
  },
  {
    "id": "6418e23093265bafb31895c3",
    "name": "Qbajiar Bay",
    "lat": 36.076,
    "lon": 14.2501,
    "subregion": "Malta",
    "timezone": "Europe/Malta",
    "cameras": 0,
    "abilityLevels": [],
    "boardTypes": []
  },
  {
    "id": "6418e23793265b2c8818974d",
    "name": "Ramla Beach",
    "lat": 36.0664,
    "lon": 14.2739,
    "subregion": "Malta",
    "timezone": "Europe/Malta",
    "cameras": 0,
    "abilityLevels": [],
    "boardTypes": []
  },
  {
    "id": "6418e1f9e072f8bdbf02ac2f",
    "name": "Golden Bay",
    "lat": 35.9338,
    "lon": 14.3437,
    "subregion": "Malta",
    "timezone": "Europe/Malta",
    "cameras": 0,
    "abilityLevels": [],
    "boardTypes": []
  },
  {
    "id": "6418e3d1e072f8d164030ec9",
    "name": "Marleys",
    "lat": 35.9398,
    "lon": 14.4567,
    "subregion": "Malta",
    "timezone": "Europe/Malta",
    "cameras": 0,
    "abilityLevels": [],
    "boardTypes": []
  },
  {
    "id": "6418e20093265b16f7188b80",
    "name": "Ghajn Tuffieha",
    "lat": 35.929,
    "lon": 14.344,
    "subregion": "Malta",
    "timezone": "Europe/Malta",
    "cameras": 0,
    "abilityLevels": [],
    "boardTypes": []
  },
  {
    "id": "6418e46fe072f80e6303304a",
    "name": "St. Thomas Bay",
    "lat": 35.8521585,
    "lon": 14.56632,
    "subregion": "Malta",
    "timezone": "Europe/Malta",
    "cameras": 0,
    "abilityLevels": [],
    "boardTypes": []
  },
  {
    "id": "604296a24d813d5413b40d37",
    "name": "Carthage",
    "lat": 36.85188,
    "lon": 10.33313,
    "subregion": "Tunisia",
    "timezone": "Africa/Tunis",
    "cameras": 0,
    "abilityLevels": [],
    "boardTypes": []
  },
  {
    "id": "6042a99894b7833586125f08",
    "name": "Kelibia",
    "lat": 36.834083,
    "lon": 11.11738,
    "subregion": "Tunisia",
    "timezone": "Africa/Tunis",
    "cameras": 0,
    "abilityLevels": [],
    "boardTypes": []
  },
  {
    "id": "6042a1b46a41dee3a05fef47",
    "name": "Hammamet",
    "lat": 36.370183,
    "lon": 10.54588,
    "subregion": "Tunisia",
    "timezone": "Africa/Tunis",
    "cameras": 0,
    "abilityLevels": [],
    "boardTypes": []
  },
  {
    "id": "584204214e65fad6a7709ce3",
    "name": "Decaplage",
    "lat": 36.787,
    "lon": 3.324,
    "subregion": "Eastern Algeria",
    "timezone": "Africa/Algiers",
    "cameras": 0,
    "abilityLevels": [],
    "boardTypes": []
  },
  {
    "id": "584204214e65fad6a7709ce5",
    "name": "Annaba",
    "lat": 36.87,
    "lon": 7.789,
    "subregion": "Eastern Algeria",
    "timezone": "Africa/Algiers",
    "cameras": 0,
    "abilityLevels": [],
    "boardTypes": []
  },
  {
    "id": "584204214e65fad6a7709ce4",
    "name": "Plage Mandjane",
    "lat": 36.898,
    "lon": 8.429,
    "subregion": "Eastern Algeria",
    "timezone": "Africa/Algiers",
    "cameras": 0,
    "abilityLevels": [],
    "boardTypes": []
  },
  {
    "id": "640f16366d5ecccbfb540ffa",
    "name": "Playa de los Corraletes",
    "lat": 36.75,
    "lon": -2.2167,
    "subregion": "Spain (Balearic)",
    "timezone": "Europe/Madrid",
    "cameras": 0,
    "abilityLevels": [],
    "boardTypes": []
  },
  {
    "id": "640f16c774a71be4ca2254ee",
    "name": "Playa del Bobar",
    "lat": 36.8269,
    "lon": -2.4046,
    "subregion": "Spain (Balearic)",
    "timezone": "Europe/Madrid",
    "cameras": 0,
    "abilityLevels": [],
    "boardTypes": []
  },
  {
    "id": "65b8f40d5010b1ed38977538",
    "name": "El rio (Almeria)",
    "lat": 36.81059,
    "lon": -2.42972,
    "subregion": "Spain (Balearic)",
    "timezone": "Europe/Madrid",
    "cameras": 0,
    "abilityLevels": [],
    "boardTypes": []
  },
  {
    "id": "655dc6385d15eb4088e60df5",
    "name": "La Herradura",
    "lat": 36.73605354172021,
    "lon": -3.74826,
    "subregion": "Spain (Balearic)",
    "timezone": "Europe/Madrid",
    "cameras": 0,
    "abilityLevels": [],
    "boardTypes": []
  },
  {
    "id": "640f16e738476e48eece9eaf",
    "name": "Playa de las Alberquillas",
    "lat": 36.7487,
    "lon": -3.8065,
    "subregion": "Spain (Balearic)",
    "timezone": "Europe/Madrid",
    "cameras": 0,
    "abilityLevels": [],
    "boardTypes": []
  },
  {
    "id": "640f169a74a71b1a8d224db8",
    "name": "Playa De Salon",
    "lat": 36.7436,
    "lon": -3.8777,
    "subregion": "Spain (Balearic)",
    "timezone": "Europe/Madrid",
    "cameras": 0,
    "abilityLevels": [],
    "boardTypes": []
  },
  {
    "id": "640f15e9d19c66807e71ea43",
    "name": "Lagos - Andalucia",
    "lat": 36.7445,
    "lon": -4.0229,
    "subregion": "Spain (Balearic)",
    "timezone": "Europe/Madrid",
    "cameras": 0,
    "abilityLevels": [],
    "boardTypes": []
  },
  {
    "id": "655b134855d3f1a2f878c0ec",
    "name": "Torre del Mar",
    "lat": 36.715588178782326,
    "lon": -4.17482,
    "subregion": "Spain (Balearic)",
    "timezone": "Europe/Madrid",
    "cameras": 0,
    "abilityLevels": [],
    "boardTypes": []
  },
  {
    "id": "640f15de6d5ecc5ee25401a0",
    "name": "Faro de Calaburra - Andalucia",
    "lat": 36.5065,
    "lon": -4.6396,
    "subregion": "Spain (Balearic)",
    "timezone": "Europe/Madrid",
    "cameras": 0,
    "abilityLevels": [],
    "boardTypes": []
  },
  {
    "id": "640f184b6d5ecc2001546999",
    "name": "Calahonda",
    "lat": 36.488,
    "lon": -4.7118,
    "subregion": "Spain (Balearic)",
    "timezone": "Europe/Madrid",
    "cameras": 0,
    "abilityLevels": [],
    "boardTypes": []
  },
  {
    "id": "640f186cd19c66d56872558f",
    "name": "Cabopino",
    "lat": 36.4825,
    "lon": -4.7432,
    "subregion": "Spain (Balearic)",
    "timezone": "Europe/Madrid",
    "cameras": 0,
    "abilityLevels": [],
    "boardTypes": []
  },
  {
    "id": "640f18776d5ecc2f0e54708e",
    "name": "El Largo",
    "lat": 36.4784,
    "lon": -4.972,
    "subregion": "Spain (Balearic)",
    "timezone": "Europe/Madrid",
    "cameras": 0,
    "abilityLevels": [],
    "boardTypes": []
  },
  {
    "id": "584204204e65fad6a7709482",
    "name": "Fuengirola",
    "lat": 36.536,
    "lon": -4.6207,
    "subregion": "Spain (Alboran)",
    "timezone": "Europe/Madrid",
    "cameras": 0,
    "abilityLevels": [],
    "boardTypes": []
  },
  {
    "id": "655dde6e06ba690d8f81413f",
    "name": "El Sunset",
    "lat": 36.58174,
    "lon": -4.53366,
    "subregion": "Spain (Alboran)",
    "timezone": "Europe/Madrid",
    "cameras": 0,
    "abilityLevels": [],
    "boardTypes": []
  },
  {
    "id": "65948ab29c1a9d5d8709bd3f",
    "name": "Malapesquera",
    "lat": 36.59375,
    "lon": -4.51804,
    "subregion": "Spain (Alboran)",
    "timezone": "Europe/Madrid",
    "cameras": 0,
    "abilityLevels": [],
    "boardTypes": []
  },
  {
    "id": "584204204e65fad6a7709494",
    "name": "Playa de la Carihuela",
    "lat": 36.609,
    "lon": -4.501,
    "subregion": "Spain (Alboran)",
    "timezone": "Europe/Madrid",
    "cameras": 0,
    "abilityLevels": [],
    "boardTypes": []
  },
  {
    "id": "584204204e65fad6a7709492",
    "name": "Los Alamos",
    "lat": 36.642,
    "lon": -4.478,
    "subregion": "Spain (Alboran)",
    "timezone": "Europe/Madrid",
    "cameras": 0,
    "abilityLevels": [],
    "boardTypes": []
  },
  {
    "id": "655d2c182eaca8e165db0e44",
    "name": "La Misericordia",
    "lat": 36.68589431852787,
    "lon": -4.44171,
    "subregion": "Spain (Alboran)",
    "timezone": "Europe/Madrid",
    "cameras": 0,
    "abilityLevels": [],
    "boardTypes": []
  },
  {
    "id": "584204204e65fad6a770949b",
    "name": "Playa del Dedo",
    "lat": 36.716,
    "lon": -4.349,
    "subregion": "Spain (Alboran)",
    "timezone": "Europe/Madrid",
    "cameras": 0,
    "abilityLevels": [],
    "boardTypes": []
  },
  {
    "id": "664cea705cfc8f0569f2b684",
    "name": "El Tajo",
    "lat": 36.71355,
    "lon": -4.2928,
    "subregion": "Spain (Alboran)",
    "timezone": "Europe/Madrid",
    "cameras": 0,
    "abilityLevels": [],
    "boardTypes": []
  },
  {
    "id": "655dd8692b78084fc54ecf5f",
    "name": "Punta del R\u00edo",
    "lat": 36.7231475625783,
    "lon": -3.57818,
    "subregion": "Spain (Alboran)",
    "timezone": "Europe/Madrid",
    "cameras": 0,
    "abilityLevels": [],
    "boardTypes": []
  },
  {
    "id": "655dd9c15d15eb50dee8cfa4",
    "name": "La Chucha",
    "lat": 36.69585,
    "lon": -3.4585,
    "subregion": "Spain (Alboran)",
    "timezone": "Europe/Madrid",
    "cameras": 0,
    "abilityLevels": [],
    "boardTypes": []
  },
  {
    "id": "584204204e65fad6a7709497",
    "name": "Playa de Carchuna/Calahonda",
    "lat": 36.693,
    "lon": -3.418,
    "subregion": "Spain (Alboran)",
    "timezone": "Europe/Madrid",
    "cameras": 0,
    "abilityLevels": [],
    "boardTypes": []
  },
  {
    "id": "6564db30c7eb2114c0864761",
    "name": "Almerimar",
    "lat": 36.69991381075254,
    "lon": -2.79712,
    "subregion": "Spain (Alboran)",
    "timezone": "Europe/Madrid",
    "cameras": 0,
    "abilityLevels": [],
    "boardTypes": []
  },
  {
    "id": "584204204e65fad6a7709487",
    "name": "Playa Serena",
    "lat": 36.712,
    "lon": -2.633,
    "subregion": "Spain (Alboran)",
    "timezone": "Europe/Madrid",
    "cameras": 0,
    "abilityLevels": [],
    "boardTypes": []
  },
  {
    "id": "584204204e65fad6a770948e",
    "name": "Los Genoveses",
    "lat": 36.745,
    "lon": -2.1202,
    "subregion": "Spain (Alboran)",
    "timezone": "Europe/Madrid",
    "cameras": 0,
    "abilityLevels": [],
    "boardTypes": []
  },
  {
    "id": "584204204e65fad6a7709480",
    "name": "Cadiz",
    "lat": 36.51986027674717,
    "lon": -6.28924,
    "subregion": "Southwest Spain",
    "timezone": "Europe/Madrid",
    "cameras": 0,
    "abilityLevels": [
      "BEGINNER",
      "INTERMEDIATE"
    ],
    "boardTypes": [
      "SHORTBOARD",
      "FISH",
      "BODYBOARD"
    ]
  },
  {
    "id": "640f146738476e19fece3579",
    "name": "Playa de Valdegrana",
    "lat": 36.5751,
    "lon": -6.2266,
    "subregion": "Southwest Spain",
    "timezone": "Europe/Madrid",
    "cameras": 0,
    "abilityLevels": [],
    "boardTypes": []
  },
  {
    "id": "640f145c38476e255fce33f9",
    "name": "Playa De Las Redes",
    "lat": 36.5985,
    "lon": -6.2756,
    "subregion": "Southwest Spain",
    "timezone": "Europe/Madrid",
    "cameras": 0,
    "abilityLevels": [],
    "boardTypes": []
  },
  {
    "id": "640f149e35546911fcb80312",
    "name": "Playa de la Victoria",
    "lat": 36.5051,
    "lon": -6.2795,
    "subregion": "Southwest Spain",
    "timezone": "Europe/Madrid",
    "cameras": 0,
    "abilityLevels": [],
    "boardTypes": []
  },
  {
    "id": "640f14bfd19c66832a71b8d3",
    "name": "Playa de Camposoto",
    "lat": 36.426993,
    "lon": -6.23124,
    "subregion": "Southwest Spain",
    "timezone": "Europe/Madrid",
    "cameras": 0,
    "abilityLevels": [],
    "boardTypes": []
  },
  {
    "id": "6658cbca0f7e04485cbd971b",
    "name": "La Barrosa",
    "lat": 36.3643728,
    "lon": -6.17866,
    "subregion": "Southwest Spain",
    "timezone": "Europe/Madrid",
    "cameras": 0,
    "abilityLevels": [],
    "boardTypes": []
  },
  {
    "id": "584204204e65fad6a7709483",
    "name": "Conil de la Frontera",
    "lat": 36.274,
    "lon": -6.097,
    "subregion": "Southwest Spain",
    "timezone": "Europe/Madrid",
    "cameras": 0,
    "abilityLevels": [],
    "boardTypes": []
  },
  {
    "id": "584204204e65fad6a7709490",
    "name": "El Palmar",
    "lat": 36.231,
    "lon": -6.0739,
    "subregion": "Southwest Spain",
    "timezone": "Europe/Madrid",
    "cameras": 0,
    "abilityLevels": [
      "BEGINNER",
      "INTERMEDIATE"
    ],
    "boardTypes": [
      "SHORTBOARD",
      "FUNBOARD",
      "FISH",
      "LONGBOARD",
      "BODYBOARD"
    ]
  },
  {
    "id": "584204204e65fad6a77094a1",
    "name": "Yerbabuena",
    "lat": 36.184,
    "lon": -6.009,
    "subregion": "Southwest Spain",
    "timezone": "Europe/Madrid",
    "cameras": 0,
    "abilityLevels": [],
    "boardTypes": []
  },
  {
    "id": "584204204e65fad6a770947b",
    "name": "Barbate",
    "lat": 36.183,
    "lon": -5.919,
    "subregion": "Southwest Spain",
    "timezone": "Europe/Madrid",
    "cameras": 0,
    "abilityLevels": [],
    "boardTypes": []
  },
  {
    "id": "640f143b6d5ecc079c53bbc0",
    "name": "Los Ca\u00f1os",
    "lat": 36.1819,
    "lon": -6.0108,
    "subregion": "Southwest Spain",
    "timezone": "Europe/Madrid",
    "cameras": 0,
    "abilityLevels": [],
    "boardTypes": []
  },
  {
    "id": "6266ffcfadbac8c99506fc81",
    "name": "Zahara",
    "lat": 36.128502,
    "lon": -5.84382,
    "subregion": "Southwest Spain",
    "timezone": "Europe/Madrid",
    "cameras": 0,
    "abilityLevels": [],
    "boardTypes": []
  },
  {
    "id": "640f14ca6d5eccfced53d441",
    "name": "Bolonia",
    "lat": 36.08379,
    "lon": -5.76777,
    "subregion": "Southwest Spain",
    "timezone": "Europe/Madrid",
    "cameras": 0,
    "abilityLevels": [],
    "boardTypes": []
  },
  {
    "id": "640f144674a71bb29521ec27",
    "name": "Playa de los Lances",
    "lat": 36.0313,
    "lon": -5.6281,
    "subregion": "Southwest Spain",
    "timezone": "Europe/Madrid",
    "cameras": 0,
    "abilityLevels": [],
    "boardTypes": []
  },
  {
    "id": "640f149274a71b7dd121f8e6",
    "name": "Playa de Getares",
    "lat": 36.0946,
    "lon": -5.4434,
    "subregion": "Southwest Spain",
    "timezone": "Europe/Madrid",
    "cameras": 0,
    "abilityLevels": [],
    "boardTypes": []
  },
  {
    "id": "640f14a96d5ecc484153ce39",
    "name": "Playa de San Amaro",
    "lat": 35.8961,
    "lon": -5.2998,
    "subregion": "Southwest Spain",
    "timezone": "Europe/Madrid",
    "cameras": 0,
    "abilityLevels": [],
    "boardTypes": []
  },
  {
    "id": "6418e29693265b581918a9f3",
    "name": "Eastern Beach",
    "lat": 36.1474,
    "lon": -5.3394,
    "subregion": "Southwest Spain",
    "timezone": "Europe/Madrid",
    "cameras": 0,
    "abilityLevels": [],
    "boardTypes": []
  },
  {
    "id": "609c4da93284572d5362d58a",
    "name": "Guadiaro Beach",
    "lat": 36.292773827530034,
    "lon": -5.26995,
    "subregion": "Southwest Spain",
    "timezone": "Europe/Madrid",
    "cameras": 0,
    "abilityLevels": [],
    "boardTypes": []
  },
  {
    "id": "655ddbd73b926a5e8f714df7",
    "name": "Los Monteros",
    "lat": 36.50189,
    "lon": -4.84049,
    "subregion": "Southwest Spain",
    "timezone": "Africa/Abidjan",
    "cameras": 0,
    "abilityLevels": [],
    "boardTypes": []
  },
  {
    "id": "640f147135546980a5b7fb0e",
    "name": "Playa de la Ribera",
    "lat": 35.8872,
    "lon": -5.3157,
    "subregion": "Southwest Spain",
    "timezone": "Europe/Madrid",
    "cameras": 0,
    "abilityLevels": [],
    "boardTypes": []
  },
  {
    "id": "640f147d3554698c88b7fcda",
    "name": "Playa del Chorrillo",
    "lat": 35.8851,
    "lon": -5.3224,
    "subregion": "Southwest Spain",
    "timezone": "Europe/Madrid",
    "cameras": 0,
    "abilityLevels": [],
    "boardTypes": []
  },
  {
    "id": "640f14886d5ecc7aaf53c8d1",
    "name": "Playa del Tarajal",
    "lat": 35.872,
    "lon": -5.3435,
    "subregion": "Southwest Spain",
    "timezone": "Europe/Madrid",
    "cameras": 0,
    "abilityLevels": [],
    "boardTypes": []
  },
  {
    "id": "640f14516d5ecc89c853c005",
    "name": "Playa de Benitez",
    "lat": 35.8946,
    "lon": -5.3367,
    "subregion": "Southwest Spain",
    "timezone": "Europe/Madrid",
    "cameras": 0,
    "abilityLevels": [],
    "boardTypes": []
  },
  {
    "id": "640f14b4d19c66e69371b66a",
    "name": "Plage Oued Allyene",
    "lat": 35.8275,
    "lon": -5.6487,
    "subregion": "Southwest Spain",
    "timezone": "Europe/Madrid",
    "cameras": 0,
    "abilityLevels": [],
    "boardTypes": []
  },
  {
    "id": "5842041f4e65fad6a7708e82",
    "name": "Ilha do Farol",
    "lat": 36.972289,
    "lon": -7.862803,
    "subregion": "Algarve Portugal",
    "timezone": "Europe/Lisbon",
    "cameras": 0,
    "abilityLevels": [
      "BEGINNER",
      "INTERMEDIATE",
      "ADVANCED"
    ],
    "boardTypes": [
      "SHORTBOARD",
      "FUNBOARD",
      "LONGBOARD",
      "FISH",
      "BODYBOARD"
    ]
  },
  {
    "id": "640b8b0f451905d197dc20f5",
    "name": "Ponta Paul",
    "lat": 32.7656,
    "lon": -17.2382,
    "subregion": "Madeira",
    "timezone": "Atlantic/Madeira",
    "cameras": 0,
    "abilityLevels": [],
    "boardTypes": []
  },
  {
    "id": "5842041f4e65fad6a7708cb7",
    "name": "Paul do Mar",
    "lat": 32.75611111,
    "lon": -17.23055556,
    "subregion": "Madeira",
    "timezone": "Atlantic/Madeira",
    "cameras": 0,
    "abilityLevels": [
      "ADVANCED"
    ],
    "boardTypes": [
      "SHORTBOARD"
    ]
  },
  {
    "id": "5842041f4e65fad6a7708cb5",
    "name": "Ponta Pequena",
    "lat": 32.747742,
    "lon": -17.22032,
    "subregion": "Madeira",
    "timezone": "Atlantic/Madeira",
    "cameras": 0,
    "abilityLevels": [
      "INTERMEDIATE",
      "ADVANCED"
    ],
    "boardTypes": [
      "SHORTBOARD"
    ]
  },
  {
    "id": "5842041f4e65fad6a7708cb6",
    "name": "Jardim do Mar",
    "lat": 32.73768,
    "lon": -17.2113,
    "subregion": "Madeira",
    "timezone": "Atlantic/Madeira",
    "cameras": 0,
    "abilityLevels": [
      "ADVANCED"
    ],
    "boardTypes": [
      "GUN"
    ]
  },
  {
    "id": "584204204e65fad6a7709b6c",
    "name": "Madalena do Mar",
    "lat": 32.7,
    "lon": -17.137,
    "subregion": "Madeira",
    "timezone": "Atlantic/Madeira",
    "cameras": 0,
    "abilityLevels": [],
    "boardTypes": []
  },
  {
    "id": "584204204e65fad6a77099c6",
    "name": "Faja da Areia",
    "lat": 32.8122085,
    "lon": -17.03917,
    "subregion": "Madeira",
    "timezone": "Atlantic/Madeira",
    "cameras": 0,
    "abilityLevels": [
      "INTERMEDIATE",
      "ADVANCED"
    ],
    "boardTypes": [
      "GUN"
    ]
  },
  {
    "id": "640b8b1be9203035f9dd4ba1",
    "name": "Ribeira da Janela",
    "lat": 32.8509,
    "lon": -17.1487,
    "subregion": "Madeira",
    "timezone": "Atlantic/Madeira",
    "cameras": 0,
    "abilityLevels": [],
    "boardTypes": []
  },
  {
    "id": "584204204e65fad6a7709b6d",
    "name": "Lugar de Baixo",
    "lat": 32.668,
    "lon": -17.062,
    "subregion": "Madeira",
    "timezone": "Atlantic/Madeira",
    "cameras": 0,
    "abilityLevels": [],
    "boardTypes": []
  },
  {
    "id": "584204204e65fad6a7709b6a",
    "name": "Ponta Delgada",
    "lat": 32.832,
    "lon": -16.991,
    "subregion": "Madeira",
    "timezone": "Atlantic/Madeira",
    "cameras": 0,
    "abilityLevels": [],
    "boardTypes": []
  },
  {
    "id": "584204204e65fad6a7709b68",
    "name": "Porto da Cruz",
    "lat": 32.769,
    "lon": -16.821,
    "subregion": "Madeira",
    "timezone": "Atlantic/Madeira",
    "cameras": 0,
    "abilityLevels": [],
    "boardTypes": []
  },
  {
    "id": "584204204e65fad6a7709b6b",
    "name": "Ponta de Tristao",
    "lat": 32.87,
    "lon": -17.188,
    "subregion": "Madeira",
    "timezone": "Atlantic/Madeira",
    "cameras": 0,
    "abilityLevels": [],
    "boardTypes": []
  },
  {
    "id": "640b8b15606c455d15f011ac",
    "name": "Achadas da Cruz",
    "lat": 32.8546,
    "lon": -17.2179,
    "subregion": "Madeira",
    "timezone": "Atlantic/Madeira",
    "cameras": 0,
    "abilityLevels": [],
    "boardTypes": []
  },
  {
    "id": "640b8b228284fe4750ad2436",
    "name": "Machico",
    "lat": 32.7138,
    "lon": -16.7591,
    "subregion": "Madeira",
    "timezone": "Atlantic/Madeira",
    "cameras": 0,
    "abilityLevels": [],
    "boardTypes": []
  },
  {
    "id": "584204204e65fad6a7709b67",
    "name": "Supertubes (Vila Baleira)",
    "lat": 33.047,
    "lon": -16.346,
    "subregion": "Madeira",
    "timezone": "Atlantic/Madeira",
    "cameras": 0,
    "abilityLevels": [],
    "boardTypes": []
  },
  {
    "id": "640b89d8606c455f27efc2b0",
    "name": "Playa de Nogales",
    "lat": 28.7598972,
    "lon": -17.73985,
    "subregion": "Tenerife Canaries",
    "timezone": "Atlantic/Canary",
    "cameras": 0,
    "abilityLevels": [],
    "boardTypes": []
  },
  {
    "id": "584204204e65fad6a770967f",
    "name": "La Caleta",
    "lat": 28.3768,
    "lon": -16.79061,
    "subregion": "Tenerife Canaries",
    "timezone": "Atlantic/Canary",
    "cameras": 0,
    "abilityLevels": [],
    "boardTypes": []
  },
  {
    "id": "640b89788284fe129cacb77b",
    "name": "Playa de la Arena",
    "lat": 28.2297,
    "lon": -16.8415,
    "subregion": "Tenerife Canaries",
    "timezone": "Atlantic/Canary",
    "cameras": 0,
    "abilityLevels": [],
    "boardTypes": []
  },
  {
    "id": "584204204e65fad6a7709689",
    "name": "Punta Blanca",
    "lat": 28.213404,
    "lon": -16.83805,
    "subregion": "Tenerife Canaries",
    "timezone": "Atlantic/Canary",
    "cameras": 0,
    "abilityLevels": [
      "ADVANCED"
    ],
    "boardTypes": []
  },
  {
    "id": "584204204e65fad6a770968a",
    "name": "El Medio",
    "lat": 28.059208,
    "lon": -16.73841,
    "subregion": "Tenerife Canaries",
    "timezone": "Atlantic/Canary",
    "cameras": 0,
    "abilityLevels": [
      "ADVANCED"
    ],
    "boardTypes": [
      "SHORTBOARD",
      "BODYBOARD"
    ]
  },
  {
    "id": "605216d4910dae253bbfed79",
    "name": "Derecha del Cartel",
    "lat": 28.0591,
    "lon": -16.7375,
    "subregion": "Tenerife Canaries",
    "timezone": "Atlantic/Canary",
    "cameras": 0,
    "abilityLevels": [
      "INTERMEDIATE",
      "ADVANCED"
    ],
    "boardTypes": [
      "SHORTBOARD",
      "FISH",
      "BODYBOARD"
    ]
  },
  {
    "id": "6052166b9d03d293467911c5",
    "name": "El Conquistador",
    "lat": 28.0577,
    "lon": -16.7379,
    "subregion": "Tenerife Canaries",
    "timezone": "Atlantic/Canary",
    "cameras": 0,
    "abilityLevels": [
      "INTERMEDIATE"
    ],
    "boardTypes": [
      "SHORTBOARD",
      "FUNBOARD",
      "SUP",
      "FISH",
      "LONGBOARD",
      "BODYBOARD"
    ]
  },
  {
    "id": "6052178eb7d57810bbce404d",
    "name": "La Fitenia",
    "lat": 28.0552,
    "lon": -16.7385,
    "subregion": "Tenerife Canaries",
    "timezone": "Atlantic/Canary",
    "cameras": 0,
    "abilityLevels": [
      "INTERMEDIATE"
    ],
    "boardTypes": [
      "SHORTBOARD",
      "FUNBOARD",
      "SUP",
      "FISH",
      "LONGBOARD",
      "BODYBOARD"
    ]
  },
  {
    "id": "584204204e65fad6a770968c",
    "name": "Las Galletas",
    "lat": 28.00417,
    "lon": -16.65532,
    "subregion": "Tenerife Canaries",
    "timezone": "Atlantic/Canary",
    "cameras": 0,
    "abilityLevels": [],
    "boardTypes": []
  },
  {
    "id": "640b8960e920307b42dcda77",
    "name": "El Confital - Tenerife",
    "lat": 28.0285,
    "lon": -16.5693,
    "subregion": "Tenerife Canaries",
    "timezone": "Atlantic/Canary",
    "cameras": 0,
    "abilityLevels": [],
    "boardTypes": []
  },
  {
    "id": "5a8f1be36f4719001b22c1bf",
    "name": "El Medano",
    "lat": 28.040089024818638,
    "lon": -16.54222,
    "subregion": "Tenerife Canaries",
    "timezone": "Atlantic/Canary",
    "cameras": 0,
    "abilityLevels": [],
    "boardTypes": []
  },
  {
    "id": "640b89718284fe1928acb541",
    "name": "Playa El Poris",
    "lat": 28.1529,
    "lon": -16.4321,
    "subregion": "Tenerife Canaries",
    "timezone": "Atlantic/Canary",
    "cameras": 0,
    "abilityLevels": [],
    "boardTypes": []
  },
  {
    "id": "640b89aee920304701dceed7",
    "name": "Playa del Topuerque",
    "lat": 28.2322,
    "lon": -16.4083,
    "subregion": "Tenerife Canaries",
    "timezone": "Atlantic/Canary",
    "cameras": 0,
    "abilityLevels": [],
    "boardTypes": []
  },
  {
    "id": "640b89a24519056fa4dbc4a5",
    "name": "Playa de la Entrada",
    "lat": 28.3252,
    "lon": -16.3627,
    "subregion": "Tenerife Canaries",
    "timezone": "Atlantic/Canary",
    "cameras": 0,
    "abilityLevels": [],
    "boardTypes": []
  },
  {
    "id": "640b8990451905273cdbc020",
    "name": "Playa de Lima",
    "lat": 28.3392,
    "lon": -16.3654,
    "subregion": "Tenerife Canaries",
    "timezone": "Atlantic/Canary",
    "cameras": 0,
    "abilityLevels": [],
    "boardTypes": []
  },
  {
    "id": "640b89c0e92030ba89dcf3fb",
    "name": "Playa de las Caletas",
    "lat": 28.3785,
    "lon": -16.3608,
    "subregion": "Tenerife Canaries",
    "timezone": "Atlantic/Canary",
    "cameras": 0,
    "abilityLevels": [],
    "boardTypes": []
  },
  {
    "id": "640b897e4878eb4e101971ac",
    "name": "Playa de la Nea",
    "lat": 28.4041,
    "lon": -16.3184,
    "subregion": "Tenerife Canaries",
    "timezone": "Atlantic/Canary",
    "cameras": 0,
    "abilityLevels": [],
    "boardTypes": []
  },
  {
    "id": "640b8984de81d53f05096239",
    "name": "Playa del Muerto",
    "lat": 28.4267,
    "lon": -16.2914,
    "subregion": "Tenerife Canaries",
    "timezone": "Atlantic/Canary",
    "cameras": 0,
    "abilityLevels": [],
    "boardTypes": []
  },
  {
    "id": "640b89b4b6d76952b2904a5f",
    "name": "Playa de las Teresitas",
    "lat": 28.5086,
    "lon": -16.1859,
    "subregion": "Tenerife Canaries",
    "timezone": "Atlantic/Canary",
    "cameras": 0,
    "abilityLevels": [],
    "boardTypes": []
  },
  {
    "id": "640b89c6606c45270eefbe07",
    "name": "Playa de las Gaviotas",
    "lat": 28.5157,
    "lon": -16.1722,
    "subregion": "Tenerife Canaries",
    "timezone": "Atlantic/Canary",
    "cameras": 0,
    "abilityLevels": [],
    "boardTypes": []
  },
  {
    "id": "640b898ab6d7694edf903fc7",
    "name": "Playa del Llano",
    "lat": 28.5222,
    "lon": -16.1568,
    "subregion": "Tenerife Canaries",
    "timezone": "Atlantic/Canary",
    "cameras": 0,
    "abilityLevels": [],
    "boardTypes": []
  },
  {
    "id": "640b89ccb6d7692f779050c9",
    "name": "Playa de Benijo",
    "lat": 28.5764,
    "lon": -16.1854,
    "subregion": "Tenerife Canaries",
    "timezone": "Atlantic/Canary",
    "cameras": 0,
    "abilityLevels": [],
    "boardTypes": []
  },
  {
    "id": "640b89964878eb295f19779e",
    "name": "Playa de Ijuana",
    "lat": 28.5449,
    "lon": -16.127,
    "subregion": "Tenerife Canaries",
    "timezone": "Atlantic/Canary",
    "cameras": 0,
    "abilityLevels": [],
    "boardTypes": []
  },
  {
    "id": "640b89ba606c4582e2efbae1",
    "name": "Playa de San Roque",
    "lat": 28.5697,
    "lon": -16.208,
    "subregion": "Tenerife Canaries",
    "timezone": "Atlantic/Canary",
    "cameras": 0,
    "abilityLevels": [],
    "boardTypes": []
  },
  {
    "id": "640b899c4519051843dbc30e",
    "name": "Playa Fajana",
    "lat": 28.5714,
    "lon": -16.2774,
    "subregion": "Tenerife Canaries",
    "timezone": "Atlantic/Canary",
    "cameras": 0,
    "abilityLevels": [],
    "boardTypes": []
  },
  {
    "id": "640b89a8b6d769f61390475f",
    "name": "Playa El Troche",
    "lat": 28.5715,
    "lon": -16.3107,
    "subregion": "Tenerife Canaries",
    "timezone": "Atlantic/Canary",
    "cameras": 0,
    "abilityLevels": [],
    "boardTypes": []
  },
  {
    "id": "584204204e65fad6a7709688",
    "name": "Roque Dos Hermanos",
    "lat": 28.573338,
    "lon": -16.31281,
    "subregion": "Tenerife Canaries",
    "timezone": "Atlantic/Canary",
    "cameras": 0,
    "abilityLevels": [],
    "boardTypes": []
  },
  {
    "id": "640b8966e920300f5edcdc28",
    "name": "Fuera de la Bajeta",
    "lat": 28.56701,
    "lon": -16.33345,
    "subregion": "Tenerife Canaries",
    "timezone": "Atlantic/Canary",
    "cameras": 0,
    "abilityLevels": [],
    "boardTypes": []
  },
  {
    "id": "584204204e65fad6a7709686",
    "name": "Punta del Hidalgo",
    "lat": 28.56081,
    "lon": -16.33412,
    "subregion": "Tenerife Canaries",
    "timezone": "Atlantic/Canary",
    "cameras": 0,
    "abilityLevels": [
      "INTERMEDIATE"
    ],
    "boardTypes": [
      "SHORTBOARD",
      "FISH",
      "LONGBOARD",
      "BODYBOARD"
    ]
  },
  {
    "id": "584204204e65fad6a7709685",
    "name": "Bajamar",
    "lat": 28.557806,
    "lon": -16.343193,
    "subregion": "Tenerife Canaries",
    "timezone": "Atlantic/Canary",
    "cameras": 0,
    "abilityLevels": [],
    "boardTypes": []
  },
  {
    "id": "640b896b8284fe715facb3ca",
    "name": "El Charco",
    "lat": 28.5572,
    "lon": -16.3438,
    "subregion": "Tenerife Canaries",
    "timezone": "Atlantic/Canary",
    "cameras": 0,
    "abilityLevels": [],
    "boardTypes": []
  },
  {
    "id": "584204204e65fad6a7709683",
    "name": "Los Platos-La Orrotava",
    "lat": 28.422825,
    "lon": -16.50967,
    "subregion": "Tenerife Canaries",
    "timezone": "Atlantic/Canary",
    "cameras": 0,
    "abilityLevels": [],
    "boardTypes": []
  },
  {
    "id": "640b89d2606c45529fefc109",
    "name": "Playa Martianez",
    "lat": 28.4176,
    "lon": -16.5412,
    "subregion": "Tenerife Canaries",
    "timezone": "Atlantic/Canary",
    "cameras": 0,
    "abilityLevels": [],
    "boardTypes": []
  },
  {
    "id": "584204204e65fad6a7709684",
    "name": "Playa del Socorro",
    "lat": 28.3959,
    "lon": -16.60381,
    "subregion": "Tenerife Canaries",
    "timezone": "Atlantic/Canary",
    "cameras": 0,
    "abilityLevels": [
      "BEGINNER",
      "INTERMEDIATE"
    ],
    "boardTypes": [
      "SHORTBOARD",
      "FUNBOARD",
      "FISH",
      "LONGBOARD",
      "SUP",
      "BODYBOARD"
    ]
  },
  {
    "id": "5953f2329da4d200129d08aa",
    "name": "El Fronton",
    "lat": 28.16572439978236,
    "lon": -15.65381,
    "subregion": "Gran Canaria",
    "timezone": "Atlantic/Canary",
    "cameras": 0,
    "abilityLevels": [],
    "boardTypes": []
  },
  {
    "id": "640b8a268284fe7ca9ace404",
    "name": "Vagabundo",
    "lat": 28.1456,
    "lon": -15.5991,
    "subregion": "Gran Canaria",
    "timezone": "Atlantic/Canary",
    "cameras": 0,
    "abilityLevels": [],
    "boardTypes": []
  },
  {
    "id": "640b8a52b6d7698210907252",
    "name": "Bocabarranco - Gran Canaria",
    "lat": 28.1586,
    "lon": -15.6659,
    "subregion": "Gran Canaria",
    "timezone": "Atlantic/Canary",
    "cameras": 0,
    "abilityLevels": [],
    "boardTypes": []
  },
  {
    "id": "640b8a34e92030710edd11b5",
    "name": "El Paso",
    "lat": 28.1461,
    "lon": -15.5765,
    "subregion": "Gran Canaria",
    "timezone": "Atlantic/Canary",
    "cameras": 0,
    "abilityLevels": [],
    "boardTypes": []
  },
  {
    "id": "596cfe4f022c56001226cff7",
    "name": "La Derecha del Altillo",
    "lat": 28.147384189805496,
    "lon": -15.567659139633179,
    "subregion": "Gran Canaria",
    "timezone": "Atlantic/Canary",
    "cameras": 0,
    "abilityLevels": [],
    "boardTypes": []
  },
  {
    "id": "640b8a4c451905030edbf02b",
    "name": "Boquines",
    "lat": 28.1477,
    "lon": -15.5604,
    "subregion": "Gran Canaria",
    "timezone": "Atlantic/Canary",
    "cameras": 0,
    "abilityLevels": [],
    "boardTypes": []
  },
  {
    "id": "640b8a46b6d7697717906f6d",
    "name": "El Comedor",
    "lat": 28.1475,
    "lon": -15.5571,
    "subregion": "Gran Canaria",
    "timezone": "Atlantic/Canary",
    "cameras": 0,
    "abilityLevels": [],
    "boardTypes": []
  },
  {
    "id": "640b8a3ade81d5e30e0990bf",
    "name": "Molokai",
    "lat": 28.1471,
    "lon": -15.5541,
    "subregion": "Gran Canaria",
    "timezone": "Atlantic/Canary",
    "cameras": 0,
    "abilityLevels": [],
    "boardTypes": []
  },
  {
    "id": "640b8a89606c453b05efeec8",
    "name": "Playa del Ingles",
    "lat": 27.7548,
    "lon": -15.5656,
    "subregion": "Gran Canaria",
    "timezone": "Atlantic/Canary",
    "cameras": 0,
    "abilityLevels": [],
    "boardTypes": []
  },
  {
    "id": "640b8a2de920305580dd0f8d",
    "name": "Los Enanos",
    "lat": 28.1474,
    "lon": -15.5508,
    "subregion": "Gran Canaria",
    "timezone": "Atlantic/Canary",
    "cameras": 0,
    "abilityLevels": [],
    "boardTypes": []
  },
  {
    "id": "640b8a408284fe52f1aceada",
    "name": "Quintanilla - Gran Canaria",
    "lat": 28.1473,
    "lon": -15.5457,
    "subregion": "Gran Canaria",
    "timezone": "Atlantic/Canary",
    "cameras": 0,
    "abilityLevels": [],
    "boardTypes": []
  },
  {
    "id": "640b8a588284fee3a8acf0b8",
    "name": "Playa de Guanarteme",
    "lat": 28.1284,
    "lon": -15.4532,
    "subregion": "Gran Canaria",
    "timezone": "Atlantic/Canary",
    "cameras": 0,
    "abilityLevels": [],
    "boardTypes": []
  },
  {
    "id": "596d073a2bb139001367d196",
    "name": "El Lloret",
    "lat": 28.130723812984066,
    "lon": -15.45208,
    "subregion": "Gran Canaria",
    "timezone": "Atlantic/Canary",
    "cameras": 0,
    "abilityLevels": [],
    "boardTypes": []
  },
  {
    "id": "630d4c3706ca86cf283aed7b",
    "name": "La Cicer",
    "lat": 28.1311,
    "lon": -15.4484,
    "subregion": "Gran Canaria",
    "timezone": "Atlantic/Canary",
    "cameras": 0,
    "abilityLevels": [],
    "boardTypes": []
  },
  {
    "id": "584204204e65fad6a770966a",
    "name": "La Barra - Las Canteras",
    "lat": 28.1447,
    "lon": -15.4368,
    "subregion": "Gran Canaria",
    "timezone": "Atlantic/Canary",
    "cameras": 0,
    "abilityLevels": [],
    "boardTypes": []
  },
  {
    "id": "584204204e65fad6a7709697",
    "name": "El Confital",
    "lat": 28.158039,
    "lon": -15.43554,
    "subregion": "Gran Canaria",
    "timezone": "Atlantic/Canary",
    "cameras": 0,
    "abilityLevels": [],
    "boardTypes": []
  },
  {
    "id": "640b8a5e606c45daeeefe3ff",
    "name": "La Laja",
    "lat": 28.0593994,
    "lon": -15.41813,
    "subregion": "Gran Canaria",
    "timezone": "Atlantic/Canary",
    "cameras": 0,
    "abilityLevels": [],
    "boardTypes": []
  },
  {
    "id": "640b8a644878eb117c19abaa",
    "name": "Playa del Hombre",
    "lat": 27.997009,
    "lon": -15.37392,
    "subregion": "Gran Canaria",
    "timezone": "Atlantic/Canary",
    "cameras": 0,
    "abilityLevels": [],
    "boardTypes": []
  },
  {
    "id": "640b8a70de81d5272c099e37",
    "name": "La Izquierda del Muelle",
    "lat": 27.8453,
    "lon": -15.392,
    "subregion": "Gran Canaria",
    "timezone": "Atlantic/Canary",
    "cameras": 0,
    "abilityLevels": [],
    "boardTypes": []
  },
  {
    "id": "640b8a7c4878eb996c19b24c",
    "name": "Mosca Point",
    "lat": 27.8361,
    "lon": -15.4144,
    "subregion": "Gran Canaria",
    "timezone": "Atlantic/Canary",
    "cameras": 0,
    "abilityLevels": [],
    "boardTypes": []
  },
  {
    "id": "640b8aa1de81d5632e09aa01",
    "name": "Playa del Cardon",
    "lat": 27.7907,
    "lon": -15.4909,
    "subregion": "Gran Canaria",
    "timezone": "Atlantic/Canary",
    "cameras": 0,
    "abilityLevels": [],
    "boardTypes": []
  },
  {
    "id": "584204204e65fad6a770969a",
    "name": "Maspalomas",
    "lat": 27.73435,
    "lon": -15.597736,
    "subregion": "Gran Canaria",
    "timezone": "Atlantic/Canary",
    "cameras": 0,
    "abilityLevels": [],
    "boardTypes": []
  },
  {
    "id": "640b8a76b6d769dd55907b88",
    "name": "Derecha del Faro",
    "lat": 27.7338,
    "lon": -15.5985,
    "subregion": "Gran Canaria",
    "timezone": "Atlantic/Canary",
    "cameras": 0,
    "abilityLevels": [],
    "boardTypes": []
  },
  {
    "id": "640b8a9bb6d76959f4908492",
    "name": "Meloneras",
    "lat": 27.7426,
    "lon": -15.6094,
    "subregion": "Gran Canaria",
    "timezone": "Atlantic/Canary",
    "cameras": 0,
    "abilityLevels": [],
    "boardTypes": []
  },
  {
    "id": "640b8a83b6d769dbc1907ea0",
    "name": "Playa de las Mujeres",
    "lat": 27.744,
    "lon": -15.6118,
    "subregion": "Gran Canaria",
    "timezone": "Atlantic/Canary",
    "cameras": 0,
    "abilityLevels": [],
    "boardTypes": []
  },
  {
    "id": "640b8a6a4878eb010819ad93",
    "name": "Arguineguin",
    "lat": 27.761,
    "lon": -15.6866,
    "subregion": "Gran Canaria",
    "timezone": "Atlantic/Canary",
    "cameras": 0,
    "abilityLevels": [],
    "boardTypes": []
  },
  {
    "id": "640b8a8fb6d769090d908180",
    "name": "Tauro",
    "lat": 27.7948,
    "lon": -15.7328,
    "subregion": "Gran Canaria",
    "timezone": "Atlantic/Canary",
    "cameras": 0,
    "abilityLevels": [],
    "boardTypes": []
  },
  {
    "id": "640b8a958284fe662bacfff8",
    "name": "Playa de Veneguera",
    "lat": 27.8466,
    "lon": -15.7919,
    "subregion": "Gran Canaria",
    "timezone": "Atlantic/Canary",
    "cameras": 0,
    "abilityLevels": [],
    "boardTypes": []
  },
  {
    "id": "640b892d606c4576c6ef960a",
    "name": "Generosa",
    "lat": 28.756,
    "lon": -13.8849,
    "subregion": "Fuerteventura Canaries",
    "timezone": "Atlantic/Canary",
    "cameras": 0,
    "abilityLevels": [],
    "boardTypes": []
  },
  {
    "id": "584204204e65fad6a77096a3",
    "name": "Bristol",
    "lat": 28.748903,
    "lon": -13.87342,
    "subregion": "Fuerteventura Canaries",
    "timezone": "Atlantic/Canary",
    "cameras": 0,
    "abilityLevels": [],
    "boardTypes": []
  },
  {
    "id": "584204204e65fad6a77096a0",
    "name": "Rocky Point",
    "lat": 28.73282,
    "lon": -13.85688,
    "subregion": "Fuerteventura Canaries",
    "timezone": "Atlantic/Canary",
    "cameras": 0,
    "abilityLevels": [
      "BEGINNER",
      "INTERMEDIATE"
    ],
    "boardTypes": [
      "SHORTBOARD",
      "FUNBOARD",
      "SUP",
      "FISH",
      "LONGBOARD",
      "BODYBOARD"
    ]
  },
  {
    "id": "5842041f4e65fad6a7708cb9",
    "name": "Los Lobos",
    "lat": 28.75027778,
    "lon": -13.83528,
    "subregion": "Fuerteventura Canaries",
    "timezone": "Atlantic/Canary",
    "cameras": 0,
    "abilityLevels": [
      "INTERMEDIATE"
    ],
    "boardTypes": [
      "SHORTBOARD",
      "GUN"
    ]
  },
  {
    "id": "640b894d4519055a3bdbaeaf",
    "name": "Flag Beach",
    "lat": 28.7229,
    "lon": -13.8416,
    "subregion": "Fuerteventura Canaries",
    "timezone": "Atlantic/Canary",
    "cameras": 0,
    "abilityLevels": [],
    "boardTypes": []
  },
  {
    "id": "640b893a4878eb50bf195f71",
    "name": "Playa los Matos",
    "lat": 28.6984,
    "lon": -13.8313,
    "subregion": "Fuerteventura Canaries",
    "timezone": "Atlantic/Canary",
    "cameras": 0,
    "abilityLevels": [],
    "boardTypes": []
  },
  {
    "id": "584204204e65fad6a77096a4",
    "name": "Corralejo Beach",
    "lat": 28.696627,
    "lon": -13.82747,
    "subregion": "Fuerteventura Canaries",
    "timezone": "Atlantic/Canary",
    "cameras": 0,
    "abilityLevels": [],
    "boardTypes": []
  },
  {
    "id": "640b89264519055221dba4e8",
    "name": "El Burro (Glasbeach)",
    "lat": 28.69,
    "lon": -13.83,
    "subregion": "Fuerteventura Canaries",
    "timezone": "Atlantic/Canary",
    "cameras": 0,
    "abilityLevels": [],
    "boardTypes": []
  },
  {
    "id": "640b89598284fe91dbacaee1",
    "name": "Playa del Moro",
    "lat": 28.6845,
    "lon": -13.8321,
    "subregion": "Fuerteventura Canaries",
    "timezone": "Atlantic/Canary",
    "cameras": 0,
    "abilityLevels": [],
    "boardTypes": []
  },
  {
    "id": "640b89334878eb9f5e195ddc",
    "name": "Playa La Cabezuela",
    "lat": 28.6217,
    "lon": -13.8269,
    "subregion": "Fuerteventura Canaries",
    "timezone": "Atlantic/Canary",
    "cameras": 0,
    "abilityLevels": [],
    "boardTypes": []
  },
  {
    "id": "640b8940b6d7696b02902c97",
    "name": "Playa Los Picachos",
    "lat": 28.617,
    "lon": -13.8257,
    "subregion": "Fuerteventura Canaries",
    "timezone": "Atlantic/Canary",
    "cameras": 0,
    "abilityLevels": [],
    "boardTypes": []
  },
  {
    "id": "640b89534519055a3bdbb036",
    "name": "Playa del Perchel",
    "lat": 28.5789,
    "lon": -13.8296,
    "subregion": "Fuerteventura Canaries",
    "timezone": "Atlantic/Canary",
    "cameras": 0,
    "abilityLevels": [],
    "boardTypes": []
  },
  {
    "id": "640b8946e92030397fdcd44c",
    "name": "Playa de los Valdivias",
    "lat": 28.5733,
    "lon": -13.8293,
    "subregion": "Fuerteventura Canaries",
    "timezone": "Atlantic/Canary",
    "cameras": 0,
    "abilityLevels": [],
    "boardTypes": []
  },
  {
    "id": "584204204e65fad6a77096a2",
    "name": "Majanicho",
    "lat": 28.749293,
    "lon": -13.93319,
    "subregion": "Fuerteventura Canaries",
    "timezone": "Atlantic/Canary",
    "cameras": 0,
    "abilityLevels": [
      "BEGINNER",
      "INTERMEDIATE"
    ],
    "boardTypes": [
      "FISH",
      "FUNBOARD",
      "LONGBOARD",
      "SUP"
    ]
  },
  {
    "id": "5842041f4e65fad6a7708cbf",
    "name": "The Bubble (Hierro Right)",
    "lat": 28.74416667,
    "lon": -13.94806,
    "subregion": "Fuerteventura Canaries",
    "timezone": "Atlantic/Canary",
    "cameras": 0,
    "abilityLevels": [
      "INTERMEDIATE",
      "ADVANCED"
    ],
    "boardTypes": [
      "SHORTBOARD",
      "FISH",
      "BODYBOARD"
    ]
  },
  {
    "id": "666b3248646e832432d19dd2",
    "name": "Playa Punta Blanca",
    "lat": 28.7239671,
    "lon": -13.98912,
    "subregion": "Fuerteventura Canaries",
    "timezone": "Atlantic/Canary",
    "cameras": 0,
    "abilityLevels": [],
    "boardTypes": []
  },
  {
    "id": "6052148c589a23368a742cb4",
    "name": "Cotillo",
    "lat": 28.6754,
    "lon": -14.0104,
    "subregion": "Fuerteventura Canaries",
    "timezone": "Atlantic/Canary",
    "cameras": 0,
    "abilityLevels": [
      "BEGINNER",
      "INTERMEDIATE"
    ],
    "boardTypes": [
      "SHORTBOARD",
      "FUNBOARD",
      "SUP",
      "FISH",
      "LONGBOARD",
      "BODYBOARD"
    ]
  },
  {
    "id": "640b8902e9203003b2dcc458",
    "name": "Playa Jarugo",
    "lat": 28.5716,
    "lon": -14.0482,
    "subregion": "Fuerteventura Canaries",
    "timezone": "Atlantic/Canary",
    "cameras": 0,
    "abilityLevels": [],
    "boardTypes": []
  },
  {
    "id": "640b8920e920306c5edccad9",
    "name": "Caleta de Fuste Beach",
    "lat": 28.3949,
    "lon": -13.8579,
    "subregion": "Fuerteventura Canaries",
    "timezone": "Atlantic/Canary",
    "cameras": 0,
    "abilityLevels": [],
    "boardTypes": []
  },
  {
    "id": "584204204e65fad6a77096a6",
    "name": "Pozo Negro",
    "lat": 28.323487,
    "lon": -13.895123,
    "subregion": "Fuerteventura Canaries",
    "timezone": "Atlantic/Canary",
    "cameras": 0,
    "abilityLevels": [],
    "boardTypes": []
  },
  {
    "id": "640b8908e920300ba8dcc5e9",
    "name": "Playa de los James",
    "lat": 28.2383,
    "lon": -13.9311,
    "subregion": "Fuerteventura Canaries",
    "timezone": "Atlantic/Canary",
    "cameras": 0,
    "abilityLevels": [],
    "boardTypes": []
  },
  {
    "id": "640b89148284fe0275ac9e82",
    "name": "Playa Puerto Rico",
    "lat": 28.1752,
    "lon": -14.1712,
    "subregion": "Fuerteventura Canaries",
    "timezone": "Atlantic/Canary",
    "cameras": 0,
    "abilityLevels": [],
    "boardTypes": []
  },
  {
    "id": "640b88f08284fe01a2ac95c9",
    "name": "Jandia",
    "lat": 28.1006,
    "lon": -14.2713,
    "subregion": "Fuerteventura Canaries",
    "timezone": "Atlantic/Canary",
    "cameras": 0,
    "abilityLevels": [],
    "boardTypes": []
  },
  {
    "id": "584204204e65fad6a77096a7",
    "name": "La Pared",
    "lat": 28.21453,
    "lon": -14.22557,
    "subregion": "Fuerteventura Canaries",
    "timezone": "Atlantic/Canary",
    "cameras": 0,
    "abilityLevels": [],
    "boardTypes": []
  },
  {
    "id": "640b88e445190544e6db961f",
    "name": "Shipwreck",
    "lat": 28.3464,
    "lon": -14.1784,
    "subregion": "Fuerteventura Canaries",
    "timezone": "Atlantic/Canary",
    "cameras": 0,
    "abilityLevels": [],
    "boardTypes": []
  },
  {
    "id": "640b88f6451905854cdb99bc",
    "name": "Playa del Esquinzo",
    "lat": 28.0727,
    "lon": -14.3027,
    "subregion": "Fuerteventura Canaries",
    "timezone": "Atlantic/Canary",
    "cameras": 0,
    "abilityLevels": [],
    "boardTypes": []
  },
  {
    "id": "640b88eab6d769da88901861",
    "name": "Cruz Roja",
    "lat": 28.0437,
    "lon": -14.3313,
    "subregion": "Fuerteventura Canaries",
    "timezone": "Atlantic/Canary",
    "cameras": 0,
    "abilityLevels": [],
    "boardTypes": []
  },
  {
    "id": "640b890e4878eb4e711955fa",
    "name": "Playa de Cofete",
    "lat": 28.1118,
    "lon": -14.3902,
    "subregion": "Fuerteventura Canaries",
    "timezone": "Atlantic/Canary",
    "cameras": 0,
    "abilityLevels": [],
    "boardTypes": []
  },
  {
    "id": "640b88fc606c458379ef8b0e",
    "name": "Playa de las Pilas",
    "lat": 28.0729,
    "lon": -14.4478,
    "subregion": "Fuerteventura Canaries",
    "timezone": "Atlantic/Canary",
    "cameras": 0,
    "abilityLevels": [],
    "boardTypes": []
  },
  {
    "id": "640b891ade81d5d05a094736",
    "name": "Playa Barlovento",
    "lat": 28.1331,
    "lon": -14.3363,
    "subregion": "Fuerteventura Canaries",
    "timezone": "Atlantic/Canary",
    "cameras": 0,
    "abilityLevels": [],
    "boardTypes": []
  },
  {
    "id": "584204204e65fad6a77096a5",
    "name": "Las Salinas",
    "lat": 28.07692,
    "lon": -14.47738,
    "subregion": "Fuerteventura Canaries",
    "timezone": "Atlantic/Canary",
    "cameras": 0,
    "abilityLevels": [],
    "boardTypes": []
  },
  {
    "id": "640a15ab4eb3751ba289fc57",
    "name": "La Corniche - Sahara",
    "lat": 27.1905,
    "lon": -13.3922,
    "subregion": "Western Sahara",
    "timezone": "Africa/Casablanca",
    "cameras": 0,
    "abilityLevels": [],
    "boardTypes": []
  },
  {
    "id": "640a15bc606c4507a7a6460c",
    "name": "Foum el Oued",
    "lat": 27.1799,
    "lon": -13.3973,
    "subregion": "Western Sahara",
    "timezone": "Africa/Casablanca",
    "cameras": 0,
    "abilityLevels": [],
    "boardTypes": []
  },
  {
    "id": "640a15a94eb375790f89fbe3",
    "name": "Al Marsa",
    "lat": 27.0639,
    "lon": -13.4295,
    "subregion": "Western Sahara",
    "timezone": "Africa/Casablanca",
    "cameras": 0,
    "abilityLevels": [],
    "boardTypes": []
  },
  {
    "id": "640a15bfe9203084a19380d2",
    "name": "La\u00e2youne Plage",
    "lat": 27.0518,
    "lon": -13.4343,
    "subregion": "Western Sahara",
    "timezone": "Africa/Casablanca",
    "cameras": 0,
    "abilityLevels": [],
    "boardTypes": []
  },
  {
    "id": "640a15d4451905c8c492589b",
    "name": "Playa del Medano",
    "lat": 26.9216,
    "lon": -13.4859,
    "subregion": "Western Sahara",
    "timezone": "Africa/Casablanca",
    "cameras": 0,
    "abilityLevels": [],
    "boardTypes": []
  },
  {
    "id": "640a15ae99dd445831f8cf4b",
    "name": "Zbarat",
    "lat": 26.9144,
    "lon": -13.4916,
    "subregion": "Western Sahara",
    "timezone": "Africa/Casablanca",
    "cameras": 0,
    "abilityLevels": [],
    "boardTypes": []
  },
  {
    "id": "640a15b0606c45e357a64312",
    "name": "Tarf Noa",
    "lat": 26.3866,
    "lon": -14.2075,
    "subregion": "Western Sahara",
    "timezone": "Africa/Casablanca",
    "cameras": 0,
    "abilityLevels": [],
    "boardTypes": []
  },
  {
    "id": "640a15b24eb37523f489fe39",
    "name": "Msdoud",
    "lat": 26.1318,
    "lon": -14.5001,
    "subregion": "Western Sahara",
    "timezone": "Africa/Casablanca",
    "cameras": 0,
    "abilityLevels": [],
    "boardTypes": []
  },
  {
    "id": "640a15b44eb375c01e89fed6",
    "name": "Tarf Entayreft",
    "lat": 24.0749,
    "lon": -15.5842,
    "subregion": "Western Sahara",
    "timezone": "Africa/Casablanca",
    "cameras": 0,
    "abilityLevels": [],
    "boardTypes": []
  },
  {
    "id": "640a15b6b6d76911b346d816",
    "name": "Pointe de l'Or",
    "lat": 23.96,
    "lon": -15.7482,
    "subregion": "Western Sahara",
    "timezone": "Africa/Casablanca",
    "cameras": 0,
    "abilityLevels": [],
    "boardTypes": []
  },
  {
    "id": "640a15b8606c458115a64514",
    "name": "Foum El Bouir",
    "lat": 23.9222,
    "lon": -15.8058,
    "subregion": "Western Sahara",
    "timezone": "Africa/Casablanca",
    "cameras": 0,
    "abilityLevels": [],
    "boardTypes": []
  },
  {
    "id": "640a15ce99dd449c9bf8d7f2",
    "name": "Westpoint",
    "lat": 23.7677,
    "lon": -15.9262,
    "subregion": "Western Sahara",
    "timezone": "Africa/Casablanca",
    "cameras": 0,
    "abilityLevels": [],
    "boardTypes": []
  },