[
  {
    "name": "Andrews Head",
    "wannasurf_slug": "Andrews_Head",
    "type": "Beach-break",
    "direction": "Right and left",
    "experience": "All surfers",
    "lat": 44.068,
    "lng": -64.5636,
    "coords_source": "wannasurf_browser_scrape"
  },
  {
    "name": "Antlers Beach",
    "wannasurf_slug": "Antlers_beach",
    "type": "Beach-break",
    "direction": "Right and left",
    "experience": "All surfers",
    "note": "NOT NS - coordinates in British Columbia"
  },
  {
    "name": "Blueberry Bay",
    "wannasurf_slug": "Blueberry_Bay",
    "type": "Point-break",
    "direction": "Right and left",
    "experience": "Experienced surfers",
    "lat": 44.0658,
    "lng": -64.5822,
    "coords_source": "wannasurf_browser_scrape"
  },
  {
    "name": "Broad Cove",
    "wannasurf_slug": "Broad_Cove",
    "type": "Reef-rocky",
    "direction": "Right and left",
    "experience": "Experienced surfers",
    "lat": 44.1772,
    "lng": -64.4701,
    "coords_source": "wannasurf_browser_scrape"
  },
  {
    "name": "Cherry Hill",
    "wannasurf_slug": "cherry_hill",
    "type": "Beach-break",
    "direction": "Right and left",
    "experience": "All surfers",
    "lat": 44.1402,
    "lng": -64.5066,
    "coords_source": "wannasurf_browser_scrape"
  },
  {
    "name": "Cow Bay - Moose Rocks",
    "wannasurf_slug": "cow_bay_-_moose_rocks",
    "type": "Reef-rocky",
    "direction": "Right and left",
    "experience": "Experienced surfers",
    "lat": 44.6139,
    "lng": -63.4296,
    "coords_source": "wannasurf_browser_scrape"
  },
  {
    "name": "Dennis Beach",
    "wannasurf_slug": "dennis_beach",
    "type": "Beach-break",
    "direction": "Right and left",
    "experience": ""
  },
  {
    "name": "Eastern Brook",
    "wannasurf_slug": "eastern_brook",
    "type": "Reef-rocky",
    "direction": "Right and left",
    "experience": "All surfers"
  },
  {
    "name": "Fisherman's Reserve",
    "wannasurf_slug": "fisherman_s_reserve",
    "type": "Point-break",
    "direction": "Right",
    "experience": "All surfers",
    "lat": 44.6481,
    "lng": -63.2744,
    "coords_source": "wannasurf_browser_scrape"
  },
  {
    "name": "Forevers",
    "wannasurf_slug": "forevers",
    "type": "Point-break",
    "direction": "",
    "experience": "Experienced surfers"
  },
  {
    "name": "Hirtles",
    "wannasurf_slug": "hirtles",
    "type": "Beach-break",
    "direction": "Right and left",
    "experience": "Beginners wave",
    "lat": 44.2589,
    "lng": -64.2704,
    "coords_source": "wannasurf_browser_scrape"
  },
  {
    "name": "Icicles",
    "wannasurf_slug": "icicles",
    "type": "Reef-rocky",
    "direction": "Right and left",
    "experience": "All surfers"
  },
  {
    "name": "Ingonish Beach",
    "wannasurf_slug": "ingonish_beach",
    "type": "Beach-break",
    "direction": "Right and left",
    "experience": "All surfers",
    "lat": 46.647,
    "lng": -60.3875,
    "coords_source": "wannasurf_browser_scrape"
  },
  {
    "name": "Juicy's",
    "wannasurf_slug": "juicy_s",
    "type": "Rivermouth",
    "direction": "Right and left",
    "experience": "All surfers"
  },
  {
    "name": "Kennington Cove",
    "wannasurf_slug": "Kennington_Cove",
    "type": "Beach-break",
    "direction": "Right and left",
    "experience": "All surfers",
    "lat": 45.8765,
    "lng": -60.0605,
    "coords_source": "wannasurf_browser_scrape"
  },
  {
    "name": "Killaz",
    "wannasurf_slug": "killaz",
    "type": "Reef-rocky",
    "direction": "Right and left",
    "experience": "All surfers",
    "lat": 44.6529,
    "lng": -63.2644,
    "coords_source": "wannasurf_browser_scrape"
  },
  {
    "name": "Lawrencetown",
    "wannasurf_slug": "lawrencetown",
    "type": "Point-break",
    "direction": "Right",
    "experience": "All surfers",
    "lat": 44.6422,
    "lng": -63.342,
    "coords_source": "wannasurf_browser_scrape"
  },
  {
    "name": "Lawrencetown - Plan B",
    "wannasurf_slug": "lawrencetown_-_plan_b",
    "type": "Sand-bar",
    "direction": "Right and left",
    "experience": "All surfers",
    "lat": 44.6442,
    "lng": -63.3594,
    "coords_source": "wannasurf_browser_scrape"
  },
  {
    "name": "Left Point",
    "wannasurf_slug": "left_point",
    "type": "Point-break",
    "direction": "Left",
    "experience": "All surfers"
  },
  {
    "name": "Martinique",
    "wannasurf_slug": "martinique",
    "type": "Beach-break",
    "direction": "Right and left",
    "experience": "Beginners wave"
  },
  {
    "name": "Meadows Point",
    "wannasurf_slug": "Meadows_point",
    "type": "Point-break",
    "direction": "Left",
    "experience": "Experienced surfers",
    "lat": 44.0592,
    "lng": -64.6321,
    "coords_source": "wannasurf_browser_scrape"
  },
  {
    "name": "Minutes",
    "wannasurf_slug": "Minutes",
    "type": "Reef-rocky",
    "direction": "Right and left",
    "experience": "Experienced surfers",
    "lat": 44.6293,
    "lng": -63.4162,
    "coords_source": "wannasurf_browser_scrape"
  },
  {
    "name": "Osbourne",
    "wannasurf_slug": "osbourne",
    "type": "Point-break",
    "direction": "Right",
    "experience": "Experienced surfers",
    "lat": 44.6107,
    "lng": -63.4204,
    "coords_source": "wannasurf_browser_scrape"
  },
  {
    "name": "Point Michaud",
    "wannasurf_slug": "point_michaud",
    "type": "Beach-break",
    "direction": "Right and left",
    "experience": "All surfers",
    "lat": 45.5881,
    "lng": -60.6795,
    "coords_source": "wannasurf_browser_scrape"
  },
  {
    "name": "Point Pleasant Beach Park",
    "wannasurf_slug": "point_pleasant_beach_park",
    "type": "",
    "direction": "",
    "experience": "All surfers"
  },
  {
    "name": "Pubnico Beach",
    "wannasurf_slug": "pubnico_beach",
    "type": "Beach-break",
    "direction": "Right and left",
    "experience": "All surfers"
  },
  {
    "name": "Rissers",
    "wannasurf_slug": "Rissers",
    "type": "Beach-break",
    "direction": "Right and left",
    "experience": "All surfers",
    "lat": 44.2297,
    "lng": -64.4272,
    "coords_source": "wannasurf_browser_scrape"
  },
  {
    "name": "Rudy's",
    "wannasurf_slug": "rudy_s",
    "type": "Beach-break",
    "direction": "Right and left",
    "experience": "All surfers"
  },
  {
    "name": "Sable Island",
    "wannasurf_slug": "sable_island",
    "type": "Beach-break",
    "direction": "Right and left",
    "experience": "Pros or kamikaze only",
    "lat": 43.9288,
    "lng": -59.876,
    "coords_source": "wannasurf_browser_scrape"
  },
  {
    "name": "Seals",
    "wannasurf_slug": "Seals",
    "type": "Beach-break",
    "direction": "Right and left",
    "experience": "",
    "lat": 44.6674,
    "lng": -63.2524,
    "coords_source": "wannasurf_browser_scrape"
  },
  {
    "name": "The Juice",
    "wannasurf_slug": "the_juice",
    "type": "Rivermouth",
    "direction": "Right and left",
    "experience": "All surfers"
  },
  {
    "name": "The Meadows",
    "wannasurf_slug": "The_Meadows",
    "type": "Beach-break",
    "direction": "Right and left",
    "experience": "All surfers",
    "lat": 44.0578,
    "lng": -64.6372,
    "coords_source": "wannasurf_browser_scrape"
  },
  {
    "name": "White Point",
    "wannasurf_slug": "White_Point",
    "type": "Beach-break",
    "direction": "Right and left",
    "experience": "Experienced surfers",
    "lat": 43.9618,
    "lng": -64.7353,
    "coords_source": "wannasurf_browser_scrape"
  },
  {
    "name": "Zaluds",
    "wannasurf_slug": "zaluds",
    "type": "Beach-break",
    "direction": "Right and left",
    "experience": "All surfers"
  }
]